lat,lon,name,is_city,is_feasible_location,is_existing_charger,n_chargers,mean_power_kw,x_built,c_built,p_built_kw,wq_minutes,lambda_k,gamma,fixed_cost
37.11906,-3.584,Zubia,1,0,0,0,0.0,0,0,0,0.0,0.0,0.8,0.0
38.42539,-6.41734,Zafra,1,0,0,0,0.0,0,0,0,0.0,0.0,0.8,0.0
38.61365,-1.11468,Yecla,1,0,0,0,0.0,0,0,0,0.0,0.0,0.8,0.0
38.6373,-0.86568,Villena,1,0,0,0,0.0,0,0,0,0.0,0.0,0.8,0.0
39.22085,-3.60802,Villarrubia de los Ojos,1,0,0,0,0.0,0,0,0,0.0,0.0,0.8,0.0
39.26992,-2.60119,Villarrobledo,1,0,0,0,0.0,0,0,0,0.0,0.0,0.8,0.0
39.9383,-0.10087,Vila-real,1,0,0,0,0.0,0,0,0,0.0,0.0,0.8,0.0
38.97655,-5.7974,Villanueva de la Serena,1,0,0,0,0.0,0,0,0,0.0,0.0,0.8,0.0
38.32277,-4.62873,Villanueva de Córdoba,1,0,0,0,0.0,0,0,0,0.0,0.0,0.8,0.0
36.85979,-5.64485,Villamartín,1,0,0,0,0.0,0,0,0,0.0,0.0,0.8,0.0
38.50754,-0.23346,Villajoyosa,1,0,0,0,0.0,0,0,0,0.0,0.0,0.8,0.0
38.1156,-3.0848,Villacarrillo,1,0,0,0,0.0,0,0,0,0.0,0.0,0.8,0.0
39.62367,-3.33813,Villacañas,1,0,0,0,0.0,0,0,0,0.0,0.0,0.8,0.0
36.83155,-2.64273,Vícar,1,0,0,0,0.0,0,0,0,0.0,0.0,0.8,0.0
37.24345,-1.85905,Vera,1,0,0,0,0.0,0,0,0,0.0,0.0,0.8,0.0
36.78107,-4.10266,Vélez-Málaga,1,0,0,0,0.0,0,0,0,0.0,0.0,0.8,0.0
36.25213,-5.96717,Vejer de la Frontera,1,0,0,0,0.0,0,0,0,0.0,0.0,0.8,0.0
37.57511,-6.75432,Valverde del Camino,1,0,0,0,0.0,0,0,0,0.0,0.0,0.8,0.0
39.47391,-0.37966,Valencia,1,0,0,0,0.0,0,0,0,0.0,0.0,0.8,0.0
38.76211,-3.38483,Valdepeñas,1,0,0,0,0.0,0,0,0,0.0,0.0,0.8,0.0
37.18516,-5.78093,Utrera,1,0,0,0,0.0,0,0,0,0.0,0.0,0.8,0.0
39.56667,-1.2,Utiel,1,0,0,0,0.0,0,0,0,0.0,0.0,0.8,0.0
36.67777,-5.446,Ubrique,1,0,0,0,0.0,0,0,0,0.0,0.0,0.8,0.0
38.01328,-3.3705,Úbeda,1,0,0,0,0.0,0,0,0,0.0,0.0,0.8,0.0
37.7688,-1.50229,Totana,1,0,0,0,0.0,0,0,0,0.0,0.0,0.8,0.0
39.98195,-4.28349,Torrijos,1,0,0,0,0.0,0,0,0,0.0,0.0,0.8,0.0
37.97872,-0.68222,Torrevieja,1,0,0,0,0.0,0,0,0,0.0,0.0,0.8,0.0
37.74293,-0.95396,Torre-Pacheco,1,0,0,0,0.0,0,0,0,0.0,0.0,0.8,0.0
36.62035,-4.49976,Torremolinos,1,0,0,0,0.0,0,0,0,0.0,0.0,0.8,0.0
37.76748,-3.95776,Torredonjimeno,1,0,0,0,0.0,0,0,0,0.0,0.0,0.8,0.0
39.15759,-3.02156,Tomelloso,1,0,0,0,0.0,0,0,0,0.0,0.0,0.8,0.0
37.37281,-6.04589,Tomares,1,0,0,0,0.0,0,0,0,0.0,0.0,0.8,0.0
39.8581,-4.02263,Toledo,1,0,0,0,0.0,0,0,0,0.0,0.0,0.8,0.0
38.7294,0.10383,Teulada,1,0,0,0,0.0,0,0,0,0.0,0.0,0.8,0.0
36.01393,-5.60695,Tarifa,1,0,0,0,0.0,0,0,0,0.0,0.0,0.8,0.0
39.96348,-4.83076,Talavera de la Reina,1,0,0,0,0.0,0,0,0,0.0,0.0,0.8,0.0
39.07195,-0.26623,Tavernes de la Valldigna,1,0,0,0,0.0,0,0,0,0.0,0.0,0.8,0.0
39.67747,-3.97448,Sonseca,1,0,0,0,0.0,0,0,0,0.0,0.0,0.8,0.0
38.3964,-0.5255,San Vicent del Raspeig,1,0,0,0,0.0,0,0,0,0.0,0.0,0.8,0.0
38.06147,-1.04877,Santomera,1,0,0,0,0.0,0,0,0,0.0,0.0,0.8,0.0
38.19165,-0.5658,Santa Pola,1,0,0,0,0.0,0,0,0,0.0,0.0,0.8,0.0
36.20983,-5.38452,San Roque,1,0,0,0,0.0,0,0,0,0.0,0.0,0.8,0.0
36.48839,-4.99123,San Pedro Alcántara,1,0,0,0,0.0,0,0,0,0.0,0.0,0.8,0.0
36.77808,-6.3515,Sanlúcar de Barrameda,1,0,0,0,0.0,0,0,0,0.0,0.0,0.8,0.0
36.4759,-6.19817,San Fernando,1,0,0,0,0.0,0,0,0,0.0,0.0,0.8,0.0
36.74277,-3.58717,Salobreña,1,0,0,0,0.0,0,0,0,0.0,0.0,0.8,0.0
39.68333,-0.26667,Sagunto,1,0,0,0,0.0,0,0,0,0.0,0.0,0.8,0.0
37.3269,-4.36827,Rute,1,0,0,0,0.0,0,0,0,0.0,0.0,0.8,0.0
36.74231,-5.16709,Ronda,1,0,0,0,0.0,0,0,0,0.0,0.0,0.8,0.0
39.59369,-3.04165,Quintanar de la Orden,1,0,0,0,0.0,0,0,0,0.0,0.0,0.8,0.0
38.68712,-4.10734,Puertollano,1,0,0,0,0.0,0,0,0,0.0,0.0,0.8,0.0
37.38943,-4.76686,Puente-Genil,1,0,0,0,0.0,0,0,0,0.0,0.0,0.8,0.0
39.59747,-0.55468,La Pobla de Vallbona,1,0,0,0,0.0,0,0,0,0.0,0.0,0.8,0.0
38.37906,-4.84827,Pozoblanco,1,0,0,0,0.0,0,0,0,0.0,0.0,0.8,0.0
37.25109,-3.74967,Pinos Puente,1,0,0,0,0.0,0,0,0,0.0,0.0,0.8,0.0
37.30337,-6.30097,Pilas,1,0,0,0,0.0,0,0,0,0.0,0.0,0.8,0.0
38.3,-5.26667,Peñarroya-Pueblonuevo,1,0,0,0,0.0,0,0,0,0.0,0.0,0.8,0.0
37.23457,-6.89471,Palos de la Frontera,1,0,0,0,0.0,0,0,0,0.0,0.0,0.8,0.0
37.70024,-5.28121,Palma del Río,1,0,0,0,0.0,0,0,0,0.0,0.0,0.8,0.0
37.2376,-5.10311,Osuna,1,0,0,0,0.0,0,0,0,0.0,0.0,0.8,0.0
38.82191,-0.60603,Ontinyent,1,0,0,0,0.0,0,0,0,0.0,0.0,0.8,0.0
38.91971,-0.11935,Oliva,1,0,0,0,0.0,0,0,0,0.0,0.0,0.8,0.0
38.38479,-0.76773,Novelda,1,0,0,0,0.0,0,0,0,0.0,0.0,0.8,0.0
36.96655,-2.20595,Níjar,1,0,0,0,0.0,0,0,0,0.0,0.0,0.8,0.0
36.75278,-3.8744,Nerja,1,0,0,0,0.0,0,0,0,0.0,0.0,0.8,0.0
39.89158,-5.54064,Navalmoral de la Mata,1,0,0,0,0.0,0,0,0,0.0,0.0,0.8,0.0
38.04095,-1.49014,Mula,1,0,0,0,0.0,0,0,0,0.0,0.0,0.8,0.0
37.12084,-5.45403,Morón de la Frontera,1,0,0,0,0.0,0,0,0,0.0,0.0,0.8,0.0
37.58627,-4.63805,Montilla,1,0,0,0,0.0,0,0,0,0.0,0.0,0.8,0.0
38.90839,-6.61785,Montijo,1,0,0,0,0.0,0,0,0,0.0,0.0,0.8,0.0
38.96442,-3.89047,Miguelturra,1,0,0,0,0.0,0,0,0,0.0,0.0,0.8,0.0
39.15127,-5.90841,Miajadas,1,0,0,0,0.0,0,0,0,0.0,0.0,0.8,0.0
38.91802,-6.34292,Mérida,1,0,0,0,0.0,0,0,0,0.0,0.0,0.8,0.0
36.45695,-5.92717,Medina Sidonia,1,0,0,0,0.0,0,0,0,0.0,0.0,0.8,0.0
37.5992,-1.31493,Mazarrón,1,0,0,0,0.0,0,0,0,0.0,0.0,0.8,0.0
37.329,-5.41681,Marchena,1,0,0,0,0.0,0,0,0,0.0,0.0,0.8,0.0
38.99915,-3.36991,Manzanares,1,0,0,0,0.0,0,0,0,0.0,0.0,0.8,0.0
36.37645,-5.25026,Manilva,1,0,0,0,0.0,0,0,0,0.0,0.0,0.8,0.0
37.78627,-3.61226,Mancha Real,1,0,0,0,0.0,0,0,0,0.0,0.0,0.8,0.0
37.37301,-5.74951,Mairena del Alcor,1,0,0,0,0.0,0,0,0,0.0,0.0,0.8,0.0
39.46823,-3.53196,Madridejos,1,0,0,0,0.0,0,0,0,0.0,0.0,0.8,0.0
37.56329,-1.80974,Puerto Lumbreras,1,0,0,0,0.0,0,0,0,0.0,0.0,0.8,0.0
37.65896,-5.52751,Lora del Río,1,0,0,0,0.0,0,0,0,0.0,0.0,0.8,0.0
37.16887,-4.15129,Loja,1,0,0,0,0.0,0,0,0,0.0,0.0,0.8,0.0
38.09519,-3.63602,Linares,1,0,0,0,0.0,0,0,0,0.0,0.0,0.8,0.0
37.25482,-7.20433,Lepe,1,0,0,0,0.0,0,0,0,0.0,0.0,0.8,0.0
36.92077,-6.07529,Lebrija,1,0,0,0,0.0,0,0,0,0.0,0.0,0.8,0.0
39.20735,-2.15723,La Roda,1,0,0,0,0.0,0,0,0,0.0,0.0,0.8,0.0
37.38605,-6.55231,La Palma del Condado,1,0,0,0,0.0,0,0,0,0.0,0.0,0.8,0.0
38.27559,-3.61535,La Carolina,1,0,0,0,0.0,0,0,0,0.0,0.0,0.8,0.0
37.67359,-4.93122,La Carlota,1,0,0,0,0.0,0,0,0,0.0,0.0,0.8,0.0
38.47917,-1.325,Jumilla,1,0,0,0,0.0,0,0,0,0.0,0.0,0.8,0.0
38.32063,-6.7726,Jerez de los Caballeros,1,0,0,0,0.0,0,0,0,0.0,0.0,0.8,0.0
36.68645,-6.13606,Jerez de la Frontera,1,0,0,0,0.0,0,0,0,0.0,0.0,0.8,0.0
38.99042,-0.51852,Xàtiva,1,0,0,0,0.0,0,0,0,0.0,0.0,0.8,0.0
38.62533,-0.57225,Ibi,1,0,0,0,0.0,0,0,0,0.0,0.0,0.8,0.0
38.5106,-1.70096,Hellín,1,0,0,0,0.0,0,0,0,0.0,0.0,0.8,0.0
37.29932,-3.13922,Guadix,1,0,0,0,0.0,0,0,0,0.0,0.0,0.8,0.0
38.53089,-5.92513,El Casar,1,0,0,0,0.0,0,0,0,0.0,0.0,0.8,0.0
39.98406,-6.53603,Coria,1,0,0,0,0.0,0,0,0,0.0,0.0,0.8,0.0
37.89155,-4.77275,Córdoba,1,0,0,0,0.0,0,0,0,0.0,0.0,0.8,0.0
36.65947,-4.75639,Coín,1,0,0,0,0.0,0,0,0,0.0,0.0,0.8,0.0
38.23998,-1.41987,Cieza,1,0,0,0,0.0,0,0,0,0.0,0.0,0.8,0.0
39.46667,-0.71667,Chiva,1,0,0,0,0.0,0,0,0,0.0,0.0,0.8,0.0
38.09242,-1.7985,Cehegín,1,0,0,0,0.0,0,0,0,0.0,0.0,0.8,0.0
39.2266,-0.52142,Carlet,1,0,0,0,0.0,0,0,0,0.0,0.0,0.8,0.0
37.61032,-5.82472,Cantillana,1,0,0,0,0.0,0,0,0,0.0,0.0,0.8,0.0
39.40463,-3.12492,Campo de Criptana,1,0,0,0,0.0,0,0,0,0.0,0.0,0.8,0.0
39.47649,-6.37224,Cáceres,1,0,0,0,0.0,0,0,0,0.0,0.0,0.8,0.0
38.9069,-3.66345,Bolaños de Calatrava,1,0,0,0,0.0,0,0,0,0.0,0.0,0.8,0.0
36.84693,-2.94966,Berja,1,0,0,0,0.0,0,0,0,0.0,0.0,0.8,0.0
37.49073,-2.77259,Baza,1,0,0,0,0.0,0,0,0,0.0,0.0,0.8,0.0
37.6167,-4.32245,Baena,1,0,0,0,0.0,0,0,0,0.0,0.0,0.8,0.0
38.87789,-6.97061,Badajoz,1,0,0,0,0.0,0,0,0,0.0,0.0,0.8,0.0
37.59989,-0.80682,Atamaría,1,0,0,0,0.0,0,0,0,0.0,0.0,0.8,0.0
37.01938,-4.56123,Antequera,1,0,0,0,0.0,0,0,0,0.0,0.0,0.8,0.0
38.03922,-4.05077,Andújar,1,0,0,0,0.0,0,0,0,0.0,0.0,0.8,0.0
38.68316,-6.40747,Almendralejo,1,0,0,0,0.0,0,0,0,0.0,0.0,0.8,0.0
38.86917,-1.09713,Almansa,1,0,0,0,0.0,0,0,0,0.0,0.0,0.8,0.0
37.59091,-4.08237,Alcaudete,1,0,0,0,0.0,0,0,0,0.0,0.0,0.8,0.0
37.4614,-3.92301,Alcalá la Real,1,0,0,0,0.0,0,0,0,0.0,0.0,0.8,0.0
37.38856,-2.14949,Albox,1,0,0,0,0.0,0,0,0,0.0,0.0,0.8,0.0
38.17902,-0.87059,Albatera,1,0,0,0,0.0,0,0,0,0.0,0.0,0.8,0.0
38.99424,-1.85643,Albacete,1,0,0,0,0.0,0,0,0,0.0,0.0,0.8,0.0
37.4063,-1.58289,Águilas,1,0,0,0,0.0,0,0,0,0.0,0.0,0.8,0.0
43.28444,-2.16992,Zarautz,1,0,0,0,0.0,0,0,0,0.0,0.0,0.8,0.0
41.65606,-0.87734,Zaragoza,1,0,0,0,0.0,0,0,0,0.0,0.0,0.8,0.0
41.50633,-5.74456,Zamora,1,0,0,0,0.0,0,0,0,0.0,0.0,0.8,0.0
43.66228,-7.59344,Viveiro,1,0,0,0,0.0,0,0,0,0.0,0.0,0.8,0.0
42.84998,-2.67268,Gasteiz / Vitoria,1,0,0,0,0.0,0,0,0,0.0,0.0,0.8,0.0
40.47033,0.47559,Vinaròs,1,0,0,0,0.0,0,0,0,0.0,0.0,0.8,0.0
40.3581,-3.9043,Villaviciosa de Odón,1,0,0,0,0.0,0,0,0,0.0,0.0,0.8,0.0
43.48126,-5.43574,Villaviciosa,1,0,0,0,0.0,0,0,0,0.0,0.0,0.8,0.0
42.64685,-5.55835,Villaquilambre,1,0,0,0,0.0,0,0,0,0.0,0.0,0.8,0.0
41.22392,1.72511,Vilanova i la Geltrú,1,0,0,0,0.0,0,0,0,0.0,0.0,0.8,0.0
42.564,-8.82797,Vilanova de Arousa,1,0,0,0,0.0,0,0,0,0.0,0.0,0.8,0.0
43.29806,-7.6813,Vilalba,1,0,0,0,0.0,0,0,0,0.0,0.0,0.8,0.0
42.8323,-1.60735,Atarrabia,1,0,0,0,0.0,0,0,0,0.0,0.0,0.8,0.0
41.11118,1.14764,Vila-seca,1,0,0,0,0.0,0,0,0,0.0,0.0,0.8,0.0
42.06174,2.25528,Vilaseca,1,0,0,0,0.0,0,0,0,0.0,0.0,0.8,0.0
41.57165,1.63751,Vilanova del Camí,1,0,0,0,0.0,0,0,0,0.0,0.0,0.8,0.0
41.31405,2.01427,Viladecans,1,0,0,0,0.0,0,0,0,0.0,0.0,0.8,0.0
42.23282,-8.72264,Vigo,1,0,0,0,0.0,0,0,0,0.0,0.0,0.8,0.0
40.4,-3.6,Vicálvaro,1,0,0,0,0.0,0,0,0,0.0,0.0,0.8,0.0
41.94149,-7.43809,Verín,1,0,0,0,0.0,0,0,0,0.0,0.0,0.8,0.0
43.1151,-2.4175,Bergara,1,0,0,0,0.0,0,0,0,0.0,0.0,0.8,0.0
41.28612,1.24993,Valls,1,0,0,0,0.0,0,0,0,0.0,0.0,0.8,0.0
41.65541,-4.72353,Valladolid,1,0,0,0,0.0,0,0,0,0.0,0.0,0.8,0.0
40.19081,-3.67887,Valdemoro,1,0,0,0,0.0,0,0,0,0.0,0.0,0.8,0.0
40.50064,-4.0671,Valdemorillo,1,0,0,0,0.0,0,0,0,0.0,0.0,0.8,0.0
42.04713,-8.64435,Tui,1,0,0,0,0.0,0,0,0,0.0,0.0,0.8,0.0
42.06166,-1.60452,Tudela,1,0,0,0,0.0,0,0,0,0.0,0.0,0.8,0.0
40.81249,0.5216,Tortosa,1,0,0,0,0.0,0,0,0,0.0,0.0,0.8,0.0
42.04254,3.12703,Torroella de Montgrí,1,0,0,0,0.0,0,0,0,0.0,0.0,0.8,0.0
43.34943,-4.04785,Torrelavega,1,0,0,0,0.0,0,0,0,0.0,0.0,0.8,0.0
41.14505,1.39861,Torredembarra,1,0,0,0,0.0,0,0,0,0.0,0.0,0.8,0.0
41.69914,2.71888,Tordera,1,0,0,0,0.0,0,0,0,0.0,0.0,0.8,0.0
43.33765,-6.41452,Tineo,1,0,0,0,0.0,0,0,0,0.0,0.0,0.8,0.0
40.3456,-1.10646,Teruel,1,0,0,0,0.0,0,0,0,0.0,0.0,0.8,0.0
42.795,-8.548,Teo,1,0,0,0,0.0,0,0,0,0.0,0.0,0.8,0.0
41.64704,1.13957,Tàrrega,1,0,0,0,0.0,0,0,0,0.0,0.0,0.8,0.0
41.56667,2.01667,Terrassa,1,0,0,0,0.0,0,0,0,0.0,0.0,0.8,0.0
41.90475,-1.72678,Tarazona,1,0,0,0,0.0,0,0,0,0.0,0.0,0.8,0.0
40.00851,-3.00731,Tarancón,1,0,0,0,0.0,0,0,0,0.0,0.0,0.8,0.0
42.52687,-1.67446,Tafalla,1,0,0,0,0.0,0,0,0,0.0,0.0,0.8,0.0
41.76401,-2.46883,Soria,1,0,0,0,0.0,0,0,0,0.0,0.0,0.8,0.0
43.37891,-2.98313,Sopela,1,0,0,0,0.0,0,0,0,0.0,0.0,0.8,0.0
42.35877,1.46144,La Seu d'Urgell,1,0,0,0,0.0,0,0,0,0.0,0.0,0.8,0.0
40.94808,-4.11839,Segovia,1,0,0,0,0.0,0,0,0,0.0,0.0,0.8,0.0
42.78148,-7.41431,Sarria,1,0,0,0,0.0,0,0,0,0.0,0.0,0.8,0.0
43.44386,-3.45757,Santoña,1,0,0,0,0.0,0,0,0,0.0,0.0,0.8,0.0
41.74549,1.80476,Sant Joan de Vilatorrada,1,0,0,0,0.0,0,0,0,0.0,0.0,0.8,0.0
43.46589,-3.80493,Santander,1,0,0,0,0.0,0,0,0,0.0,0.0,0.8,0.0
40.95065,-5.62723,Santa Marta de Tormes,1,0,0,0,0.0,0,0,0,0.0,0.0,0.8,0.0
43.03306,-8.80925,Santa Comba,1,0,0,0,0.0,0,0,0,0.0,0.0,0.8,0.0
41.45152,2.2081,Santa Coloma de Gramenet,1,0,0,0,0.0,0,0,0,0.0,0.0,0.8,0.0
41.42555,1.78519,Sant Sadurní d'Anoia,1,0,0,0,0.0,0,0,0,0.0,0.0,0.8,0.0
41.78333,3.03333,Sant Feliu de Guíxols,1,0,0,0,0.0,0,0,0,0.0,0.0,0.8,0.0
41.56667,2.48333,Sant Andreu de Llavaneres,1,0,0,0,0.0,0,0,0,0.0,0.0,0.8,0.0
40.67882,-3.61639,San Agustín del Guadalix,1,0,0,0,0.0,0,0,0,0.0,0.0,0.8,0.0
43.29568,-5.68416,Sama,1,0,0,0,0.0,0,0,0,0.0,0.0,0.8,0.0
41.97489,2.79281,Salt,1,0,0,0,0.0,0,0,0,0.0,0.0,0.8,0.0
43.35619,-8.25796,Sada,1,0,0,0,0.0,0,0,0,0.0,0.0,0.8,0.0
42.51924,-0.36607,Sabiñánigo,1,0,0,0,0.0,0,0,0,0.0,0.0,0.8,0.0
42.26199,3.17689,Roses,1,0,0,0,0.0,0,0,0,0.0,0.0,0.8,0.0
43.31195,-1.90234,Errenteria,1,0,0,0,0.0,0,0,0,0.0,0.0,0.8,0.0
42.99959,-4.13801,Reinosa,1,0,0,0,0.0,0,0,0,0.0,0.0,0.8,0.0
43.45266,-7.85178,As Pontes de García Rodríguez,1,0,0,0,0.0,0,0,0,0.0,0.0,0.8,0.0
42.431,-8.64435,Pontevedra,1,0,0,0,0.0,0,0,0,0.0,0.0,0.8,0.0
42.54664,-6.59619,Ponferrada,1,0,0,0,0.0,0,0,0,0.0,0.0,0.8,0.0
40.03116,-6.08845,Plasencia,1,0,0,0,0.0,0,0,0,0.0,0.0,0.8,0.0
42.00955,-4.52406,Palencia,1,0,0,0,0.0,0,0,0,0.0,0.0,0.8,0.0
42.33669,-7.86407,Ourense,1,0,0,0,0.0,0,0,0,0.0,0.0,0.8,0.0
43.07654,-8.409,Ordes,1,0,0,0,0.0,0,0,0,0.0,0.0,0.8,0.0
42.18096,2.49012,Olot,1,0,0,0,0.0,0,0,0,0.0,0.0,0.8,0.0
40.67816,-3.9707,Moralzarzal,1,0,0,0,0.0,0,0,0,0.0,0.0,0.8,0.0
41.91084,0.19406,Monzón,1,0,0,0,0.0,0,0,0,0.0,0.0,0.8,0.0
42.52165,-7.51422,Monforte de Lemos,1,0,0,0,0.0,0,0,0,0.0,0.0,0.8,0.0
42.6865,-2.94695,Miranda de Ebro,1,0,0,0,0.0,0,0,0,0.0,0.0,0.8,0.0
41.31239,-4.91413,Medina del Campo,1,0,0,0,0.0,0,0,0,0.0,0.0,0.8,0.0
40.55274,-3.32894,Meco,1,0,0,0,0.0,0,0,0,0.0,0.0,0.8,0.0
43.00992,-7.55602,Lugo,1,0,0,0,0.0,0,0,0,0.0,0.0,0.8,0.0
43.61517,-5.79344,Luanco,1,0,0,0,0.0,0,0,0,0.0,0.0,0.8,0.0
42.46615,-2.45115,Logroño,1,0,0,0,0.0,0,0,0,0.0,0.0,0.8,0.0
43.14322,-2.96204,Laudio / Llodio,1,0,0,0,0.0,0,0,0,0.0,0.0,0.8,0.0
43.41982,-4.75485,Llanes,1,0,0,0,0.0,0,0,0,0.0,0.0,0.8,0.0
43.43963,-5.8508,Llanera,1,0,0,0,0.0,0,0,0,0.0,0.0,0.8,0.0
41.61674,0.62218,Lleida,1,0,0,0,0.0,0,0,0,0.0,0.0,0.8,0.0
43.25375,-8.58535,Laracha,1,0,0,0,0.0,0,0,0,0.0,0.0,0.8,0.0
42.66085,-8.11285,Lalín,1,0,0,0,0.0,0,0,0,0.0,0.0,0.8,0.0
41.68333,2.28333,la Garriga,1,0,0,0,0.0,0,0,0,0.0,0.0,0.8,0.0
42.30026,-5.89772,La Bañeza,1,0,0,0,0.0,0,0,0,0.0,0.0,0.8,0.0
42.13615,-0.4087,Huesca,1,0,0,0,0.0,0,0,0,0.0,0.0,0.8,0.0
43.31667,-2.68333,Gernika-Lumo,1,0,0,0,0.0,0,0,0,0.0,0.0,0.8,0.0
42.0635,-7.72459,Xinzo de Limia,1,0,0,0,0.0,0,0,0,0.0,0.0,0.8,0.0
42.35664,-3.67321,Gamonal,1,0,0,0,0.0,0,0,0,0.0,0.0,0.8,0.0
41.52294,0.34894,Fraga,1,0,0,0,0.0,0,0,0,0.0,0.0,0.8,0.0
42.67182,-2.03226,Estella-Lizarra,1,0,0,0,0.0,0,0,0,0.0,0.0,0.8,0.0
42.41642,-6.99005,O Barco de Valdeorras,1,0,0,0,0.0,0,0,0,0.0,0.0,0.8,0.0
42.12632,-1.13716,Ejea de los Caballeros,1,0,0,0,0.0,0,0,0,0.0,0.0,0.8,0.0
40.06667,-2.13333,Cuenca,1,0,0,0,0.0,0,0,0,0.0,0.0,0.8,0.0
40.6,-6.53333,Ciudad Rodrigo,1,0,0,0,0.0,0,0,0,0.0,0.0,0.8,0.0
42.43163,-8.07899,O Carballiño,1,0,0,0,0.0,0,0,0,0.0,0.0,0.8,0.0
43.18333,-6.55,Cangas del Narcea,1,0,0,0,0.0,0,0,0,0.0,0.0,0.8,0.0
41.35353,-1.64318,Calatayud,1,0,0,0,0.0,0,0,0,0.0,0.0,0.8,0.0
42.30506,-1.96521,Calahorra,1,0,0,0,0.0,0,0,0,0.0,0.0,0.8,0.0
42.10429,1.84628,Berga,1,0,0,0,0.0,0,0,0,0.0,0.0,0.8,0.0
42.00249,-5.67826,Benavente,1,0,0,0,0.0,0,0,0,0.0,0.0,0.8,0.0
40.38641,-5.76341,Béjar,1,0,0,0,0.0,0,0,0,0.0,0.0,0.8,0.0
41.79117,0.81094,Balaguer,1,0,0,0,0.0,0,0,0,0.0,0.0,0.8,0.0
40.65724,-4.69951,Ávila,1,0,0,0,0.0,0,0,0,0.0,0.0,0.8,0.0
42.45879,-6.05601,Astorga,1,0,0,0,0.0,0,0,0,0.0,0.0,0.8,0.0
41.67041,-3.6892,Aranda de Duero,1,0,0,0,0.0,0,0,0,0.0,0.0,0.8,0.0
41.05,-0.13333,Alcañiz,1,0,0,0,0.0,0,0,0,0.0,0.0,0.8,0.0
38.68269,-7.10046,Olivenza,1,0,0,0,0.0,0,0,0,0.0,0.0,0.8,0.0
42.892,-1.777806,SARASATE,0,1,0,0,0.0,0,0,0,0.0,1.153286,0.8,0.0
42.055861,-1.861722,REPSOL,0,1,0,0,0.0,0,0,0,0.0,0.69304,0.8,0.0
42.590333,-1.363972,AVIA,0,1,0,0,0.0,0,0,0,0.0,0.198299,0.8,0.0
42.024778,-1.580333,PLENERGY,0,1,0,0,0.0,0,0,0,0.0,5.431768,0.8,0.0
42.774333,-1.633278,GASOLINERA NOÁIN,0,1,0,0,0.0,0,0,0,0.0,0.134632,0.8,0.0
42.818278,-1.60325,REPSOL,0,1,0,0,0.0,0,0,0,0.0,0.053689,0.8,0.0
42.837667,-0.939306,PETRONOR,0,1,0,0,0.0,0,0,0,0.0,0.614489,0.8,0.0
42.731944,-1.618028,MOEVE,0,1,0,0,0.0,0,0,0,0.0,0.43093,0.8,0.0
42.724889,-1.615528,MOEVE,0,1,0,0,0.0,0,0,0,0.0,0.455421,0.8,0.0
42.200333,-1.676278,REPSOL,0,1,0,0,0.0,0,0,0,0.0,3.080878,0.8,0.0
42.200361,-1.674889,REPSOL,0,1,0,0,0.0,0,0,0,0.0,3.3032,0.8,0.0
42.012583,-1.600861,REPSOL,0,1,0,0,0.0,0,0,0,0.0,4.448688,0.8,0.0
40.907139,-3.876222,CEPSA,0,1,0,0,0.0,0,0,0,0.0,0.440814,0.8,0.0
38.495972,-5.136278,OLIVARERA NTRA.SRA.DEL CARMEN,0,1,0,0,0.0,0,0,0,0.0,0.177808,0.8,0.0
39.5105,-3.241944,REPSOL,0,1,0,0,0.0,0,0,0,0.0,0.487142,0.8,0.0
41.863222,-5.716722,TEO,0,1,0,0,0.0,0,0,0,0.0,2.572576,0.8,0.0
41.207806,-1.394028,COOP. LANGA DEL CASTILLO,0,1,0,0,0.0,0,0,0,0.0,0.055598,0.8,0.0
42.140583,-5.598556,TEO,0,1,0,0,0.0,0,0,0,0.0,1.273036,0.8,0.0
39.768389,-2.268028,PASACONSOL S. COOP. DE C-LM,0,1,0,0,0.0,0,0,0,0.0,0.26118,0.8,0.0
43.535611,-6.705833,E.S.LA COLORADA,0,1,0,0,0.0,0,0,0,0.0,1.447885,0.8,0.0
42.251222,-5.566194,SUTECAL,0,1,0,0,0.0,0,0,0,0.0,0.825058,0.8,0.0
42.218889,-5.801917,SUTECAL,0,1,0,0,0.0,0,0,0,0.0,0.823189,0.8,0.0
43.323611,-1.879944,MERKAOIL,0,1,0,0,0.0,0,0,0,0.0,0.573299,0.8,0.0
41.191778,-1.309528,COOP. MAINAR,0,1,0,0,0.0,0,0,0,0.0,0.168575,0.8,0.0
37.590278,-5.747333,COOP.SAN LUIS,0,1,0,0,0.0,0,0,0,0.0,4.066066,0.8,0.0
39.030361,-3.821833,"MONTES NORTE ENERGETICOS, S.L.",0,1,0,0,0.0,0,0,0,0.0,11.518309,0.8,0.0
40.999,-1.512083,COOP GALLOCANTA,0,1,0,0,0.0,0,0,0,0.0,0.427372,0.8,0.0
41.691556,0.594194,"FRU-ROSE, SCCL",0,1,0,0,0.0,0,0,0,0.0,1.506462,0.8,0.0
42.389528,-1.972064,CARCAR,0,1,0,0,0.0,0,0,0,0.0,2.285373,0.8,0.0
39.363611,-7.133861,JOYMAR,0,1,0,0,0.0,0,0,0,0.0,0.282174,0.8,0.0
41.914,-1.259917,COOPERATIVA SAN MIGUEL,0,1,0,0,0.0,0,0,0,0.0,1.053221,0.8,0.0
42.522889,-1.837889,ENERGETICOS BERBINZANA,0,1,0,0,0.0,0,0,0,0.0,2.178449,0.8,0.0
42.171361,-1.588306,S.COOP. SAN ESTEBAN,0,1,0,0,0.0,0,0,0,0.0,0.927253,0.8,0.0
41.97325,-1.635194,AN ENERGETICOS,0,1,0,0,0.0,0,0,0,0.0,1.032491,0.8,0.0
39.274667,-3.520028,OLEOVINICOLA LABOREÑA SDAD COOP DE C-LM,0,1,0,0,0.0,0,0,0,0.0,1.532262,0.8,0.0
42.231,2.959417,AVANZA,0,1,0,0,0.0,0,0,0,0.0,0.766505,0.8,0.0
41.495472,-4.189472,EL PARAMO S.C.L.,0,1,0,0,0.0,0,0,0,0.0,0.608131,0.8,0.0
41.858028,1.874306,PETROBAGES S.L.,0,1,0,0,0.0,0,0,0,0.0,16.193924,0.8,0.0
41.741194,-4.385306,"AN ENERGETICOS, S.L. - ESGUEVILLAS DE ESGUEVA",0,1,0,0,0.0,0,0,0,0.0,3.765766,0.8,0.0
41.256528,-6.070167,AVIA,0,1,0,0,0.0,0,0,0,0.0,0.036948,0.8,0.0
40.309472,0.118278,COOPERATIVA AGRARIA SAN ISIDRO DE CUEVAS DE VINROMA,0,1,0,0,0.0,0,0,0,0.0,3.124941,0.8,0.0
38.662639,-3.069639,COOPERATIVA COZAR DE LA SIERRA,0,1,0,0,0.0,0,0,0,0.0,2.108637,0.8,0.0
41.864194,-1.925111,UNION COMARCAL AGREDANA.S.C.L,0,1,0,0,0.0,0,0,0,0.0,3.366142,0.8,0.0
42.60225,-1.644417,TALLERES ARRUBLA,0,1,0,0,0.0,0,0,0,0.0,1.017438,0.8,0.0
39.408694,-2.421139,COOPERATIVA DEL CAMPO NTRA SRA DE RUS,0,1,0,0,0.0,0,0,0,0.0,0.700279,0.8,0.0
40.751007,-3.163644,SUMINISTROS YUNQUERA SOCIEDAD COOPERATIVA DE CASTILLA LAMANCHA,0,1,0,0,0.0,0,0,0,0.0,3.696552,0.8,0.0
37.674528,-4.556306,COOP. OLIVARERA SAN ISIDRO,0,1,0,0,0.0,0,0,0,0.0,1.932963,0.8,0.0
39.829778,-4.71575,AVIA,0,1,0,0,0.0,0,0,0,0.0,0.589327,0.8,0.0
42.922111,-2.0145,MOEVE,0,1,0,0,0.0,0,0,0,0.0,5.155657,0.8,0.0
42.350056,-1.371222,COOPERATIVA AGRICOLA SAN FRANCISCO JAVIER,0,1,0,0,0.0,0,0,0,0.0,2.118643,0.8,0.0
40.699617,-1.347402,CEREALES TERUEL,0,1,0,0,0.0,0,0,0,0.0,0.412126,0.8,0.0
40.61525,-1.344639,CEREALES TERUEL,0,1,0,0,0.0,0,0,0,0.0,0.47086,0.8,0.0
40.812361,-1.482972,CEREALES TERUEL,0,1,0,0,0.0,0,0,0,0.0,1.063661,0.8,0.0
40.588172,-0.987763,CEREALES TERUEL,0,1,0,0,0.0,0,0,0,0.0,3.194685,0.8,0.0
39.281778,-1.719778,COOP SAN GREGORIO,0,1,0,0,0.0,0,0,0,0.0,0.289127,0.8,0.0
40.8922,-1.461152,CEREALES TERUEL,0,1,0,0,0.0,0,0,0,0.0,0.151038,0.8,0.0
41.060639,-1.235667,GASOLEOS TERUEL,0,1,0,0,0.0,0,0,0,0.0,3.774876,0.8,0.0
40.683278,-1.098417,CEREALES TERUEL,0,1,0,0,0.0,0,0,0,0.0,0.828244,0.8,0.0
39.131015,-4.947033,SI,0,1,0,0,0.0,0,0,0,0.0,0.698567,0.8,0.0
36.9067,-4.337866,S. COOP. AND. NTRA. SRA. DE LA CANDELARIA,0,1,0,0,0.0,0,0,0,0.0,10.93606,0.8,0.0
40.636194,-1.001639,CEREALES TERUEL,0,1,0,0,0.0,0,0,0,0.0,0.410507,0.8,0.0
37.19375,-3.776917,SHELL,0,1,0,0,0.0,0,0,0,0.0,4.401651,0.8,0.0
40.701472,-0.80425,CEREALES TERUEL,0,1,0,0,0.0,0,0,0,0.0,0.498648,0.8,0.0
43.170556,-2.597556,EUSKOIL-STAR PETROLEUM,0,1,0,0,0.0,0,0,0,0.0,4.185956,0.8,0.0
43.281972,-1.916778,ONROAD 24,0,1,0,0,0.0,0,0,0,0.0,0.525012,0.8,0.0
43.185778,-2.671556,SHELL,0,1,0,0,0.0,0,0,0,0.0,1.602621,0.8,0.0
43.123361,-3.122528,AVIA ,0,1,0,0,0.0,0,0,0,0.0,2.492645,0.8,0.0
43.015361,-2.1765,AVIA,0,1,0,0,0.0,0,0,0,0.0,0.584478,0.8,0.0
43.241444,-2.259444,E.S. ZESTOA-AVIA,0,1,0,0,0.0,0,0,0,0.0,1.915973,0.8,0.0
42.8635,-2.320361,"ANDAMUR ""SAN ROMAN""",0,1,0,0,0.0,0,0,0,0.0,4.910787,0.8,0.0
43.186278,-2.671,SHELL,0,1,0,0,0.0,0,0,0,0.0,1.601552,0.8,0.0
42.876861,-2.616361,REPSOL,0,1,0,0,0.0,0,0,0,0.0,5.609063,0.8,0.0
43.041944,-2.188333,AVIA,0,1,0,0,0.0,0,0,0,0.0,0.525523,0.8,0.0
42.755583,-3.04575,AVIA,0,1,0,0,0.0,0,0,0,0.0,0.904945,0.8,0.0
43.013833,-2.5345,PETRONOR,0,1,0,0,0.0,0,0,0,0.0,1.936715,0.8,0.0
42.704639,-2.917639,EROSKI,0,1,0,0,0.0,0,0,0,0.0,17.735176,0.8,0.0
43.276889,-2.022194,EROSKI,0,1,0,0,0.0,0,0,0,0.0,1.287844,0.8,0.0
43.035056,-2.2175,CARREFOUR,0,1,0,0,0.0,0,0,0,0.0,4.353699,0.8,0.0
43.314639,-1.876417,CARREFOUR,0,1,0,0,0.0,0,0,0,0.0,1.235753,0.8,0.0
42.941417,-2.639528,CEPSA,0,1,0,0,0.0,0,0,0,0.0,7.472385,0.8,0.0
42.635194,-2.849833,REPSOL,0,1,0,0,0.0,0,0,0,0.0,4.52942,0.8,0.0
43.296222,-1.871833,REPSOL,0,1,0,0,0.0,0,0,0,0.0,0.571341,0.8,0.0
43.177167,-2.055528,REPSOL,0,1,0,0,0.0,0,0,0,0.0,4.000083,0.8,0.0
43.065889,-2.163667,REPSOL,0,1,0,0,0.0,0,0,0,0.0,3.946236,0.8,0.0
42.848944,-2.394583,GALP,0,1,0,0,0.0,0,0,0,0.0,0.620599,0.8,0.0
43.293806,-2.341111,GALP,0,1,0,0,0.0,0,0,0,0.0,2.910169,0.8,0.0
43.294167,-2.340833,GALP,0,1,0,0,0.0,0,0,0,0.0,2.910164,0.8,0.0
43.284944,-2.328222,AVIA,0,1,0,0,0.0,0,0,0,0.0,8.765091,0.8,0.0
43.284528,-2.329861,AVIA,0,1,0,0,0.0,0,0,0,0.0,9.732191,0.8,0.0
43.326944,-1.870444,GALP,0,1,0,0,0.0,0,0,0,0.0,0.557754,0.8,0.0
43.026472,-2.219917,BP OLABERRIA,0,1,0,0,0.0,0,0,0,0.0,0.541255,0.8,0.0
43.087111,-2.312889,GALP,0,1,0,0,0.0,0,0,0,0.0,0.511332,0.8,0.0
43.284833,-2.029083,MOEVE,0,1,0,0,0.0,0,0,0,0.0,4.961368,0.8,0.0
43.286611,-2.031889,MOEVE,0,1,0,0,0.0,0,0,0,0.0,4.711304,0.8,0.0
42.547639,-2.578806,REPSOL,0,1,0,0,0.0,0,0,0,0.0,1.546463,0.8,0.0
43.277417,-2.073278,PETRONOR,0,1,0,0,0.0,0,0,0,0.0,1.576956,0.8,0.0
43.271361,-2.070472,REPSOL,0,1,0,0,0.0,0,0,0,0.0,1.520785,0.8,0.0
43.034694,-2.332194,CEPSA,0,1,0,0,0.0,0,0,0,0.0,0.565311,0.8,0.0
43.294833,-2.258083,CEPSA,0,1,0,0,0.0,0,0,0,0.0,4.164435,0.8,0.0
42.878556,-2.518167,REPSOL,0,1,0,0,0.0,0,0,0,0.0,6.103396,0.8,0.0
42.966111,-2.870083,PETRONOR,0,1,0,0,0.0,0,0,0,0.0,3.92284,0.8,0.0
42.966472,-2.873583,REPSOL,0,1,0,0,0.0,0,0,0,0.0,4.053402,0.8,0.0
42.743111,-2.913306,PETRONOR,0,1,0,0,0.0,0,0,0,0.0,6.907777,0.8,0.0
42.741361,-2.913222,PETRONOR,0,1,0,0,0.0,0,0,0,0.0,5.079897,0.8,0.0
42.670222,-2.357278,PETRONOR,0,1,0,0,0.0,0,0,0,0.0,3.146814,0.8,0.0
42.961583,-2.827722,CEPSA,0,1,0,0,0.0,0,0,0,0.0,4.37502,0.8,0.0
43.178611,-2.055778,REPSOL,0,1,0,0,0.0,0,0,0,0.0,4.011604,0.8,0.0
43.312222,-1.879444,REPSOL,0,1,0,0,0.0,0,0,0,0.0,1.237869,0.8,0.0
43.312139,-1.879528,REPSOL,0,1,0,0,0.0,0,0,0,0.0,1.238304,0.8,0.0
43.078861,-2.156194,REPSOL,0,1,0,0,0.0,0,0,0,0.0,3.991682,0.8,0.0
43.316611,-1.852222,MOEVE,0,1,0,0,0.0,0,0,0,0.0,4.735073,0.8,0.0
43.317611,-1.844528,MOEVE,0,1,0,0,0.0,0,0,0,0.0,0.463155,0.8,0.0
42.81125,-2.901944,E.S. TOCALU ,0,1,0,0,0.0,0,0,0,0.0,5.712615,0.8,0.0
43.411583,-2.814667,AVIA,0,1,0,0,0.0,0,0,0,0.0,0.77469,0.8,0.0
43.209889,-3.124889,EROSKI,0,1,0,0,0.0,0,0,0,0.0,1.413593,0.8,0.0
43.171889,-2.618111,EROSKI,0,1,0,0,0.0,0,0,0,0.0,2.694125,0.8,0.0
43.166722,-2.58525,MOEVE,0,1,0,0,0.0,0,0,0,0.0,1.331769,0.8,0.0
43.212361,-3.126639,MOEVE,0,1,0,0,0.0,0,0,0,0.0,1.413593,0.8,0.0
43.145611,-2.644972,URKIOIL,0,1,0,0,0.0,0,0,0,0.0,1.430942,0.8,0.0
43.193861,-2.519028,AVIA,0,1,0,0,0.0,0,0,0,0.0,0.791921,0.8,0.0
43.292806,-3.01775,BP VALLE DEL TRAPAGA,0,1,0,0,0.0,0,0,0,0.0,5.015641,0.8,0.0
43.120944,-2.912639,BP BENGOECHEA,0,1,0,0,0.0,0,0,0,0.0,0.838867,0.8,0.0
43.307861,-2.943556,PETRONOR,0,1,0,0,0.0,0,0,0,0.0,1.737073,0.8,0.0
43.412306,-2.702944,REPSOL,0,1,0,0,0.0,0,0,0,0.0,0.863265,0.8,0.0
43.366194,-2.930028,PETRONOR,0,1,0,0,0.0,0,0,0,0.0,0.708053,0.8,0.0
43.175167,-2.641389,REPSOL,0,1,0,0,0.0,0,0,0,0.0,2.816754,0.8,0.0
43.318583,-2.876444,PETRONOR,0,1,0,0,0.0,0,0,0,0.0,5.060081,0.8,0.0
43.259611,-2.523694,PETRONOR,0,1,0,0,0.0,0,0,0,0.0,1.708474,0.8,0.0
43.18975,-2.894444,PETRONOR,0,1,0,0,0.0,0,0,0,0.0,4.980337,0.8,0.0
43.190194,-2.897389,PETRONOR,0,1,0,0,0.0,0,0,0,0.0,4.737067,0.8,0.0
43.390333,-2.943917,REPSOL,0,1,0,0,0.0,0,0,0,0.0,0.647053,0.8,0.0
43.130583,-2.548889,MOEVE,0,1,0,0,0.0,0,0,0,0.0,5.160379,0.8,0.0
43.130278,-2.564722,GALP ,0,1,0,0,0.0,0,0,0,0.0,4.958026,0.8,0.0
43.238139,-3.355694,PETRONOR,0,1,0,0,0.0,0,0,0,0.0,0.952151,0.8,0.0
43.321861,-3.068056,REPSOL,0,1,0,0,0.0,0,0,0,0.0,4.77709,0.8,0.0
43.250806,-2.888444,REPSOL,0,1,0,0,0.0,0,0,0,0.0,1.584018,0.8,0.0
43.250667,-2.889028,REPSOL,0,1,0,0,0.0,0,0,0,0.0,1.558791,0.8,0.0
43.267,-3.152944,REPSOL,0,1,0,0,0.0,0,0,0,0.0,0.797047,0.8,0.0
43.204333,-3.047306,PETRONOR,0,1,0,0,0.0,0,0,0,0.0,0.854126,0.8,0.0
43.280111,-2.495722,PETRONOR,0,1,0,0,0.0,0,0,0,0.0,1.585988,0.8,0.0
43.29725,-3.0135,PETRONOR,0,1,0,0,0.0,0,0,0,0.0,5.288831,0.8,0.0
43.3285,-3.068806,PETRONOR,0,1,0,0,0.0,0,0,0,0.0,4.962384,0.8,0.0
43.327111,-3.067722,PETRONOR,0,1,0,0,0.0,0,0,0,0.0,17.483016,0.8,0.0
43.163778,-2.777556,AVIA,0,1,0,0,0.0,0,0,0,0.0,1.844002,0.8,0.0
42.849722,-8.582556,GALP,0,1,0,0,0.0,0,0,0,0.0,12.002515,0.8,0.0
42.167972,-8.625944,FEGOBLAN SL-VALCARCE,0,1,0,0,0.0,0,0,0,0.0,3.136251,0.8,0.0
42.156917,-8.665083,SERTUY - SAN COSME - CELA - MOS,0,1,0,0,0.0,0,0,0,0.0,2.47737,0.8,0.0
43.261944,-8.81925,VALCARCE,0,1,0,0,0.0,0,0,0,0.0,1.472873,0.8,0.0
42.876194,-7.861972,ULTREYA,0,1,0,0,0.0,0,0,0,0.0,2.68654,0.8,0.0
42.649639,-7.95325,VALCARCE,0,1,0,0,0.0,0,0,0,0.0,0.118573,0.8,0.0
42.787361,-9.055806,SHELL,0,1,0,0,0.0,0,0,0,0.0,3.552257,0.8,0.0
42.728194,-8.301694,MOEVE,0,1,0,0,0.0,0,0,0,0.0,2.723574,0.8,0.0
43.172722,-7.766167,VALCARCE ,0,1,0,0,0.0,0,0,0,0.0,0.81758,0.8,0.0
43.193167,-8.728639,REPSOL,0,1,0,0,0.0,0,0,0,0.0,3.781821,0.8,0.0
43.281222,-8.237417,CARBUGAL CORTIÑAN,0,1,0,0,0.0,0,0,0,0.0,8.162839,0.8,0.0
42.406667,-7.846389,LATEQUIN,0,1,0,0,0.0,0,0,0,0.0,1.689925,0.8,0.0
42.185861,-8.611028,EL SOL,0,1,0,0,0.0,0,0,0,0.0,6.273765,0.8,0.0
42.761889,-7.563444,GALP,0,1,0,0,0.0,0,0,0,0.0,0.738601,0.8,0.0
42.397361,-7.735417,"ESTACION DE SERVICIO LUINTRA, S.L.",0,1,0,0,0.0,0,0,0,0.0,3.580598,0.8,0.0
42.142028,-8.462111,LA PARADA - VALCARCE,0,1,0,0,0.0,0,0,0,0.0,9.082882,0.8,0.0
42.805139,-7.618056,CAMPA,0,1,0,0,0.0,0,0,0,0.0,0.597907,0.8,0.0
42.95725,-8.751222,CEPSA,0,1,0,0,0.0,0,0,0,0.0,5.460813,0.8,0.0
42.16675,-8.272528,E.S.VALEIXE,0,1,0,0,0.0,0,0,0,0.0,0.508084,0.8,0.0
43.253583,-8.363333,ESTACION DE SERVICIO TABEAIO,0,1,0,0,0.0,0,0,0,0.0,9.919578,0.8,0.0
42.503028,-8.767139,E.S. PEIBAR BARRANTES,0,1,0,0,0.0,0,0,0,0.0,9.902827,0.8,0.0
42.344972,-7.812389,J.L E HIJOS,0,1,0,0,0.0,0,0,0,0.0,0.992555,0.8,0.0
42.318278,-7.118583,PETROL LENTELLAIS,0,1,0,0,0.0,0,0,0,0.0,1.21154,0.8,0.0
42.218333,-8.013389,ESTACIÓN DE SERVICIO OUTOMURO S.L.,0,1,0,0,0.0,0,0,0,0.0,3.924634,0.8,0.0
42.269806,-7.806028,OURENSANA DE PETROLEOS SL,0,1,0,0,0.0,0,0,0,0.0,2.656836,0.8,0.0
42.27225,-7.646778,EESS MACEDA,0,1,0,0,0.0,0,0,0,0.0,0.614917,0.8,0.0
43.406833,-8.168972,COMBUSTIBLES RIO EUME,0,1,0,0,0.0,0,0,0,0.0,13.01335,0.8,0.0
42.851111,-7.153056,E.S.RUTANCARES S.L.,0,1,0,0,0.0,0,0,0,0.0,1.598343,0.8,0.0
42.901972,-7.46475,LIBRE,0,1,0,0,0.0,0,0,0,0.0,0.915078,0.8,0.0
43.084222,-7.605972,Q8,0,1,0,0,0.0,0,0,0,0.0,2.862123,0.8,0.0
42.034389,-7.973083,REPSOL,0,1,0,0,0.0,0,0,0,0.0,0.875519,0.8,0.0
42.793361,-8.166444,REPSOL,0,1,0,0,0.0,0,0,0,0.0,0.515805,0.8,0.0
41.910778,-8.852611,REPSOL,0,1,0,0,0.0,0,0,0,0.0,1.761833,0.8,0.0
42.084444,-8.496806,MOEVE,0,1,0,0,0.0,0,0,0,0.0,1.601944,0.8,0.0
42.188778,-7.101333,REPSOL,0,1,0,0,0.0,0,0,0,0.0,0.560093,0.8,0.0
42.396056,-7.106472,PETROL A RUA,0,1,0,0,0.0,0,0,0,0.0,1.507824,0.8,0.0
42.340417,-7.260361,REPSOL,0,1,0,0,0.0,0,0,0,0.0,0.964489,0.8,0.0
42.207083,-8.267611,REPSOL,0,1,0,0,0.0,0,0,0,0.0,1.814213,0.8,0.0
42.250722,-7.864556,REPSOL,0,1,0,0,0.0,0,0,0,0.0,9.897773,0.8,0.0
42.215667,-8.268056,REPSOL,0,1,0,0,0.0,0,0,0,0.0,0.358492,0.8,0.0
42.251056,-7.864722,REPSOL,0,1,0,0,0.0,0,0,0,0.0,9.900658,0.8,0.0
42.058583,-7.665611,CEPSA,0,1,0,0,0.0,0,0,0,0.0,4.97614,0.8,0.0
42.358611,-8.628889,CEPSA,0,1,0,0,0.0,0,0,0,0.0,5.939044,0.8,0.0
42.249944,-7.023444,FINA,0,1,0,0,0.0,0,0,0,0.0,0.757431,0.8,0.0
42.704444,-8.245722,REPSOL,0,1,0,0,0.0,0,0,0,0.0,0.58305,0.8,0.0
42.31775,-8.1235,GALP,0,1,0,0,0.0,0,0,0,0.0,2.091669,0.8,0.0
42.425806,-8.057944,MOEVE,0,1,0,0,0.0,0,0,0,0.0,1.383083,0.8,0.0
42.127306,-7.950611,GALP,0,1,0,0,0.0,0,0,0,0.0,0.642181,0.8,0.0
42.5625,-8.671833,REPSOL,0,1,0,0,0.0,0,0,0,0.0,9.916623,0.8,0.0
42.498528,-8.744972,GALP,0,1,0,0,0.0,0,0,0,0.0,8.910866,0.8,0.0
42.716389,-8.300833,GALP,0,1,0,0,0.0,0,0,0,0.0,2.581791,0.8,0.0
42.318052,-7.877994,GALP,0,1,0,0,0.0,0,0,0,0.0,3.385214,0.8,0.0
42.318111,-7.877389,GALP,0,1,0,0,0.0,0,0,0,0.0,3.386826,0.8,0.0
42.137472,-8.186667,GALP,0,1,0,0,0.0,0,0,0,0.0,2.059483,0.8,0.0
43.541111,-6.534333,REPSOL,0,1,0,0,0.0,0,0,0,0.0,1.150364,0.8,0.0
43.412778,-6.157278,REPSOL,0,1,0,0,0.0,0,0,0,0.0,2.554595,0.8,0.0
43.536417,-6.724611,PETRONOR,0,1,0,0,0.0,0,0,0,0.0,1.445569,0.8,0.0
43.381722,-4.557444,PETRONOR,0,1,0,0,0.0,0,0,0,0.0,1.781033,0.8,0.0
43.345139,-5.360667,BP INFIESTO,0,1,0,0,0.0,0,0,0,0.0,1.599313,0.8,0.0
43.470806,-7.05125,PETRONOR,0,1,0,0,0.0,0,0,0,0.0,1.848526,0.8,0.0
43.484417,-5.260944,REPSOL,0,1,0,0,0.0,0,0,0,0.0,0.343441,0.8,0.0
41.433139,1.863806,E.S.GELIDA,0,1,0,0,0.0,0,0,0,0.0,27.681486,0.8,0.0
43.57125,-5.959278,REPSOL,0,1,0,0,0.0,0,0,0,0.0,3.807104,0.8,0.0
43.038139,-6.871306,CAMPSA,0,1,0,0,0.0,0,0,0,0.0,1.312473,0.8,0.0
43.431056,-6.815833,REPSOL,0,1,0,0,0.0,0,0,0,0.0,0.970644,0.8,0.0
40.900528,-5.203889,MONTE LA REINA,0,1,0,0,0.0,0,0,0,0.0,0.248485,0.8,0.0
43.514361,-5.819694,PETRONOR,0,1,0,0,0.0,0,0,0,0.0,29.652439,0.8,0.0
43.511278,-5.817333,PETRONOR,0,1,0,0,0.0,0,0,0,0.0,27.794622,0.8,0.0
43.288917,-5.633417,ALCAMPO,0,1,0,0,0.0,0,0,0,0.0,3.130055,0.8,0.0
43.5785,-5.7545,GALP,0,1,0,0,0.0,0,0,0,0.0,4.641658,0.8,0.0
42.940028,-4.123389,CEPSA,0,1,0,0,0.0,0,0,0,0.0,0.233441,0.8,0.0
43.398583,-3.365528,VALLE DE LIENDO,0,1,0,0,0.0,0,0,0,0.0,2.00442,0.8,0.0
43.084528,-7.606361,Q8,0,1,0,0,0.0,0,0,0,0.0,2.859727,0.8,0.0
43.540278,-7.060222,EROSKI,0,1,0,0,0.0,0,0,0,0.0,2.277545,0.8,0.0
42.804722,-8.636278,GALP,0,1,0,0,0.0,0,0,0,0.0,8.854985,0.8,0.0
42.837417,-8.443278,GASOLEOS SAN BENITO,0,1,0,0,0.0,0,0,0,0.0,5.441291,0.8,0.0
43.439417,-8.155056,CARBUGAL LARAXE,0,1,0,0,0.0,0,0,0,0.0,9.032123,0.8,0.0
42.800056,-8.856056,BARCIA,0,1,0,0,0.0,0,0,0,0.0,2.262019,0.8,0.0
43.189611,-8.732278,CARBUGAL CORISTANCO,0,1,0,0,0.0,0,0,0,0.0,3.849857,0.8,0.0
43.050611,-8.01725,CEPSA,0,1,0,0,0.0,0,0,0,0.0,0.74918,0.8,0.0
42.5985,-8.942778,REPSOL,0,1,0,0,0.0,0,0,0,0.0,0.760371,0.8,0.0
43.296722,-7.336389,CEPSA,0,1,0,0,0.0,0,0,0,0.0,0.38602,0.8,0.0
42.990028,-8.697028,MYG GASOLEOS,0,1,0,0,0.0,0,0,0,0.0,4.079119,0.8,0.0
43.2135,-8.997389,PETRONOR,0,1,0,0,0.0,0,0,0,0.0,1.221896,0.8,0.0
42.917722,-9.265167,CAMPSA,0,1,0,0,0.0,0,0,0,0.0,2.66708,0.8,0.0
43.032611,-9.112972,REPSOL,0,1,0,0,0.0,0,0,0,0.0,2.986508,0.8,0.0
43.021667,-8.656194,REPSOL,0,1,0,0,0.0,0,0,0,0.0,2.0385,0.8,0.0
42.781972,-7.898806,REPSOL,0,1,0,0,0.0,0,0,0,0.0,1.719127,0.8,0.0
42.541278,-7.8125,REPSOL,0,1,0,0,0.0,0,0,0,0.0,0.209495,0.8,0.0
43.104861,-8.917667,CEPSA,0,1,0,0,0.0,0,0,0,0.0,4.522152,0.8,0.0
43.010639,-8.430889,CEPSA,0,1,0,0,0.0,0,0,0,0.0,4.843648,0.8,0.0
43.226444,-8.191583,CEPSA,0,1,0,0,0.0,0,0,0,0.0,10.112469,0.8,0.0
43.490028,-8.161806,REPSOL,0,1,0,0,0.0,0,0,0,0.0,3.086194,0.8,0.0
42.960222,-8.646944,REPSOL,0,1,0,0,0.0,0,0,0,0.0,3.614984,0.8,0.0
43.188806,-8.17525,GALP,0,1,0,0,0.0,0,0,0,0.0,1.328541,0.8,0.0
42.771667,-9.049167,CEPSA,0,1,0,0,0.0,0,0,0,0.0,4.060999,0.8,0.0
42.837778,-8.900139,MOEVE,0,1,0,0,0.0,0,0,0,0.0,0.937908,0.8,0.0
42.838139,-8.900667,MOEVE,0,1,0,0,0.0,0,0,0,0.0,0.937908,0.8,0.0
43.030139,-7.326361,ESTACION DE SERVICIO LA FORTALEZA,0,1,0,0,0.0,0,0,0,0.0,2.349668,0.8,0.0
43.121639,-7.069833,REPSOL,0,1,0,0,0.0,0,0,0,0.0,3.477408,0.8,0.0
43.215694,-7.309028,MOEVE,0,1,0,0,0.0,0,0,0,0.0,5.99273,0.8,0.0
42.966056,-9.193611,REPSOL,0,1,0,0,0.0,0,0,0,0.0,2.149993,0.8,0.0
40.322167,-4.198056,GALP,0,1,0,0,0.0,0,0,0,0.0,5.377707,0.8,0.0
43.355389,-7.775,REPSOL,0,1,0,0,0.0,0,0,0,0.0,2.271133,0.8,0.0
43.113972,-8.147917,PETRONOR,0,1,0,0,0.0,0,0,0,0.0,3.54261,0.8,0.0
42.604167,-7.770333,"AMMNSA, S.L.",0,1,0,0,0.0,0,0,0,0.0,0.658894,0.8,0.0
43.029722,-7.78675,REPSOL,0,1,0,0,0.0,0,0,0,0.0,0.527334,0.8,0.0
43.243083,-8.894639,REPSOL,0,1,0,0,0.0,0,0,0,0.0,1.158634,0.8,0.0
42.811361,-9.106333,CEPSA,0,1,0,0,0.0,0,0,0,0.0,4.493859,0.8,0.0
42.793444,-8.646194,BALLENOIL,0,1,0,0,0.0,0,0,0,0.0,4.091395,0.8,0.0
42.793417,-8.645361,CEPSA,0,1,0,0,0.0,0,0,0,0.0,9.332922,0.8,0.0
43.028056,-8.593028,EESSBENZA,0,1,0,0,0.0,0,0,0,0.0,2.725489,0.8,0.0
43.436167,-8.065056,REPSOL,0,1,0,0,0.0,0,0,0,0.0,4.393374,0.8,0.0
42.732583,-7.325722,REPSOL,0,1,0,0,0.0,0,0,0,0.0,0.391275,0.8,0.0
43.490083,-7.284139,GALP,0,1,0,0,0.0,0,0,0,0.0,1.620978,0.8,0.0
42.731806,-8.985083,MOEVE,0,1,0,0,0.0,0,0,0,0.0,2.678459,0.8,0.0
43.227806,-8.288444,PETROPRIX,0,1,0,0,0.0,0,0,0,0.0,4.496356,0.8,0.0
42.712389,-7.765444,VALCARCE,0,1,0,0,0.0,0,0,0,0.0,1.084217,0.8,0.0
42.910528,-8.955222,CEPSA,0,1,0,0,0.0,0,0,0,0.0,3.351634,0.8,0.0
43.681694,-7.49325,REPSOL,0,1,0,0,0.0,0,0,0,0.0,1.424709,0.8,0.0
43.576306,-7.269056,CAMPSA,0,1,0,0,0.0,0,0,0,0.0,3.676252,0.8,0.0
43.028083,-8.237417,REPSOL,0,1,0,0,0.0,0,0,0,0.0,1.305388,0.8,0.0
43.001139,-7.234194,CEPSA,0,1,0,0,0.0,0,0,0,0.0,2.74744,0.8,0.0
42.612528,-7.766,REPSOL,0,1,0,0,0.0,0,0,0,0.0,0.628142,0.8,0.0
43.538333,-7.05425,REPSOL,0,1,0,0,0.0,0,0,0,0.0,2.280728,0.8,0.0
43.225778,-8.356222,REPSOL,0,1,0,0,0.0,0,0,0,0.0,10.046272,0.8,0.0
42.912222,-8.006167,REPSOL,0,1,0,0,0.0,0,0,0,0.0,4.026426,0.8,0.0
42.930167,-8.144667,REPSOL,0,1,0,0,0.0,0,0,0,0.0,0.480885,0.8,0.0
43.508861,-8.122528,PETRONOR,0,1,0,0,0.0,0,0,0,0.0,6.813896,0.8,0.0
43.43325,-7.361861,REPSOL,0,1,0,0,0.0,0,0,0,0.0,0.192257,0.8,0.0
42.893083,-7.254306,CEPSA-E.S. ROCA,0,1,0,0,0.0,0,0,0,0.0,1.762529,0.8,0.0
43.351389,-7.191639,REPSOL,0,1,0,0,0.0,0,0,0,0.0,1.093128,0.8,0.0
43.122306,-7.621028,REPSOL,0,1,0,0,0.0,0,0,0,0.0,0.598939,0.8,0.0
43.158861,-8.803028,DIGANA,0,1,0,0,0.0,0,0,0,0.0,2.592105,0.8,0.0
42.777528,-8.406444,PONTEULLA,0,1,0,0,0.0,0,0,0,0.0,2.776787,0.8,0.0
42.776944,-8.406611,PONTEULLA,0,1,0,0,0.0,0,0,0,0.0,2.776787,0.8,0.0
42.910083,-8.3585,CEPSA,0,1,0,0,0.0,0,0,0,0.0,1.459806,0.8,0.0
42.527806,-7.397833,REPSOL,0,1,0,0,0.0,0,0,0,0.0,1.083057,0.8,0.0
43.179167,-7.879917,REPSOL,0,1,0,0,0.0,0,0,0,0.0,0.646365,0.8,0.0
42.860889,-8.201306,REPSOL,0,1,0,0,0.0,0,0,0,0.0,0.443384,0.8,0.0
43.253583,-7.432972,REPSOL,0,1,0,0,0.0,0,0,0,0.0,0.578117,0.8,0.0
42.91,-8.730667,REPSOL,0,1,0,0,0.0,0,0,0,0.0,1.942972,0.8,0.0
43.1405,-9.112722,REPSOL,0,1,0,0,0.0,0,0,0,0.0,2.302343,0.8,0.0
42.995944,-8.911611,REPSOL,0,1,0,0,0.0,0,0,0,0.0,7.771528,0.8,0.0
43.112,-9.02875,REPSOL,0,1,0,0,0.0,0,0,0,0.0,5.054537,0.8,0.0
43.539972,-7.241778,REPSOL,0,1,0,0,0.0,0,0,0,0.0,3.293137,0.8,0.0
42.584889,-7.640694,REPSOL,0,1,0,0,0.0,0,0,0,0.0,0.238882,0.8,0.0
43.130278,-8.533417,REPSOL,0,1,0,0,0.0,0,0,0,0.0,1.204721,0.8,0.0
43.341389,-8.203694,REPSOL,0,1,0,0,0.0,0,0,0,0.0,12.082527,0.8,0.0
43.651333,-7.353889,ENI,0,1,0,0,0.0,0,0,0,0.0,3.288229,0.8,0.0
42.504861,-7.628056,PETRONOR,0,1,0,0,0.0,0,0,0,0.0,0.500691,0.8,0.0
42.774028,-8.65125,REPSOL,0,1,0,0,0.0,0,0,0,0.0,10.146864,0.8,0.0
42.607778,-8.963778,REPSOL,0,1,0,0,0.0,0,0,0,0.0,6.367156,0.8,0.0
43.157694,-8.00375,REPSOL,0,1,0,0,0.0,0,0,0,0.0,0.866369,0.8,0.0
43.373222,-8.187972,REPSOL,0,1,0,0,0.0,0,0,0,0.0,15.01007,0.8,0.0
43.188222,-7.929917,GALP,0,1,0,0,0.0,0,0,0,0.0,4.477836,0.8,0.0
42.940306,-7.393611,REPSOL,0,1,0,0,0.0,0,0,0,0.0,3.548815,0.8,0.0
43.18125,-7.967889,DISA_SHELL,0,1,0,0,0.0,0,0,0,0.0,1.701776,0.8,0.0
42.714833,-8.695889,GALP,0,1,0,0,0.0,0,0,0,0.0,1.723078,0.8,0.0
43.527139,-8.085083,GALP,0,1,0,0,0.0,0,0,0,0.0,7.641949,0.8,0.0
43.655528,-7.911556,GALP,0,1,0,0,0.0,0,0,0,0.0,7.99348,0.8,0.0
43.386833,-8.169194,CC OIL,0,1,0,0,0.0,0,0,0,0.0,4.896577,0.8,0.0
42.787556,-8.880333,MOEVE,0,1,0,0,0.0,0,0,0,0.0,0.916446,0.8,0.0
42.289722,-7.816611,STAROIL SAN CIBRAO,0,1,0,0,0.0,0,0,0,0.0,2.641104,0.8,0.0
42.536194,-8.543778,CEPSA,0,1,0,0,0.0,0,0,0,0.0,3.67349,0.8,0.0
42.566222,-8.046056,PETRONOR,0,1,0,0,0.0,0,0,0,0.0,1.977912,0.8,0.0
42.513028,-8.017417,CEPSA,0,1,0,0,0.0,0,0,0,0.0,2.244713,0.8,0.0
41.911528,-8.0945,REPSOL,0,1,0,0,0.0,0,0,0,0.0,2.441364,0.8,0.0
42.273139,-8.199083,MOEVE,0,1,0,0,0.0,0,0,0,0.0,0.803652,0.8,0.0
42.408222,-7.073194,VALCARCE,0,1,0,0,0.0,0,0,0,0.0,3.226024,0.8,0.0
41.917194,-8.879639,PETRONOR,0,1,0,0,0.0,0,0,0,0.0,2.02064,0.8,0.0
42.374361,-8.246028,REPSOL,0,1,0,0,0.0,0,0,0,0.0,8.883505,0.8,0.0
42.038694,-7.009194,CEPSA,0,1,0,0,0.0,0,0,0,0.0,0.888336,0.8,0.0
42.371167,-7.423694,REPSOL,0,1,0,0,0.0,0,0,0,0.0,0.516047,0.8,0.0
42.532278,-8.405361,REPSOL,0,1,0,0,0.0,0,0,0,0.0,5.059745,0.8,0.0
42.532444,-8.40525,REPSOL,0,1,0,0,0.0,0,0,0,0.0,5.059736,0.8,0.0
42.311667,-7.676111,E.S. ALTO DO COUSO,0,1,0,0,0.0,0,0,0,0.0,0.516488,0.8,0.0
42.383694,-7.85175,CEPSA,0,1,0,0,0.0,0,0,0,0.0,3.841822,0.8,0.0
42.762389,-8.024778,REPSOL,0,1,0,0,0.0,0,0,0,0.0,2.577812,0.8,0.0
42.517833,-8.273944,REPSOL,0,1,0,0,0.0,0,0,0,0.0,2.794231,0.8,0.0
42.467583,-7.98825,REPSOL,0,1,0,0,0.0,0,0,0,0.0,2.42137,0.8,0.0
41.988722,-7.603278,PETRONOR,0,1,0,0,0.0,1,1,200,51.6298,3.827759,0.8,0.0
42.670111,-8.711667,REPSOL,0,1,0,0,0.0,0,0,0,0.0,2.14967,0.8,0.0
42.031944,-8.883583,REPSOL,0,1,0,0,0.0,0,0,0,0.0,3.249998,0.8,0.0
42.501889,-8.656444,REPSOL,0,1,0,0,0.0,0,0,0,0.0,2.204072,0.8,0.0
42.5015,-8.656806,REPSOL,0,1,0,0,0.0,0,0,0,0.0,2.201406,0.8,0.0
42.632167,-8.563444,REPSOL,0,1,0,0,0.0,0,0,0,0.0,4.704153,0.8,0.0
42.223889,-8.473917,REPSOL,0,1,0,0,0.0,0,0,0,0.0,1.100658,0.8,0.0
42.102639,-8.569083,PETRONOR,0,1,0,0,0.0,0,0,0,0.0,5.522574,0.8,0.0
42.203444,-8.392167,ESTACION DE SERVICIO PARAÑOS,0,1,0,0,0.0,0,0,0,0.0,2.126715,0.8,0.0
42.019583,-7.608472,REPSOL,0,1,0,0,0.0,0,0,0,0.0,0.390083,0.8,0.0
42.105444,-8.322472,REPSOL,0,1,0,0,0.0,0,0,0,0.0,0.787912,0.8,0.0
42.322889,-7.790167,REPSOL,0,1,0,0,0.0,0,0,0,0.0,0.957859,0.8,0.0
41.951694,-8.029389,REPSOL,0,1,0,0,0.0,0,0,0,0.0,2.441333,0.8,0.0
42.3185,-8.662806,MOEVE,0,1,0,0,0.0,0,0,0,0.0,20.308575,0.8,0.0
42.317667,-8.662222,MOEVE,0,1,0,0,0.0,0,0,0,0.0,21.550273,0.8,0.0
42.193667,-7.794806,GALP,0,1,0,0,0.0,0,0,0,0.0,1.573335,0.8,0.0
42.187444,-8.044833,MOEVE,0,1,0,0,0.0,0,0,0,0.0,2.392274,0.8,0.0
42.228556,-7.925861,CEPSA,0,1,0,0,0.0,0,0,0,0.0,3.25879,0.8,0.0
42.313028,-7.865111,REPSOL,0,1,0,0,0.0,0,0,0,0.0,7.834526,0.8,0.0
41.98325,-7.541972,GALP,0,1,0,0,0.0,0,0,0,0.0,2.273648,0.8,0.0
42.193444,-8.651722,MOEVE,0,1,0,0,0.0,0,0,0,0.0,19.502064,0.8,0.0
42.193861,-8.651694,MOEVE,0,1,0,0,0.0,0,0,0,0.0,23.538923,0.8,0.0
42.31325,-7.866361,REPSOL,0,1,0,0,0.0,0,0,0,0.0,7.745162,0.8,0.0
42.712417,-8.651139,ENI,0,1,0,0,0.0,0,0,0,0.0,5.375894,0.8,0.0
42.59075,-8.588611,REPSOL,0,1,0,0,0.0,0,0,0,0.0,0.974874,0.8,0.0
42.158778,-7.949639,REPSOL,0,1,0,0,0.0,0,0,0,0.0,2.928637,0.8,0.0
42.304083,-8.130722,PETRONOR,0,1,0,0,0.0,0,0,0,0.0,4.004259,0.8,0.0
42.417111,-7.873556,REPSOL,0,1,0,0,0.0,0,0,0,0.0,2.405698,0.8,0.0
42.057028,-7.148694,REPSOL,0,1,0,0,0.0,0,0,0,0.0,0.174817,0.8,0.0
43.297944,-4.795833,ESC-PETROLEOS,0,1,0,0,0.0,0,0,0,0.0,0.343311,0.8,0.0
43.350889,-5.119889,REPSOL,0,1,0,0,0.0,0,0,0,0.0,0.887768,0.8,0.0
43.277417,-5.617611,REPSOL,0,1,0,0,0.0,0,0,0,0.0,1.66438,0.8,0.0
43.455917,-5.061389,REPSOL,0,1,0,0,0.0,0,0,0,0.0,2.531956,0.8,0.0
43.545083,-6.721167,EROSKI,0,1,0,0,0.0,0,0,0,0.0,1.458764,0.8,0.0
41.939056,-4.5005,IDS,0,1,0,0,0.0,0,0,0,0.0,7.910516,0.8,0.0
43.546944,-6.217694,REPSOL,0,1,0,0,0.0,0,0,0,0.0,0.067682,0.8,0.0
43.557583,-6.283778,REPSOL,0,1,0,0,0.0,0,0,0,0.0,1.245245,0.8,0.0
43.3885,-5.18275,GALP ARRIONDAS,0,1,0,0,0.0,0,0,0,0.0,1.128108,0.8,0.0
43.544278,-6.783639,REPSOL,0,1,0,0,0.0,0,0,0,0.0,4.803289,0.8,0.0
43.555028,-6.845083,REPSOL,0,1,0,0,0.0,0,0,0,0.0,1.600607,0.8,0.0
43.327472,-4.583,REPSOL,0,1,0,0,0.0,0,0,0,0.0,2.169865,0.8,0.0
43.376639,-6.151944,PETRONOR,0,1,0,0,0.0,0,0,0,0.0,1.135907,0.8,0.0
43.488611,-6.426667,PANDORA BIOENERGY SL,0,1,0,0,0.0,0,0,0,0.0,1.27414,0.8,0.0
43.56825,-6.944278,REPSOL,0,1,0,0,0.0,0,0,0,0.0,1.282095,0.8,0.0
43.365861,-5.271472,REPSOL,0,1,0,0,0.0,0,0,0,0.0,3.488124,0.8,0.0
43.546333,-6.138361,SOLRAS,0,1,0,0,0.0,0,0,0,0.0,1.369598,0.8,0.0
43.557306,-5.981028,A. G. ,0,1,0,0,0.0,0,0,0,0.0,3.911438,0.8,0.0
43.38725,-6.074333,REPSOL,0,1,0,0,0.0,0,0,0,0.0,0.834275,0.8,0.0
43.543083,-6.412361,CEPSA,0,1,0,0,0.0,0,0,0,0.0,0.176136,0.8,0.0
43.542694,-6.982472,GALP ,0,1,0,0,0.0,0,0,0,0.0,1.257459,0.8,0.0
43.543361,-6.982722,CHIQUÍN II,0,1,0,0,0.0,0,0,0,0.0,1.257461,0.8,0.0
43.542667,-6.023917,BP - CARCEDO - SOTO BARCO,0,1,0,0,0.0,0,0,0,0.0,12.403892,0.8,0.0
43.271667,-6.614222,PETRONOR,0,1,0,0,0.0,0,0,0,0.0,0.148384,0.8,0.0
43.412944,-7.148583,PETRONOR,0,1,0,0,0.0,0,0,0,0.0,1.344476,0.8,0.0
43.249194,-5.568944,CEPSA,0,1,0,0,0.0,0,0,0,0.0,1.635972,0.8,0.0
43.554528,-6.166056,AVIA,0,1,0,0,0.0,0,0,0,0.0,1.272382,0.8,0.0
43.358222,-5.497333,GALP,0,1,0,0,0.0,0,0,0,0.0,1.020376,0.8,0.0
43.533611,-6.570333,GALP,0,1,0,0,0.0,0,0,0,0.0,2.891673,0.8,0.0
43.171833,-5.742972,GALP,0,1,0,0,0.0,0,0,0,0.0,14.75225,0.8,0.0
43.408667,-6.258917,GALP,0,1,0,0,0.0,0,0,0,0.0,0.26676,0.8,0.0
43.373056,-5.546583,GALP,0,1,0,0,0.0,0,0,0,0.0,6.9533,0.8,0.0
43.393417,-6.063667,CEPSA,0,1,0,0,0.0,0,0,0,0.0,0.843111,0.8,0.0
43.554833,-5.767861,CEPSA,0,1,0,0,0.0,0,0,0,0.0,7.527387,0.8,0.0
43.498278,-6.078194,GALP,0,1,0,0,0.0,0,0,0,0.0,2.115346,0.8,0.0
43.219472,-6.879361,EL SALVADOR,0,1,0,0,0.0,0,0,0,0.0,1.158129,0.8,0.0
43.541,-6.101111,GALP,0,1,0,0,0.0,0,0,0,0.0,1.542836,0.8,0.0
43.535,-6.518917,GALP,0,1,0,0,0.0,0,0,0,0.0,0.293821,0.8,0.0
43.487833,-6.110667,GALP,0,1,0,0,0.0,0,0,0,0.0,1.423379,0.8,0.0
43.456778,-3.709361,REPSOL,0,1,0,0,0.0,0,0,0,0.0,2.676343,0.8,0.0
43.396583,-3.787222,CEPSA,0,1,0,0,0.0,0,0,0,0.0,2.220638,0.8,0.0
43.314472,-4.069278,MEROIL,0,1,0,0,0.0,0,0,0,0.0,1.371205,0.8,0.0
43.328167,-3.967583,MEROIL,0,1,0,0,0.0,0,0,0,0.0,5.307129,0.8,0.0
43.320694,-3.867861,REPSOL,0,1,0,0,0.0,0,0,0,0.0,2.360934,0.8,0.0
43.353889,-4.093056,CEPSA,0,1,0,0,0.0,0,0,0,0.0,2.741263,0.8,0.0
43.319556,-4.309,E.S. TRECEÑO S.L.,0,1,0,0,0.0,0,0,0,0.0,1.163814,0.8,0.0
43.37482,-4.496616,COMBUSCAN,0,1,0,0,0.0,0,0,0,0.0,3.025671,0.8,0.0
43.414194,-3.578556,REPSOL,0,1,0,0,0.0,0,0,0,0.0,4.132927,0.8,0.0
43.209722,-3.472361,(SIN RÓTULO),0,1,0,0,0.0,0,0,0,0.0,0.331523,0.8,0.0
43.269333,-4.249639,CEPSA,0,1,0,0,0.0,0,0,0,0.0,1.583787,0.8,0.0
43.356,-4.094167,CEPSA,0,1,0,0,0.0,0,0,0,0.0,2.682135,0.8,0.0
43.167083,-4.606194,ESTACION DE SERVICIO LIEBANA S.L,0,1,0,0,0.0,0,0,0,0.0,2.919541,0.8,0.0
43.426083,-3.522444,REPSOL,0,1,0,0,0.0,0,0,0,0.0,2.557494,0.8,0.0
43.378278,-4.05975,REPSOL,0,1,0,0,0.0,0,0,0,0.0,5.014453,0.8,0.0
43.181972,-4.052444,PETRONOR,0,1,0,0,0.0,0,0,0,0.0,0.660297,0.8,0.0
43.447306,-3.562611,REPSOL,0,1,0,0,0.0,0,0,0,0.0,2.189548,0.8,0.0
43.395944,-4.155194,CEPSA,0,1,0,0,0.0,0,0,0,0.0,2.107246,0.8,0.0
43.254194,-4.405361,PETRONOR,0,1,0,0,0.0,0,0,0,0.0,1.728546,0.8,0.0
43.368611,-4.089444,PETRONOR,0,1,0,0,0.0,0,0,0,0.0,3.932491,0.8,0.0
43.425833,-3.769333,REPSOL,0,1,0,0,0.0,0,0,0,0.0,5.050786,0.8,0.0
43.131389,-4.049,PETRONOR,0,1,0,0,0.0,0,0,0,0.0,1.084047,0.8,0.0
43.388583,-3.687083,REPSOL,0,1,0,0,0.0,0,0,0,0.0,6.046534,0.8,0.0
43.341889,-3.418167,REPSOL,0,1,0,0,0.0,0,0,0,0.0,0.404911,0.8,0.0
43.383472,-3.73775,BALLENOIL,0,1,0,0,0.0,0,0,0,0.0,2.428262,0.8,0.0
43.358278,-3.924083,GALP,0,1,0,0,0.0,0,0,0,0.0,2.793614,0.8,0.0
43.408472,-3.945806,BALLENOIL,0,1,0,0,0.0,0,0,0,0.0,3.817262,0.8,0.0
43.394806,-3.458722,PETRONOR,0,1,0,0,0.0,0,0,0,0.0,3.036839,0.8,0.0
43.388417,-3.685028,REPSOL,0,1,0,0,0.0,0,0,0,0.0,1.976156,0.8,0.0
43.218333,-3.943222,REPSOL,0,1,0,0,0.0,0,0,0,0.0,2.08323,0.8,0.0
43.229528,-3.814194,REPSOL,0,1,0,0,0.0,0,0,0,0.0,1.52183,0.8,0.0
43.469778,-3.56225,CAMPSA,0,1,0,0,0.0,0,0,0,0.0,2.330746,0.8,0.0
43.387639,-4.279472,REPSOL,0,1,0,0,0.0,0,0,0,0.0,0.883882,0.8,0.0
43.391056,-3.665,CEPSA,0,1,0,0,0.0,0,0,0,0.0,4.065942,0.8,0.0
43.397806,-4.049056,REPSOL,0,1,0,0,0.0,0,0,0,0.0,4.12646,0.8,0.0
43.411417,-3.542028,REPSOL,0,1,0,0,0.0,0,0,0,0.0,7.671372,0.8,0.0
43.389806,-3.6835,REPSOL,0,1,0,0,0.0,0,0,0,0.0,1.979453,0.8,0.0
43.331556,-4.0655,REPSOL,0,1,0,0,0.0,0,0,0,0.0,1.317099,0.8,0.0
43.333972,-4.329278,REPSOL,0,1,0,0,0.0,0,0,0,0.0,11.855744,0.8,0.0
43.334083,-4.330611,REPSOL,0,1,0,0,0.0,0,0,0,0.0,11.845509,0.8,0.0
43.327028,-4.191639,REPSOL,0,1,0,0,0.0,0,0,0,0.0,8.875109,0.8,0.0
43.388361,-4.407833,E.S.SOLBAS,0,1,0,0,0.0,0,0,0,0.0,1.895479,0.8,0.0
43.420056,-4.039,BALLENOIL,0,1,0,0,0.0,0,0,0,0.0,4.078381,0.8,0.0
43.391056,-3.665,MOEVE,0,1,0,0,0.0,0,0,0,0.0,4.065942,0.8,0.0
43.459083,-3.549028,E.S. CARBURANTES DE ARNUERO S.L.,0,1,0,0,0.0,0,0,0,0.0,1.372532,0.8,0.0
42.380306,-1.552944,AVIA,0,1,0,0,0.0,0,0,0,0.0,1.514864,0.8,0.0
42.734444,-1.633556,MOEVE,0,1,0,0,0.0,0,0,0,0.0,0.13419,0.8,0.0
42.581139,-1.285639,AVIA,0,1,0,0,0.0,0,0,0,0.0,0.25201,0.8,0.0
42.84325,-1.681528,ESTACION DE SERVICIO ARALAR,0,1,0,0,0.0,0,0,0,0.0,0.135374,0.8,0.0
42.586528,-1.76475,ADELFAS OIL,0,1,0,0,0.0,0,0,0,0.0,2.178445,0.8,0.0
42.736,-1.633139,BALLENOIL,0,1,0,0,0.0,0,0,0,0.0,0.134425,0.8,0.0
42.784389,-1.372472,"ESTACION DE SERVICIO AOIZ, S.L.",0,1,0,0,0.0,0,0,0,0.0,0.200369,0.8,0.0
42.666917,-2.252397,AVIA,0,1,0,0,0.0,0,0,0,0.0,2.759963,0.8,0.0
42.568333,-2.191722,AVIA,0,1,0,0,0.0,0,0,0,0.0,1.836822,0.8,0.0
43.136083,-1.680583,AVIA,0,1,0,0,0.0,0,0,0,0.0,0.466532,0.8,0.0
42.571139,-2.022194,HNOS. FERNANDEZ URABAIN S.L.,0,1,0,0,0.0,0,0,0,0.0,2.365659,0.8,0.0
42.607389,-2.016806,AVANZA OIL,0,1,0,0,0.0,0,0,0,0.0,2.338448,0.8,0.0
42.036472,-1.631,Q8,0,1,0,0,0.0,0,0,0,0.0,1.587603,0.8,0.0
42.9155,-2.183833,IDS,0,1,0,0,0.0,0,0,0,0.0,9.610003,0.8,0.0
42.734722,-1.633889,IDS,0,1,0,0,0.0,0,0,0,0.0,0.135819,0.8,0.0
42.891,-2.16075,REPSOL,0,1,0,0,0.0,0,0,0,0.0,8.207778,0.8,0.0
42.350639,-1.937639,REPSOL,0,1,0,0,0.0,0,0,0,0.0,1.777456,0.8,0.0
42.136917,-1.699944,REPSOL,0,1,0,0,0.0,0,0,0,0.0,3.91849,0.8,0.0
43.278278,-1.710056,REPSOL,0,1,0,0,0.0,0,0,0,0.0,0.136393,0.8,0.0
43.278111,-1.708583,REPSOL,0,1,0,0,0.0,0,0,0,0.0,0.136393,0.8,0.0
42.167611,-1.593083,E.S.LA RECTA,0,1,0,0,0.0,0,0,0,0.0,0.930651,0.8,0.0
42.861639,-1.743917,REPSOL,0,1,0,0,0.0,0,0,0,0.0,1.726894,0.8,0.0
42.983333,-1.630528,CEPSA,0,1,0,0,0.0,0,0,0,0.0,0.195836,0.8,0.0
42.945722,-1.265667,PETRONOR,0,1,0,0,0.0,0,0,0,0.0,0.175214,0.8,0.0
42.868083,-1.096694,AVIA,0,1,0,0,0.0,0,0,0,0.0,0.242603,0.8,0.0
42.771222,-2.130472,PETRONOR,0,1,0,0,0.0,0,0,0,0.0,4.226304,0.8,0.0
42.350722,-1.650389,MOEVE,0,1,0,0,0.0,0,0,0,0.0,1.274878,0.8,0.0
42.076944,-1.79675,MOEVE,0,1,0,0,0.0,0,0,0,0.0,1.501353,0.8,0.0
43.137472,-1.611139,ZONA AUTO MUGAIRE AVIA,0,1,0,0,0.0,0,0,0,0.0,0.25411,0.8,0.0
43.148639,-1.512361,CAMPSA,0,1,0,0,0.0,0,0,0,0.0,0.20612,0.8,0.0
42.614194,-1.27825,REPSOL,0,1,0,0,0.0,0,0,0,0.0,0.122573,0.8,0.0
42.775972,-1.635278,REPSOL,0,1,0,0,0.0,0,0,0,0.0,0.134473,0.8,0.0
42.776111,-1.634722,REPSOL,0,1,0,0,0.0,0,0,0,0.0,0.412318,0.8,0.0
43.270833,-1.687167,PETRONOR,0,1,0,0,0.0,0,0,0,0.0,0.141534,0.8,0.0
42.856083,-1.618917,ARALAR,0,1,0,0,0.0,0,0,0,0.0,0.138883,0.8,0.0
43.058806,-1.955944,CEPSA,0,1,0,0,0.0,0,0,0,0.0,7.049922,0.8,0.0
43.059111,-1.957306,CEPSA,0,1,0,0,0.0,0,0,0,0.0,6.340005,0.8,0.0
42.201611,-1.642861,REPSOL,0,1,0,0,0.0,0,0,0,0.0,0.926899,0.8,0.0
42.818417,-1.718111,PETRONOR,0,1,0,0,0.0,0,0,0,0.0,0.489547,0.8,0.0
42.756667,-1.624167,REPSOL,0,1,0,0,0.0,0,0,0,0.0,0.456205,0.8,0.0
42.89,-2.169028,IZELAI FUEL,0,1,0,0,0.0,0,0,0,0.0,8.421801,0.8,0.0
42.917667,-2.195389,GALP,0,1,0,0,0.0,0,0,0,0.0,10.833053,0.8,0.0
42.915306,-2.197889,GALP,0,1,0,0,0.0,0,0,0,0.0,14.120478,0.8,0.0
41.993278,-1.676361,REPSOL,0,1,0,0,0.0,0,0,0,0.0,1.219202,0.8,0.0
43.287444,-1.505667,CEPSA,0,1,0,0,0.0,0,0,0,0.0,0.13571,0.8,0.0
43.033417,-1.983694,REPSOL,0,1,0,0,0.0,0,0,0,0.0,6.064448,0.8,0.0
42.512583,-2.374028,REPSOL,0,1,0,0,0.0,0,0,0,0.0,8.948685,0.8,0.0
41.975444,-1.44,EURONOR ENERGY ,0,1,0,0,0.0,0,0,0,0.0,1.614302,0.8,0.0
42.416556,-2.076861,CEPSA,0,1,0,0,0.0,0,0,0,0.0,1.98713,0.8,0.0
42.449611,-2.212222,REPSOL,0,1,0,0,0.0,0,0,0,0.0,2.000812,0.8,0.0
42.173278,-1.699139,ATUGAS,0,1,0,0,0.0,0,0,0,0.0,0.968033,0.8,0.0
42.400583,-1.964639,COMBUSTIBLES PIUDO,0,1,0,0,0.0,0,0,0,0.0,2.3934,0.8,0.0
43.109083,-1.283028,ZONA AUTO LUAIDE AVIA,0,1,0,0,0.0,0,0,0,0.0,0.193224,0.8,0.0
42.831361,-1.585417,BP HUARTE,0,1,0,0,0.0,0,0,0,0.0,0.135929,0.8,0.0
42.937167,-1.503167,JOSENEA ZUBIRI AVIA,0,1,0,0,0.0,0,0,0,0.0,0.154762,0.8,0.0
42.029556,-1.516056,PETRONOR,0,1,0,0,0.0,0,0,0,0.0,1.721198,0.8,0.0
42.9125,-1.863028,REPSOL,0,1,0,0,0.0,0,0,0,0.0,8.480174,0.8,0.0
42.8355,-1.653361,REPSOL,0,1,0,0,0.0,0,0,0,0.0,0.1349,0.8,0.0
43.084972,-1.922278,CAMPSA,0,1,0,0,0.0,0,0,0,0.0,1.970639,0.8,0.0
43.155889,-1.670167,E.S. KONTXA S.L.,0,1,0,0,0.0,0,0,0,0.0,0.23457,0.8,0.0
41.227694,-0.029944,"GANAR, S. COOP.",0,1,0,0,0.0,0,0,0,0.0,0.547382,0.8,0.0
40.529083,-1.025306,E.S DE ALFAMBRA,0,1,0,0,0.0,0,0,0,0.0,3.942205,0.8,0.0
41.58575,-1.099611,SHELL,0,1,0,0,0.0,0,0,0,0.0,18.889507,0.8,0.0
41.605944,0.269639,CEPSA,0,1,0,0,0.0,0,0,0,0.0,0.462321,0.8,0.0
41.624333,0.194139,CEPSA,0,1,0,0,0.0,0,0,0,0.0,1.491474,0.8,0.0
42.254083,0.731861,ESTACION SERVICIO BONET SL,0,1,0,0,0.0,0,0,0,0.0,2.295372,0.8,0.0
41.414806,-1.516972,MLC ALUENDA,0,1,0,0,0.0,0,0,0,0.0,3.994993,0.8,0.0
41.475944,-0.153111,BONAREA,0,1,0,0,0.0,0,0,0,0.0,0.84774,0.8,0.0
42.274861,-0.685917,"LABOIL, S.L.",0,1,0,0,0.0,0,0,0,0.0,1.520728,0.8,0.0
41.863667,0.419222,ESC,0,1,0,0,0.0,0,0,0,0.0,0.515243,0.8,0.0
42.446444,0.132528,ESTACION DE SERVICIO RV,0,1,0,0,0.0,0,0,0,0.0,0.382953,0.8,0.0
41.477278,-1.379333,COSANSE,0,1,0,0,0.0,0,0,0,0.0,3.395616,0.8,0.0
41.59475,-1.274806,E.S.EPILA,0,1,0,0,0.0,0,0,0,0.0,4.161068,0.8,0.0
41.579444,-1.113083,E.S.LA MUELA,0,1,0,0,0.0,0,0,0,0.0,14.520209,0.8,0.0
42.142972,-0.325167,GALP,0,1,0,0,0.0,0,0,0,0.0,12.427057,0.8,0.0
42.773972,-0.367806,REPSOL,0,1,0,0,0.0,0,0,0,0.0,0.103023,0.8,0.0
41.672583,0.188167,REPSOL-E.S.JAIME I,0,1,0,0,0.0,0,0,0,0.0,0.187125,0.8,0.0
41.827972,0.311167,REPSOL,0,1,0,0,0.0,0,0,0,0.0,0.315802,0.8,0.0
42.188222,0.337861,"LABOIL, S.L.",0,1,0,0,0.0,0,0,0,0.0,0.488266,0.8,0.0
41.413417,0.332806,REPSOL,0,1,0,0,0.0,0,0,0,0.0,3.279065,0.8,0.0
42.630222,-0.326889,REPSOL,0,1,0,0,0.0,0,0,0,0.0,0.803867,0.8,0.0
42.584167,0.212917,REPSOL,0,1,0,0,0.0,0,0,0,0.0,0.995272,0.8,0.0
42.315778,0.56475,REPSOL,0,1,0,0,0.0,0,0,0,0.0,0.178664,0.8,0.0
41.978278,0.490083,MOEVE (ANTERIORMENTE CEPSA) PENDIENTE DE CANVIAR TODA LA IMAGEN,0,1,0,0,0.0,0,0,0,0.0,2.625211,0.8,0.0
42.740833,-0.748278,MOEVE,0,1,0,0,0.0,0,0,0,0.0,0.89667,0.8,0.0
42.723056,-0.524528,MOEVE,0,1,0,0,0.0,0,0,0,0.0,1.728397,0.8,0.0
42.606472,-0.123389,REPSOL,0,1,0,0,0.0,0,0,0,0.0,1.61235,0.8,0.0
42.66125,0.2095,REPSOL,0,1,0,0,0.0,0,0,0,0.0,1.500308,0.8,0.0
42.123722,-0.271806,REPSOL,0,1,0,0,0.0,0,0,0,0.0,1.183566,0.8,0.0
42.716,-0.308444,REPSOL,0,1,0,0,0.0,0,0,0,0.0,0.307073,0.8,0.0
42.4155,0.141028,CEPSA,0,1,0,0,0.0,0,0,0,0.0,0.303216,0.8,0.0
41.7145,-0.049111,CEPSA,0,1,0,0,0.0,0,0,0,0.0,1.318279,0.8,0.0
42.556611,-0.786556,CEPSA,0,1,0,0,0.0,0,0,0,0.0,1.191291,0.8,0.0
41.939611,-0.369333,REPSOL,0,1,0,0,0.0,0,0,0,0.0,0.598617,0.8,0.0
41.845722,0.295694,REPSOL,0,1,0,0,0.0,0,0,0,0.0,0.315442,0.8,0.0
41.721833,0.146667,REPSOL,0,1,0,0,0.0,0,0,0,0.0,0.158952,0.8,0.0
41.792333,-0.153222,REPSOL,0,1,0,0,0.0,0,0,0,0.0,2.560447,0.8,0.0
42.052139,-0.015222,REPSOL,0,1,0,0,0.0,0,0,0,0.0,7.349016,0.8,0.0
41.769472,-0.327639,REPSOL,0,1,0,0,0.0,0,0,0,0.0,2.869283,0.8,0.0
42.055083,0.239861,REPSOL  ,0,1,0,0,0.0,0,0,0,0.0,1.105393,0.8,0.0
42.677667,-0.538194,REPSOL,0,1,0,0,0.0,0,0,0,0.0,0.469303,0.8,0.0
42.402417,0.396917,REPSOL,0,1,0,0,0.0,0,0,0,0.0,1.196983,0.8,0.0
41.992,-0.667444,REPSOL,0,1,0,0,0.0,0,0,0,0.0,4.846612,0.8,0.0
42.036194,-0.575528,REPSOL,0,1,0,0,0.0,0,0,0,0.0,0.610447,0.8,0.0
42.140611,0.225944,REPSOL,0,1,0,0,0.0,0,0,0,0.0,0.597923,0.8,0.0
41.950139,0.153611,MOEVE-E.S.JAIME I,0,1,0,0,0.0,0,0,0,0.0,1.419393,0.8,0.0
41.518139,0.042028,GALP,0,1,0,0,0.0,0,0,0,0.0,38.271563,0.8,0.0
41.518222,0.039361,GALP,0,1,0,0,0.0,0,0,0,0.0,36.540478,0.8,0.0
41.170611,-0.442194,Q8,0,1,0,0,0.0,0,0,0,0.0,2.034306,0.8,0.0
41.028194,-0.806722,GASOLEOS TERUEL,0,1,0,0,0.0,0,0,0,0.0,0.33166,0.8,0.0
41.738667,-0.844917,IDS,0,1,0,0,0.0,0,0,0,0.0,15.336895,0.8,0.0
40.482583,-1.251333,MOEVE,0,1,0,0,0.0,0,0,0,0.0,1.60286,0.8,0.0
40.802472,-0.837611,REPSOL,0,1,0,0,0.0,0,0,0,0.0,1.113598,0.8,0.0
41.249056,-0.067917,REPSOL,0,1,0,0,0.0,0,0,0,0.0,0.146543,0.8,0.0
41.736972,-1.066694,E.S. LA JOYOSA,0,1,0,0,0.0,0,0,0,0.0,16.248579,0.8,0.0
41.450694,-1.346556,AREA-220,0,1,0,0,0.0,0,0,0,0.0,3.608648,0.8,0.0
41.840056,-1.419444,REPSOL,0,1,0,0,0.0,0,0,0,0.0,3.728734,0.8,0.0
41.524333,-1.273361,REPSOL,0,1,0,0,0.0,0,0,0,0.0,9.839462,0.8,0.0
41.5165,-1.288111,REPSOL,0,1,0,0,0.0,0,0,0,0.0,8.812555,0.8,0.0
41.305917,-1.964361,AVIA,0,1,0,0,0.0,0,0,0,0.0,4.579393,0.8,0.0
41.681361,-0.780861,REPSOL,0,1,0,0,0.0,0,0,0,0.0,6.243497,0.8,0.0
41.521917,-1.599833,REPSOL,0,1,0,0,0.0,0,0,0,0.0,1.14386,0.8,0.0
40.946639,-0.230444,CEPSA,0,1,0,0,0.0,0,0,0,0.0,1.916628,0.8,0.0
40.788111,-0.035556,REPSOL,0,1,0,0,0.0,0,0,0,0.0,0.839335,0.8,0.0
41.466056,-1.787278,PETRONOR,0,1,0,0,0.0,0,0,0,0.0,2.008562,0.8,0.0
40.547639,-1.651944,E.S.ORIHUELA DEL TREMEDAL,0,1,0,0,0.0,0,0,0,0.0,0.248888,0.8,0.0
40.824694,-0.201611,E.S. AGUAVIVA,0,1,0,0,0.0,0,0,0,0.0,0.664452,0.8,0.0
41.212833,-1.788167,MONTEPIEDRA,0,1,0,0,0.0,0,0,0,0.0,1.494889,0.8,0.0
41.483222,-1.371528,REPSOL,0,1,0,0,0.0,0,0,0,0.0,1.326627,0.8,0.0
40.19075,-0.655917,REPSOL,0,1,0,0,0.0,0,0,0,0.0,0.677186,0.8,0.0
40.149639,-0.823556,REPSOL,0,1,0,0,0.0,0,0,0,0.0,0.29447,0.8,0.0
41.640722,-0.754611,REPSOL,0,1,0,0,0.0,0,0,0,0.0,14.286701,0.8,0.0
41.640639,-0.754694,REPSOL,0,1,0,0,0.0,0,0,0,0.0,14.286701,0.8,0.0
40.438083,-0.848861,CEPSA,0,1,0,0,0.0,0,0,0,0.0,1.707004,0.8,0.0
41.834472,-1.32,REPSOL,0,1,0,0,0.0,0,0,0,0.0,6.18773,0.8,0.0
41.832972,-1.319722,REPSOL,0,1,0,0,0.0,0,0,0,0.0,6.185615,0.8,0.0
41.730583,-1.031417,PETRONOR,0,1,0,0,0.0,0,0,0,0.0,7.092378,0.8,0.0
41.731639,-1.029833,REPSOL,0,1,0,0,0.0,0,0,0,0.0,7.095387,0.8,0.0
41.128361,-0.510583,MOEVE,0,1,0,0,0.0,0,0,0,0.0,0.863739,0.8,0.0
40.913361,-1.298306,REPSOL,0,1,0,0,0.0,0,0,0,0.0,0.456925,0.8,0.0
42.283333,-1.272111,COOP SAN JOSE - SÁDABA,0,1,0,0,0.0,0,0,0,0.0,2.635637,0.8,0.0
41.766806,-1.1265,REPSOL,0,1,0,0,0.0,0,0,0,0.0,3.741822,0.8,0.0
40.831417,-0.798167,REPSOL,0,1,0,0,0.0,0,0,0,0.0,1.613959,0.8,0.0
41.514972,-0.63675,REPSOL,0,1,0,0,0.0,0,0,0,0.0,0.375939,0.8,0.0
41.432722,-0.504083,REPSOL,0,1,0,0,0.0,0,0,0,0.0,3.180394,0.8,0.0
40.627667,-1.000472,GASOLEOS TERUEL,0,1,0,0,0.0,0,0,0,0.0,2.76482,0.8,0.0
40.750583,-1.333361,REPSOL,0,1,0,0,0.0,0,0,0,0.0,4.633863,0.8,0.0
41.761639,-1.149528,REPSOL,0,1,0,0,0.0,0,0,0,0.0,11.584027,0.8,0.0
41.761111,-1.149389,REPSOL,0,1,0,0,0.0,0,0,0,0.0,11.326953,0.8,0.0
40.365861,-0.706083,GALP,0,1,0,0,0.0,0,0,0,0.0,1.381494,0.8,0.0
40.78275,-1.346972,REPSOL,0,1,0,0,0.0,0,0,0,0.0,0.303561,0.8,0.0
41.925278,-1.254972,REPSOL,0,1,0,0,0.0,0,0,0,0.0,1.113933,0.8,0.0
41.219833,-0.469806,REPSOL,0,1,0,0,0.0,0,0,0,0.0,1.586617,0.8,0.0
41.117167,-1.406028,REPSOL,0,1,0,0,0.0,0,0,0,0.0,0.578093,0.8,0.0
41.761472,-0.831278,REPSOL,0,1,0,0,0.0,0,0,0,0.0,11.218168,0.8,0.0
41.857,-0.794,REPSOL,0,1,0,0,0.0,0,0,0,0.0,0.541939,0.8,0.0
40.831472,-0.24025,CAMPSA,0,1,0,0,0.0,0,0,0,0.0,0.702248,0.8,0.0
41.523639,-1.348194,CALATORAO ES,0,1,0,0,0.0,0,0,0,0.0,1.564712,0.8,0.0
41.259111,-0.869,CEPSA,0,1,0,0,0.0,0,0,0,0.0,0.254418,0.8,0.0
41.335639,-1.219639,MOEVE,0,1,0,0,0.0,0,0,0,0.0,0.437086,0.8,0.0
41.350472,-1.038972,CEPSA,0,1,0,0,0.0,0,0,0,0.0,1.240055,0.8,0.0
41.322528,-0.343889,CEPSA,0,1,0,0,0.0,0,0,0,0.0,0.60183,0.8,0.0
41.846111,-1.355389,AVIA,0,1,0,0,0.0,0,0,0,0.0,6.54106,0.8,0.0
42.260639,-1.194694,MOEVE,0,1,0,0,0.0,0,0,0,0.0,4.691009,0.8,0.0
41.540417,-1.233833,MOEVE,0,1,0,0,0.0,0,0,0,0.0,9.786865,0.8,0.0
41.235944,-0.04375,CEPSA,0,1,0,0,0.0,0,0,0,0.0,0.353335,0.8,0.0
41.74825,-0.639972,SIN ROTULO,0,1,0,0,0.0,0,0,0,0.0,7.181974,0.8,0.0
41.483056,-1.379361,MOEVE,0,1,0,0,0.0,0,0,0,0.0,3.211865,0.8,0.0
41.311611,-2.002722,MOEVE,0,1,0,0,0.0,0,0,0,0.0,5.851161,0.8,0.0
41.312611,-2.001333,MOEVE,0,1,0,0,0.0,0,0,0,0.0,4.353041,0.8,0.0
41.531944,-1.618056,CEPSA,0,1,0,0,0.0,0,0,0,0.0,0.671072,0.8,0.0
41.50175,-1.32125,BP,0,1,0,0,0.0,0,0,0,0.0,1.457184,0.8,0.0
41.605778,-1.077278,MOEVE,0,1,0,0,0.0,0,0,0,0.0,23.701062,0.8,0.0
40.894278,-0.377333,REPSOL,0,1,0,0,0.0,0,0,0,0.0,0.470836,0.8,0.0
41.016083,0.192972,REPSOL,0,1,0,0,0.0,0,0,0,0.0,0.749196,0.8,0.0
40.872528,0.150917,CEPSA,0,1,0,0,0.0,0,0,0,0.0,0.44594,0.8,0.0
40.982278,-0.447833,REPSOL,0,1,0,0,0.0,0,0,0,0.0,0.359108,0.8,0.0
40.564778,-1.2855,REPSOL,0,1,0,0,0.0,0,0,0,0.0,0.640846,0.8,0.0
41.309667,-0.742333,REPSOL,0,1,0,0,0.0,0,0,0,0.0,0.561366,0.8,0.0
41.208861,-0.710861,ES NTRA SRA OLIVAR,0,1,0,0,0.0,0,0,0,0.0,0.32087,0.8,0.0
41.539889,-0.996556,REPSOL,0,1,0,0,0.0,0,0,0,0.0,1.679599,0.8,0.0
41.836167,-1.177194,REPSOL,0,1,0,0,0.0,0,0,0,0.0,2.309554,0.8,0.0
42.490944,-1.215111,"AN ENERGETICOS S,L - SOS DEL REY CATOLICO",0,1,0,0,0.0,0,0,0,0.0,0.227142,0.8,0.0
41.302944,-1.945833,REPSOL,0,1,0,0,0.0,0,0,0,0.0,6.846981,0.8,0.0
41.303611,-1.946278,REPSOL,0,1,0,0,0.0,0,0,0,0.0,6.48131,0.8,0.0
40.680528,-0.696056,REPSOL,0,1,0,0,0.0,0,0,0,0.0,0.152062,0.8,0.0
41.492778,-0.520222,REPSOL,0,1,0,0,0.0,0,0,0,0.0,0.716373,0.8,0.0
41.665806,-1.239167,REPSOL,0,1,0,0,0.0,0,0,0,0.0,3.954722,0.8,0.0
41.436444,-1.24025,PETRONOR,0,1,0,0,0.0,0,0,0,0.0,1.278541,0.8,0.0
41.637972,-0.419389,REPSOL,0,1,0,0,0.0,0,0,0,0.0,2.891799,0.8,0.0
40.508333,-0.407417,PETRONOR,0,1,0,0,0.0,0,0,0,0.0,2.662253,0.8,0.0
41.762833,-1.475639,REPSOL,0,1,0,0,0.0,0,0,0,0.0,1.12662,0.8,0.0
41.583361,-0.774694,REPSOL,0,1,0,0,0.0,0,0,0,0.0,6.014777,0.8,0.0
41.984528,1.556083,PETROLIS DE BARCELONA,0,1,0,0,0.0,0,0,0,0.0,3.49384,0.8,0.0
42.406889,2.8785,TORTUGA,0,1,0,0,0.0,0,0,0,0.0,7.939379,0.8,0.0
41.655,1.421944,E.S. SANT GUIM,0,1,0,0,0.0,0,0,0,0.0,1.405245,0.8,0.0
41.564333,0.78825,GALP,0,1,0,0,0.0,0,0,0,0.0,3.687107,0.8,0.0
42.364444,1.681139,BENZINERA MARTINET,0,1,0,0,0.0,0,0,0,0.0,1.009234,0.8,0.0
42.14725,0.893667,BONAREA,0,1,0,0,0.0,0,0,0,0.0,0.767588,0.8,0.0
42.032056,2.362917,PETROVOLTREGÀ - ÀREA DEL COLLSACABRA,0,1,0,0,0.0,0,0,0,0.0,1.430091,0.8,0.0
41.807833,1.403056,BONAREA,0,1,0,0,0.0,0,0,0,0.0,1.72969,0.8,0.0
41.612111,1.129444,BONAREA,0,1,0,0,0.0,0,0,0,0.0,3.911877,0.8,0.0
42.700222,0.862583,MOEVE,0,1,0,0,0.0,0,0,0,0.0,0.583741,0.8,0.0
41.853611,2.360056,SIN ROTULO,0,1,0,0,0.0,0,0,0,0.0,5.957567,0.8,0.0
41.793,0.573111,E.S. SEGRIÀ,0,1,0,0,0.0,0,0,0,0.0,1.683226,0.8,0.0
41.810694,1.40225,E.S.MAS,0,1,0,0,0.0,0,0,0,0.0,1.729687,0.8,0.0
41.583806,2.255972,EASYGAS,0,1,0,0,0.0,0,0,0,0.0,19.245366,0.8,0.0
41.8895,1.050194,FARRE OIL,0,1,0,0,0.0,0,0,0,0.0,3.168302,0.8,0.0
41.687917,0.633,PONENT ENERGIA,0,1,0,0,0.0,0,0,0,0.0,1.491235,0.8,0.0
42.160306,1.85775,PETROMIRALLES,0,1,0,0,0.0,0,0,0,0.0,0.388918,0.8,0.0
42.020124,2.823503,PETREM,0,1,0,0,0.0,0,0,0,0.0,3.618693,0.8,0.0
42.380333,2.890583,SHELL,0,1,0,0,0.0,0,0,0,0.0,2.184335,0.8,0.0
41.358,1.752167,SHELL,0,1,0,0,0.0,0,0,0,0.0,8.607497,0.8,0.0
42.096722,2.222861,NADA ,0,1,0,0,0.0,0,0,0,0.0,3.270413,0.8,0.0
41.781917,1.278167,BONAREA,0,1,0,0,0.0,0,0,0,0.0,3.627966,0.8,0.0
41.67125,2.217222,ESTACIO SERVEI BIGUES I RIELLS,0,1,0,0,0.0,0,0,0,0.0,6.799447,0.8,0.0
41.808722,2.106667,BONAREA,0,1,0,0,0.0,0,0,0,0.0,4.450726,0.8,0.0
42.402972,2.878639,"ANDAMUR ""LA JONQUERA""",0,1,0,0,0.0,0,0,0,0.0,2.34316,0.8,0.0
41.883528,2.283806,"AREA DE SERVEIS TARADELL,SL",0,1,0,0,0.0,0,0,0,0.0,5.901941,0.8,0.0
41.490972,1.513444,PETROMIRALLES,0,1,0,0,0.0,0,0,0,0.0,1.901237,0.8,0.0
42.204306,2.5385,PANAWAY ROAD,0,1,0,0,0.0,0,0,0,0.0,8.688819,0.8,0.0
41.622444,2.574889,CARBURANTS SANT ISCLE,0,1,0,0,0.0,0,0,0,0.0,38.807621,0.8,0.0
41.716028,0.762639,E.S.TERMENS,0,1,0,0,0.0,0,0,0,0.0,4.905621,0.8,0.0
42.370278,1.78,ANEU OIL ,0,1,0,0,0.0,0,0,0,0.0,1.815575,0.8,0.0
42.577139,1.139194,MOEVE,0,1,0,0,0.0,0,0,0,0.0,0.3482,0.8,0.0
41.532889,0.842694,BONAREA,0,1,0,0,0.0,0,0,0,0.0,3.274327,0.8,0.0
41.563944,0.788028,GALP,0,1,0,0,0.0,0,0,0,0.0,3.686308,0.8,0.0
41.795,1.946806,MEROIL,0,1,0,0,0.0,0,0,0,0.0,2.07351,0.8,0.0
41.853056,2.435917,ZONA DIESEL ,0,1,0,0,0.0,0,0,0,0.0,61.660801,0.8,0.0
41.3655,1.985083,BONAREA,0,1,0,0,0.0,0,0,0,0.0,8.326265,0.8,0.0
41.538639,1.393167,COPERAL,0,1,0,0,0.0,0,0,0,0.0,1.466001,0.8,0.0
42.381222,2.889167,SHELL,0,1,0,0,0.0,0,0,0,0.0,2.186345,0.8,0.0
41.356889,1.752694,SHELL,0,1,0,0,0.0,0,0,0,0.0,8.607497,0.8,0.0
42.423056,1.922,MEROIL,0,1,0,0,0.0,0,0,0,0.0,3.163207,0.8,0.0
42.004194,2.242389,GALP,0,1,0,0,0.0,0,0,0,0.0,1.250013,0.8,0.0
41.814361,0.635944,ES ALGERRI,0,1,0,0,0.0,0,0,0,0.0,0.854871,0.8,0.0
41.757139,2.120167,PORBOL,0,1,0,0,0.0,0,0,0,0.0,5.183992,0.8,0.0
41.632889,2.704111,BENZINERA SANTA SUSANNA,0,1,0,0,0.0,0,0,0,0.0,6.992147,0.8,0.0
42.410333,2.876306,GALP,0,1,0,0,0.0,0,0,0,0.0,2.369637,0.8,0.0
41.74475,1.858,E.S. ROSALEDA  -ST. FRUITOS DE BAGES-     GASOILS ROVIRA,0,1,0,0,0.0,0,0,0,0.0,1.996326,0.8,0.0
41.568722,0.5365,Q8,0,1,0,0,0.0,0,0,0,0.0,2.341429,0.8,0.0
42.033722,2.899889,Q8,0,1,0,0,0.0,0,0,0,0.0,2.426007,0.8,0.0
42.053028,2.544889,Q8,0,1,0,0,0.0,0,0,0,0.0,2.271953,0.8,0.0
41.984556,2.310056,FEIXAS AULET,0,1,0,0,0.0,0,0,0,0.0,3.547435,0.8,0.0
41.984528,2.310028,FEIXAS AULET ,0,1,0,0,0.0,0,0,0,0.0,3.547435,0.8,0.0
41.322694,1.718667,PETROCAT DIRECTE,0,1,0,0,0.0,0,0,0,0.0,19.482355,0.8,0.0
41.323389,1.718806,PETROCAT DIRECTE,0,1,0,0,0.0,0,0,0,0.0,23.290932,0.8,0.0
41.83475,2.273111,BLANCA,0,1,0,0,0.0,0,0,0,0.0,5.617897,0.8,0.0
41.882028,2.243583,ESCLATOIL,0,1,0,0,0.0,0,0,0,0.0,5.695271,0.8,0.0
41.758611,2.396361,BLANCA,0,1,0,0,0.0,0,0,0,0.0,6.202674,0.8,0.0
41.354889,1.739167,CARREFOUR,0,1,0,0,0.0,0,0,0,0.0,8.607178,0.8,0.0
41.750556,1.862139,CARREFOUR,0,1,0,0,0.0,0,0,0,0.0,4.521049,0.8,0.0
41.6125,1.888889,CEPSA,0,1,0,0,0.0,0,0,0,0.0,19.982664,0.8,0.0
41.611139,1.891361,CEPSA,0,1,0,0,0.0,0,0,0,0.0,19.977036,0.8,0.0
41.327611,1.945472,BP BEGUES,0,1,0,0,0.0,0,0,0,0.0,2.917781,0.8,0.0
41.332667,1.683139,Q8,0,1,0,0,0.0,0,0,0,0.0,14.20413,0.8,0.0
41.958167,2.634361,SHELL,0,1,0,0,0.0,0,0,0,0.0,2.634242,0.8,0.0
42.030917,2.88675,SHELL,0,1,0,0,0.0,0,0,0,0.0,2.507381,0.8,0.0
41.788139,0.82675,GADCAR,0,1,0,0,0.0,0,0,0,0.0,4.145591,0.8,0.0
42.221,2.82375,CEPSA,0,1,0,0,0.0,0,0,0,0.0,3.026522,0.8,0.0
41.967528,3.031222,CONDIS,0,1,0,0,0.0,0,0,0,0.0,2.543569,0.8,0.0
41.650833,0.898806,IDS,0,1,0,0,0.0,0,0,0,0.0,12.430883,0.8,0.0
41.967583,3.031139,Q8,0,1,0,0,0.0,0,0,0,0.0,2.543565,0.8,0.0
42.155417,2.465361,Q8,0,1,0,0,0.0,0,0,0,0.0,1.632655,0.8,0.0
41.628333,0.908972,PETROLIS INDEPENDENTS - PETRO7 ,0,1,0,0,0.0,0,0,0,0.0,12.574325,0.8,0.0
41.853028,0.95675,SEROIL ENERGY,0,1,0,0,0.0,0,0,0,0.0,4.697826,0.8,0.0
41.313861,1.652389,PINS OIL,0,1,0,0,0.0,0,0,0,0.0,8.706838,0.8,0.0
42.028972,3.065417,REPSOL,0,1,0,0,0.0,0,0,0,0.0,0.836473,0.8,0.0
41.754333,0.915694,REPSOL,0,1,0,0,0.0,0,0,0,0.0,4.227996,0.8,0.0
42.165083,2.745139,REPSOL,0,1,0,0,0.0,0,0,0,0.0,1.768705,0.8,0.0
42.310111,3.1265,REPSOL,0,1,0,0,0.0,0,0,0,0.0,0.563309,0.8,0.0
41.880222,0.878778,SEGRE OIL,0,1,0,0,0.0,0,0,0,0.0,3.188385,0.8,0.0
41.719972,2.148694,U.S. SANT QUIRZE SAFAJA  -GASOILS ROVIRA AUTOSERVEI-,0,1,0,0,0.0,0,0,0,0.0,6.025778,0.8,0.0
42.0045,3.145944,PETROCAT,0,1,0,0,0.0,0,0,0,0.0,1.985418,0.8,0.0
41.576194,2.222583,REPSOL,0,1,0,0,0.0,0,0,0,0.0,6.865362,0.8,0.0
41.511278,2.361389,REPSOL,0,1,0,0,0.0,0,0,0,0.0,54.19011,0.8,0.0
41.378417,1.730361,REPSOL,0,1,0,0,0.0,0,0,0,0.0,3.149889,0.8,0.0
41.377889,1.730583,REPSOL,0,1,0,0,0.0,0,0,0,0.0,3.146596,0.8,0.0
41.661917,1.201,DST,0,1,0,0,0.0,0,0,0,0.0,11.397524,0.8,0.0
41.990167,2.768306,PETRONOR,0,1,0,0,0.0,0,0,0,0.0,3.020929,0.8,0.0
41.664778,2.269667,PETROCAT,0,1,0,0,0.0,0,0,0,0.0,14.750495,0.8,0.0
42.025389,2.865167,REPSOL,0,1,0,0,0.0,0,0,0,0.0,2.507159,0.8,0.0
41.785639,2.761694,GALP,0,1,0,0,0.0,0,0,0,0.0,17.976659,0.8,0.0
42.259583,3.048472,GALP,0,1,0,0,0.0,0,0,0,0.0,2.742018,0.8,0.0
41.6425,0.894917,REPSOL,0,1,0,0,0.0,0,0,0,0.0,15.504917,0.8,0.0
41.666028,1.211083,REPSOL,0,1,0,0,0.0,0,0,0,0.0,12.353466,0.8,0.0
41.536889,1.679778,PETRONOR,0,1,0,0,0.0,0,0,0,0.0,6.170351,0.8,0.0
41.841611,2.698528,PETROSELVA,0,1,0,0,0.0,0,0,0,0.0,5.930081,0.8,0.0
41.844361,2.694944,PETROSELVA,0,1,0,0,0.0,0,0,0,0.0,5.930081,0.8,0.0
41.815806,2.89925,REPSOL,0,1,0,0,0.0,0,0,0,0.0,15.950007,0.8,0.0
41.66825,2.716333,CEPSA,0,1,0,0,0.0,0,0,0,0.0,27.107907,0.8,0.0
42.215194,2.947806,AOIL,0,1,0,0,0.0,0,0,0,0.0,1.415937,0.8,0.0
42.212111,1.33025,PETRONOR,0,1,0,0,0.0,0,0,0,0.0,1.846006,0.8,0.0
41.907389,2.661139,REPSOL,0,1,0,0,0.0,0,0,0,0.0,3.494686,0.8,0.0
41.615528,2.137083,REPSOL,0,1,0,0,0.0,0,0,0,0.0,11.373769,0.8,0.0
41.401694,1.704667,MEROIL,0,1,0,0,0.0,0,0,0,0.0,8.327068,0.8,0.0
42.417083,2.872,GALP,0,1,0,0,0.0,0,0,0,0.0,2.382188,0.8,0.0
41.531,2.420278,REPSOL,0,1,0,0,0.0,0,0,0,0.0,14.401431,0.8,0.0
41.809889,1.899389,"SALLENT DE SERVEIS, S.L.",0,1,0,0,0.0,0,0,0,0.0,13.395878,0.8,0.0
41.283306,1.723917,MOEVE,0,1,0,0,0.0,0,0,0,0.0,19.443336,0.8,0.0
41.928861,2.298444,REPSOL,0,1,0,0,0.0,0,0,0,0.0,22.877233,0.8,0.0
41.796528,1.999861,ES CALDERS,0,1,0,0,0.0,0,0,0,0.0,2.259756,0.8,0.0
42.2265,1.745389,REPSOL,0,1,0,0,0.0,0,0,0,0.0,0.259799,0.8,0.0
41.748833,2.262694,PETROCAT,0,1,0,0,0.0,0,0,0,0.0,19.642663,0.8,0.0
39.2115,-0.529944,CANSO CARBUANTES BENIMODO,0,1,0,0,0.0,0,0,0,0.0,11.198254,0.8,0.0
39.726,-0.833944,(SIN RÓTULO),0,1,0,0,0.0,0,0,0,0.0,0.116285,0.8,0.0
39.583417,-1.363111,(SIN RÓTULO),0,1,0,0,0.0,0,0,0,0.0,0.759939,0.8,0.0
39.420778,-0.37375,EXOIL PISTA DE SILLA,0,1,0,0,0.0,0,0,0,0.0,6.395377,0.8,0.0
38.462861,-0.782611,E.S. PETRER-ELDA,0,1,0,0,0.0,0,0,0,0.0,16.446354,0.8,0.0
38.131278,-0.775194,MAYAYO,0,1,0,0,0.0,0,0,0,0.0,1.889364,0.8,0.0
38.779222,-0.801361,GRUPO CIRUGEDA COLOM SL ,0,1,0,0,0.0,0,0,0,0.0,1.440106,0.8,0.0
39.279111,-0.567194,ESTACIO DE SERVICI EL REGAIXO,0,1,0,0,0.0,0,0,0,0.0,4.117557,0.8,0.0
39.348278,-0.611194,BON SERVICI,0,1,0,0,0.0,0,0,0,0.0,3.708556,0.8,0.0
39.162806,-0.518806,RIBERCOST,0,1,0,0,0.0,0,0,0,0.0,36.66884,0.8,0.0
39.659861,-0.516833,   ES J NUÑEZ ,0,1,0,0,0.0,0,0,0,0.0,5.729829,0.8,0.0
38.518611,-0.909722,MEROIL,0,1,0,0,0.0,0,0,0,0.0,3.988477,0.8,0.0
38.701889,-0.76775,COOPERATIVA DIVINA AURORA,0,1,0,0,0.0,0,0,0,0.0,2.880653,0.8,0.0
39.697528,-0.863833,GASOLINERA GALMAR,0,1,0,0,0.0,0,0,0,0.0,3.725696,0.8,0.0
38.277611,-0.920417,SANTA CRUZ,0,1,0,0,0.0,0,0,0,0.0,3.090051,0.8,0.0
38.167583,-0.803306,BRIOGAS,0,1,0,0,0.0,0,0,0,0.0,13.418228,0.8,0.0
39.706611,-0.348028,SEL,0,1,0,0,0.0,0,0,0,0.0,9.533496,0.8,0.0
39.055556,-1.056167,LA AYORENSE CARBURANTES,0,1,0,0,0.0,0,0,0,0.0,1.678646,0.8,0.0
39.609083,-0.773389,(SIN RÓTULO),0,1,0,0,0.0,0,0,0,0.0,2.065568,0.8,0.0
39.273778,-0.374694,"E.S. MIDES, S.L.",0,1,0,0,0.0,0,0,0,0.0,2.478611,0.8,0.0
39.510472,-0.359528,S2,0,1,0,0,0.0,0,0,0,0.0,6.178036,0.8,0.0
39.427556,-0.682944,(SIN RÓTULO),0,1,0,0,0.0,0,0,0,0.0,8.529786,0.8,0.0
38.9405,-0.360389,CARBURANTS+DEL+CAMP+DE+LLUTXENT,0,1,0,0,0.0,0,0,0,0.0,2.366687,0.8,0.0
39.60875,-0.575583,COOPERATIVA DE BENISANO,0,1,0,0,0.0,0,0,0,0.0,5.815337,0.8,0.0
39.410444,-0.388,COOP.+SAN+PEDRO,0,1,0,0,0.0,0,0,0,0.0,56.715465,0.8,0.0
38.156,-0.889806,GALP,0,1,0,0,0.0,0,0,0,0.0,1.368303,0.8,0.0
38.48825,-0.773306,CARREFOUR,0,1,0,0,0.0,0,0,0,0.0,19.805893,0.8,0.0
38.537389,-0.175167,CARREFOUR,0,1,0,0,0.0,0,0,0,0.0,2.362186,0.8,0.0
39.8155,-0.230278,VCC LA VALL,0,1,0,0,0.0,0,0,0,0.0,1.529012,0.8,0.0
40.361139,0.397111,REPSOL,0,1,0,0,0.0,0,0,0,0.0,0.671327,0.8,0.0
41.802611,-1.256278,REPSOL,0,1,0,0,0.0,0,0,0,0.0,4.460992,0.8,0.0
41.606417,-0.691639,REPSOL,0,1,0,0,0.0,0,0,0,0.0,2.43318,0.8,0.0
41.606806,-0.691167,REPSOL,0,1,0,0,0.0,0,0,0,0.0,2.433058,0.8,0.0
41.738306,-1.076389,REPSOL,0,1,0,0,0.0,0,0,0,0.0,16.974634,0.8,0.0
41.6155,-1.058833,GALP,0,1,0,0,0.0,0,0,0,0.0,30.380511,0.8,0.0
40.1115,-0.740056,GALP,0,1,0,0,0.0,0,0,0,0.0,0.09641,0.8,0.0
41.525889,-0.397806,CEPSA,0,1,0,0,0.0,0,0,0,0.0,17.062848,0.8,0.0
41.52425,-0.395306,CEPSA,0,1,0,0,0.0,0,0,0,0.0,16.798615,0.8,0.0
41.733111,1.526806,BONAREA,0,1,0,0,0.0,0,0,0,0.0,12.320003,0.8,0.0
41.810611,2.531722,BONAREA,0,1,0,0,0.0,0,0,0,0.0,4.69746,0.8,0.0
41.906833,1.193528,BONAREA,0,1,0,0,0.0,0,0,0,0.0,3.763121,0.8,0.0
41.673139,1.263944,BONAREA,0,1,0,0,0.0,0,0,0,0.0,1.532275,0.8,0.0
41.729722,1.513667,(SIN RÓTULO),0,1,0,0,0.0,0,0,0,0.0,1.161331,0.8,0.0
42.299833,2.9405,PETROMIRALLES,0,1,0,0,0.0,0,0,0,0.0,1.847059,0.8,0.0
41.67525,1.26975,PETROLIS INDEPENDENTS,0,1,0,0,0.0,0,0,0,0.0,1.747516,0.8,0.0
41.76,1.197528,BONAREA,0,1,0,0,0.0,0,0,0,0.0,2.184326,0.8,0.0
41.656861,1.079,BONAREA,0,1,0,0,0.0,0,0,0,0.0,2.81968,0.8,0.0
41.782056,1.104639,BONAREA,0,1,0,0,0.0,0,0,0,0.0,1.498155,0.8,0.0
41.679861,0.985389,COOP. IVARS,0,1,0,0,0.0,0,0,0,0.0,12.623895,0.8,0.0
41.797222,2.229722,PETROLIS INDEPENDENTS,0,1,0,0,0.0,0,0,0,0.0,50.174381,0.8,0.0
42.064333,1.312917,ESTACIO SERVEI OLIANA,0,1,0,0,0.0,0,0,0,0.0,1.052276,0.8,0.0
41.536694,1.387667,COPERAL,0,1,0,0,0.0,0,0,0,0.0,1.465999,0.8,0.0
41.640194,2.404694,ESTACIO SERVEI LLINARS,0,1,0,0,0.0,0,0,0,0.0,17.939492,0.8,0.0
42.009639,2.817361,SYM SARRIA,0,1,0,0,0.0,0,0,0,0.0,3.908768,0.8,0.0
41.749833,0.658056,COOPERATIVA SANT ROC,0,1,0,0,0.0,0,0,0,0.0,0.958633,0.8,0.0
41.789361,1.287806,BONAREA,0,1,0,0,0.0,0,0,0,0.0,3.499791,0.8,0.0
41.845083,2.23225,CEPSA,0,1,0,0,0.0,0,0,0,0.0,43.781609,0.8,0.0
41.619722,2.317722,GALP ,0,1,0,0,0.0,0,0,0,0.0,6.017948,0.8,0.0
41.906917,2.853861,REPSOL,0,1,0,0,0.0,0,0,0,0.0,3.532899,0.8,0.0
41.906194,2.853139,REPSOL,0,1,0,0,0.0,0,0,0,0.0,3.525457,0.8,0.0
42.022694,2.591833,REPSOL,0,1,0,0,0.0,0,0,0,0.0,8.077809,0.8,0.0
41.813444,2.738083,REPSOL,0,1,0,0,0.0,0,0,0,0.0,5.089328,0.8,0.0
41.643611,2.518028,CEPSA,0,1,0,0,0.0,0,0,0,0.0,51.624525,0.8,0.0
41.826639,2.94775,REPSOL,0,1,0,0,0.0,0,0,0,0.0,18.004541,0.8,0.0
41.827389,2.946889,REPSOL,0,1,0,0,0.0,0,0,0,0.0,16.323782,0.8,0.0
41.66775,2.7555,GALP,0,1,0,0,0.0,0,0,0,0.0,2.468392,0.8,0.0
41.824,0.568806,PETRONOR,0,1,0,0,0.0,0,0,0,0.0,3.04513,0.8,0.0
41.484778,1.854667,REPSOL,0,1,0,0,0.0,0,0,0,0.0,8.968095,0.8,0.0
41.548806,0.823722,REPSOL,0,1,0,0,0.0,0,0,0,0.0,3.302388,0.8,0.0
42.385833,2.751833,PETROCAT,0,1,0,0,0.0,0,0,0,0.0,1.955016,0.8,0.0
42.462861,1.982889,PETROCAT,0,1,0,0,0.0,0,0,0,0.0,3.349583,0.8,0.0
42.259306,3.046833,GALP,0,1,0,0,0.0,0,0,0,0.0,2.693782,0.8,0.0
41.597778,2.5425,REPSOL,0,1,0,0,0.0,0,0,0,0.0,48.279469,0.8,0.0
41.733222,0.591306,REPSOL,0,1,0,0,0.0,0,0,0,0.0,1.564287,0.8,0.0
37.723667,-1.164889,MOEVE,0,1,0,0,0.0,0,0,0,0.0,2.988257,0.8,0.0
38.098639,-1.237778,REPSOL,0,1,0,0,0.0,0,0,0,0.0,2.700251,0.8,0.0
38.173222,-1.313167,CEPSA,0,1,0,0,0.0,0,0,0,0.0,15.764271,0.8,0.0
38.193944,-1.333444,MOEVE,0,1,0,0,0.0,0,0,0,0.0,2.294865,0.8,0.0
37.74675,-1.123556,EL MARINO,0,1,0,0,0.0,0,0,0,0.0,4.387842,0.8,0.0
38.122417,-1.107611,CEPSA,0,1,0,0,0.0,0,0,0,0.0,8.552814,0.8,0.0
37.885556,-1.360389,BP,0,1,0,0,0.0,0,0,0,0.0,59.684968,0.8,0.0
41.700722,1.793306,REPSOL,0,1,0,0,0.0,0,0,0,0.0,5.545447,0.8,0.0
41.657444,2.450278,REPSOL,0,1,0,0,0.0,0,0,0,0.0,17.123848,0.8,0.0
42.701917,0.793222,REPSOL,0,1,0,0,0.0,0,0,0,0.0,0.498862,0.8,0.0
41.491917,2.333944,REPSOL,0,1,0,0,0.0,0,0,0,0.0,51.327857,0.8,0.0
42.245111,1.9785,REPSOL,0,1,0,0,0.0,0,0,0,0.0,0.142151,0.8,0.0
41.772833,2.739972,REPSOL,0,1,0,0,0.0,0,0,0,0.0,18.489708,0.8,0.0
42.260889,2.950056,PETRONOR,0,1,0,0,0.0,0,0,0,0.0,4.365795,0.8,0.0
41.694667,0.738083,REPSOL,0,1,0,0,0.0,0,0,0,0.0,16.524717,0.8,0.0
42.432667,1.936194,REPSOL,0,1,0,0,0.0,0,0,0,0.0,2.502475,0.8,0.0
41.758083,1.840028,REPSOL,0,1,0,0,0.0,0,0,0,0.0,2.432419,0.8,0.0
41.802306,2.761889,BP HOSTAL DE LA SELVA,0,1,0,0,0.0,0,0,0,0.0,16.327861,0.8,0.0
41.906,2.772139,GALP,0,1,0,0,0.0,0,0,0,0.0,10.584876,0.8,0.0
41.906833,2.773556,GALP,0,1,0,0,0.0,0,0,0,0.0,18.233924,0.8,0.0
42.424306,2.869167,BP,0,1,0,0,0.0,0,0,0,0.0,13.469376,0.8,0.0
42.428333,2.866278,GALP,0,1,0,0,0.0,0,0,0,0.0,2.2073,0.8,0.0
42.711111,0.797083,REPSOL,0,1,0,0,0.0,0,0,0,0.0,1.94376,0.8,0.0
41.643444,0.931306,MOEVE,0,1,0,0,0.0,0,0,0,0.0,12.160272,0.8,0.0
41.670278,0.814167,SHELL - E.S. BELLVIS,0,1,0,0,0.0,0,0,0,0.0,12.709987,0.8,0.0
42.171361,0.895,REPSOL,0,1,0,0,0.0,0,0,0,0.0,0.59928,0.8,0.0
42.005889,1.294306,REPSOL,0,1,0,0,0.0,0,0,0,0.0,3.283094,0.8,0.0
41.578361,1.636806,PETRONOR,0,1,0,0,0.0,0,0,0,0.0,5.000657,0.8,0.0
42.427278,3.158528,CEPSA,0,1,0,0,0.0,0,0,0,0.0,0.559708,0.8,0.0
41.633333,0.823056,REPSOL,0,1,0,0,0.0,0,0,0,0.0,12.957979,0.8,0.0
42.405722,2.874361,GALP,0,1,0,0,0.0,0,0,0,0.0,14.410354,0.8,0.0
41.773139,1.881472,REPSOL,0,1,0,0,0.0,0,0,0,0.0,16.16477,0.8,0.0
42.5045,0.80275,PETRONOR,0,1,0,0,0.0,0,0,0,0.0,0.18808,0.8,0.0
42.136056,1.591778,REPSOL,0,1,0,0,0.0,0,0,0,0.0,0.547784,0.8,0.0
41.671361,0.604722,PETROCAT,0,1,0,0,0.0,0,0,0,0.0,1.307361,0.8,0.0
41.892056,2.731972,BP,0,1,0,0,0.0,0,0,0,0.0,3.646986,0.8,0.0
41.517667,0.619667,REPSOL,0,1,0,0,0.0,0,0,0,0.0,2.163764,0.8,0.0
42.405278,2.87225,REPSOL,0,1,0,0,0.0,0,0,0,0.0,7.992404,0.8,0.0
41.414028,1.962917,REPSOL,0,1,0,0,0.0,0,0,0,0.0,3.105372,0.8,0.0
42.173417,2.930083,REPSOL,0,1,0,0,0.0,0,0,0,0.0,22.58176,0.8,0.0
41.562278,1.967583,REPSOL,0,1,0,0,0.0,0,0,0,0.0,16.951898,0.8,0.0
42.346167,1.833806,REPSOL,0,1,0,0,0.0,0,0,0,0.0,0.548921,0.8,0.0
42.346556,1.832806,REPSOL,0,1,0,0,0.0,0,0,0,0.0,0.546102,0.8,0.0
42.325472,-2.050417,REPSOL,0,1,0,0,0.0,0,0,0,0.0,1.043816,0.8,0.0
42.552444,-2.965306,PETRONOR ,0,1,0,0,0.0,0,0,0,0.0,0.466754,0.8,0.0
42.332556,-3.013222,GALP,0,1,0,0,0.0,0,0,0,0.0,0.803945,0.8,0.0
42.166556,-2.650028,REPSOL,0,1,0,0,0.0,0,0,0,0.0,0.967061,0.8,0.0
42.1785,-1.756417,REPSOL SA,0,1,0,0,0.0,0,0,0,0.0,0.388162,0.8,0.0
42.173639,-2.885722,REPSOL,0,1,0,0,0.0,0,0,0,0.0,1.608655,0.8,0.0
42.571028,-2.761583,PETRONOR,0,1,0,0,0.0,0,0,0,0.0,1.015357,0.8,0.0
42.350472,-2.497278,NALDA,0,1,0,0,0.0,0,0,0,0.0,3.753044,0.8,0.0
42.513222,-2.752889,PETRONOR,0,1,0,0,0.0,0,0,0,0.0,0.498396,0.8,0.0
42.511667,-2.754389,PETRONOR,0,1,0,0,0.0,0,0,0,0.0,0.650677,0.8,0.0
42.439639,-2.935083,CEPSA,0,1,0,0,0.0,0,0,0,0.0,1.870711,0.8,0.0
42.431389,-2.280028,REPSOL,0,1,0,0,0.0,0,0,0,0.0,1.611376,0.8,0.0
42.449778,-2.34325,AVIA,0,1,0,0,0.0,0,0,0,0.0,5.241159,0.8,0.0
42.182778,-1.762083,REPSOL SA,0,1,0,0,0.0,0,0,0,0.0,0.493533,0.8,0.0
42.328528,-2.76075,REPSOL,0,1,0,0,0.0,0,0,0,0.0,0.498306,0.8,0.0
42.213722,-1.990472,REPSOL,0,1,0,0,0.0,0,0,0,0.0,1.201147,0.8,0.0
42.399528,-2.334028,REPSOL,0,1,0,0,0.0,0,0,0,0.0,0.80939,0.8,0.0
42.017139,-1.946889,REPSOL,0,1,0,0,0.0,0,0,0,0.0,0.875421,0.8,0.0
42.483194,-2.652472,PETRONOR,0,1,0,0,0.0,0,0,0,0.0,1.174055,0.8,0.0
42.463111,-2.570389,AVIA,0,1,0,0,0.0,0,0,0,0.0,4.619655,0.8,0.0
42.439667,-2.531139,CEPSA,0,1,0,0,0.0,0,0,0,0.0,9.3665,0.8,0.0
42.135306,3.071111,FLUID,0,1,0,0,0.0,0,0,0,0.0,1.314351,0.8,0.0
42.437111,1.130556,PETROLIS,0,1,0,0,0.0,0,0,0,0.0,0.361719,0.8,0.0
41.907278,1.698917,VILALTA,0,1,0,0,0.0,0,0,0,0.0,5.307787,0.8,0.0
42.3345,3.1995,LA TRAMUNTANA,0,1,0,0,0.0,0,0,0,0.0,0.519483,0.8,0.0
41.781139,2.740917,GALP,0,1,0,0,0.0,0,0,0,0.0,5.319903,0.8,0.0
41.782,1.094528,CEPSA,0,1,0,0,0.0,0,0,0,0.0,3.399539,0.8,0.0
42.433694,3.165944,CEPSA,0,1,0,0,0.0,0,0,0,0.0,0.60213,0.8,0.0
41.721806,2.928333,E.S. TOSSA DE MAR,0,1,0,0,0.0,0,0,0,0.0,2.021041,0.8,0.0
41.636833,1.850222,REPSOL,0,1,0,0,0.0,0,0,0,0.0,5.576895,0.8,0.0
41.647111,1.103222,REPSOL,0,1,0,0,0.0,0,0,0,0.0,11.691253,0.8,0.0
42.365444,3.15075,REPSOL,0,1,0,0,0.0,0,0,0,0.0,0.727472,0.8,0.0
41.811417,2.998861,RIU D'OR,0,1,0,0,0.0,0,0,0,0.0,15.332113,0.8,0.0
41.670972,1.261056,REPSOL,0,1,0,0,0.0,0,0,0,0.0,1.532161,0.8,0.0
41.628667,0.77475,REPSOL,0,1,0,0,0.0,0,0,0,0.0,17.182728,0.8,0.0
41.727667,0.44175,REPSOL,0,1,0,0,0.0,0,0,0,0.0,0.30613,0.8,0.0
41.903861,1.878111,PETROCAT,0,1,0,0,0.0,0,0,0,0.0,15.042302,0.8,0.0
41.99425,1.528528,REPSOL,0,1,0,0,0.0,0,0,0,0.0,2.673425,0.8,0.0
41.817639,2.52,REPSOL,0,1,0,0,0.0,0,0,0,0.0,4.928022,0.8,0.0
41.552611,1.676111,CAMPSA,0,1,0,0,0.0,0,0,0,0.0,18.899154,0.8,0.0
41.92075,1.191222,ONDINA DEL SEGRE,0,1,0,0,0.0,0,0,0,0.0,3.706148,0.8,0.0
41.649944,2.297667,REPSOL,0,1,0,0,0.0,0,0,0,0.0,15.725284,0.8,0.0
42.431667,1.930389,REPSOL,0,1,0,0,0.0,0,0,0,0.0,4.032632,0.8,0.0
41.828833,2.896528,REPSOL,0,1,0,0,0.0,0,0,0,0.0,2.291065,0.8,0.0
42.7495,0.700722,REPSOL,0,1,0,0,0.0,0,0,0,0.0,2.596992,0.8,0.0
41.558861,0.511667,REPSOL,0,1,0,0,0.0,0,0,0,0.0,2.335207,0.8,0.0
41.800639,1.898056,PETRONOR,0,1,0,0,0.0,0,0,0,0.0,14.012777,0.8,0.0
41.553694,2.250167,CAMPSA EXPRESS,0,1,0,0,0.0,0,0,0,0.0,34.752231,0.8,0.0
42.234417,2.290778,REPSOL,0,1,0,0,0.0,0,0,0,0.0,3.160286,0.8,0.0
41.789278,1.287583,REPSOL,0,1,0,0,0.0,0,0,0,0.0,3.499791,0.8,0.0
42.316444,3.063806,PETRONOR,0,1,0,0,0.0,0,0,0,0.0,5.003065,0.8,0.0
41.891611,2.868111,RABELL,0,1,0,0,0.0,0,0,0,0.0,4.385956,0.8,0.0
41.652611,0.393,REPSOL,0,1,0,0,0.0,0,0,0,0.0,0.610927,0.8,0.0
42.4525,0.70925,CAMPSA,0,1,0,0,0.0,0,0,0,0.0,0.676042,0.8,0.0
42.045306,3.117222,REPSOL,0,1,0,0,0.0,0,0,0,0.0,1.989863,0.8,0.0
41.785583,0.829917,CAMPSA EXPRESS,0,1,0,0,0.0,0,0,0,0.0,4.145591,0.8,0.0
41.933361,2.84375,REPSOL,0,1,0,0,0.0,0,0,0,0.0,5.462864,0.8,0.0
41.576111,0.610333,PETRONOR,0,1,0,0,0.0,0,0,0,0.0,6.747009,0.8,0.0
41.551778,2.285083,REPSOL,0,1,0,0,0.0,0,0,0,0.0,6.778334,0.8,0.0
42.304222,2.359167,REPSOL,0,1,0,0,0.0,0,0,0,0.0,1.039313,0.8,0.0
42.832111,0.72975,REPSOL,0,1,0,0,0.0,0,0,0,0.0,2.665488,0.8,0.0
41.668694,1.854167,PETRONOR,0,1,0,0,0.0,0,0,0,0.0,5.809494,0.8,0.0
41.738111,2.266944,REPSOL,0,1,0,0,0.0,0,0,0,0.0,21.680979,0.8,0.0
42.202083,2.691889,REPSOL,0,1,0,0,0.0,0,0,0,0.0,8.584489,0.8,0.0
42.290083,3.276167,REPSOL,0,1,0,0,0.0,0,0,0,0.0,2.54689,0.8,0.0
41.745944,2.627472,REPSOL,0,1,0,0,0.0,0,0,0,0.0,7.816126,0.8,0.0
41.617056,1.399639,LA PANADELLA,0,1,0,0,0.0,0,0,0,0.0,1.214631,0.8,0.0
41.61775,1.399361,LA PANADELLA,0,1,0,0,0.0,0,0,0,0.0,1.21311,0.8,0.0
41.468806,0.421056,SEROIL ENERGY,0,1,0,0,0.0,0,0,0,0.0,0.973985,0.8,0.0
41.966806,2.62525,REPSOL,0,1,0,0,0.0,0,0,0,0.0,6.38329,0.8,0.0
41.878333,2.505806,BP,0,1,0,0,0.0,0,0,0,0.0,6.224424,0.8,0.0
41.566139,2.519556,REPSOL,0,1,0,0,0.0,0,0,0,0.0,18.066796,0.8,0.0
41.544528,0.475611,REPSOL,0,1,0,0,0.0,0,0,0,0.0,2.002968,0.8,0.0
41.632389,1.007167,REPSOL,0,1,0,0,0.0,0,0,0,0.0,1.617161,0.8,0.0
41.827361,1.756083,REPSOL,0,1,0,0,0.0,0,0,0,0.0,2.183119,0.8,0.0
41.984917,2.09725,PETRONOR,0,1,0,0,0.0,0,0,0,0.0,1.499715,0.8,0.0
41.587917,2.179667,REPSOL,0,1,0,0,0.0,0,0,0,0.0,17.901228,0.8,0.0
42.025278,2.983472,REPSOL,0,1,0,0,0.0,0,0,0,0.0,2.438538,0.8,0.0
41.645,2.231306,BP SANTA EULALIA DE RONÇANA,0,1,0,0,0.0,0,0,0,0.0,6.348813,0.8,0.0
42.016639,1.884444,REPSOL,0,1,0,0,0.0,0,0,0,0.0,2.375812,0.8,0.0
42.086583,2.888639,REPSOL,0,1,0,0,0.0,0,0,0,0.0,2.296635,0.8,0.0
42.286806,2.160667,REPSOL,0,1,0,0,0.0,0,0,0,0.0,0.26882,0.8,0.0
42.368306,1.845528,REPSOL,0,1,0,0,0.0,0,0,0,0.0,0.230826,0.8,0.0
41.917028,2.791306,REPSOL,0,1,0,0,0.0,0,0,0,0.0,20.2061,0.8,0.0
41.845,2.233278,CEPSA,0,1,0,0,0.0,0,0,0,0.0,45.233691,0.8,0.0
41.669083,2.715556,CEPSA,0,1,0,0,0.0,0,0,0,0.0,27.49589,0.8,0.0
41.514889,2.413139,REPSOL,0,1,0,0,0.0,0,0,0,0.0,15.193898,0.8,0.0
42.399056,2.8805,REPSOL,0,1,0,0,0.0,0,0,0,0.0,1.65896,0.8,0.0
41.661556,1.198583,REPSOL,0,1,0,0,0.0,0,0,0,0.0,11.397524,0.8,0.0
41.478917,1.883722,REPSOL,0,1,0,0,0.0,0,0,0,0.0,11.744143,0.8,0.0
41.745028,1.578861,REPSOL,0,1,0,0,0.0,0,0,0,0.0,15.141379,0.8,0.0
41.745833,1.580083,REPSOL,0,1,0,0,0.0,0,0,0,0.0,16.268297,0.8,0.0
42.398417,2.882667,REPSOL,0,1,0,0,0.0,0,0,0,0.0,1.65461,0.8,0.0
42.820447,0.714372,ESTACION BOYA,0,1,0,0,0.0,0,0,0,0.0,2.492767,0.8,0.0
41.638722,0.87425,REPSOL,0,1,0,0,0.0,0,0,0,0.0,13.47694,0.8,0.0
41.618806,1.509722,REPSOL,0,1,0,0,0.0,0,0,0,0.0,10.906715,0.8,0.0
41.933278,2.193306,MOEVE,0,1,0,0,0.0,0,0,0,0.0,3.949345,0.8,0.0
41.93425,2.194306,MOEVE,0,1,0,0,0.0,0,0,0,0.0,4.456993,0.8,0.0
42.172722,1.320417,ES COLL DE NARGÓ,0,1,0,0,0.0,0,0,0,0.0,1.527582,0.8,0.0
42.427056,2.866833,MOEVE,0,1,0,0,0.0,0,0,0,0.0,2.164539,0.8,0.0
42.404278,0.742583,CEPSA,0,1,0,0,0.0,0,0,0,0.0,1.137912,0.8,0.0
41.867472,1.972389,E.S.  AVINYÓ   -CEPSA-,0,1,0,0,0.0,0,0,0,0.0,20.238338,0.8,0.0
41.809306,2.102139,MOEVE,0,1,0,0,0.0,0,0,0,0.0,4.395794,0.8,0.0
42.071,3.093861,FULL  ENERGY BELLCAIRE D'EMPORDA,0,1,0,0,0.0,0,0,0,0.0,1.035784,0.8,0.0
41.893444,3.144028,PETROLIS INDEPENDENTS,0,1,0,0,0.0,0,0,0,0.0,6.570485,0.8,0.0
42.064694,3.049528,CEPSA,0,1,0,0,0.0,0,0,0,0.0,2.300706,0.8,0.0
42.223528,1.872722,"ESTACIÓ SERRA CADI, S.L.",0,1,0,0,0.0,0,0,0,0.0,0.386664,0.8,0.0
40.81,-3.7705,EDV,0,1,0,0,0.0,0,0,0,0.0,1.24485,0.8,0.0
40.242639,-3.319472,TIELMES S.L.,0,1,0,0,0.0,0,0,0,0.0,7.621482,0.8,0.0
40.40725,-3.36975,SHELL,0,1,0,0,0.0,0,0,0,0.0,7.635622,0.8,0.0
40.302222,-4.088111,BP VILLAMANTA,0,1,0,0,0.0,0,0,0,0.0,9.118925,0.8,0.0
41.493028,2.333917,REPSOL,0,1,0,0,0.0,0,0,0,0.0,51.68379,0.8,0.0
42.238306,0.965278,MOEVE,0,1,0,0,0.0,0,0,0,0.0,0.397746,0.8,0.0
42.60875,1.126333,MOEVE,0,1,0,0,0.0,0,0,0,0.0,0.437329,0.8,0.0
41.732306,2.600333,CEPSA,0,1,0,0,0.0,0,0,0,0.0,7.48745,0.8,0.0
41.725667,2.672917,MOEVE,0,1,0,0,0.0,0,0,0,0.0,32.907618,0.8,0.0
41.95825,2.649083,CEPSA,0,1,0,0,0.0,0,0,0,0.0,6.141003,0.8,0.0
41.852806,2.77375,ZONA DIESEL,0,1,0,0,0.0,0,0,0,0.0,17.599572,0.8,0.0
41.647972,2.425611,GALP,0,1,0,0,0.0,0,0,0,0.0,57.454618,0.8,0.0
41.646806,2.425667,GALP,0,1,0,0,0.0,0,0,0,0.0,60.64903,0.8,0.0
41.686028,2.443667,MOEVE,0,1,0,0,0.0,0,0,0,0.0,6.0302,0.8,0.0
41.567917,1.801722,GALP,0,1,0,0,0.0,0,0,0,0.0,20.383961,0.8,0.0
42.126444,2.922361,MLC,0,1,0,0,0.0,0,0,0,0.0,0.952229,0.8,0.0
41.861222,2.884944,PLENERGY,0,1,0,0,0.0,0,0,0,0.0,5.375586,0.8,0.0
41.757583,2.756778,LOW COST FUEL,0,1,0,0,0.0,0,0,0,0.0,5.659243,0.8,0.0
41.757222,2.75725,LOW COST FUEL,0,1,0,0,0.0,0,0,0,0.0,5.663057,0.8,0.0
42.397861,2.880528,GALP,0,1,0,0,0.0,0,0,0,0.0,1.65507,0.8,0.0
41.774389,2.738889,CEPSA,0,1,0,0,0.0,0,0,0,0.0,30.198229,0.8,0.0
41.896889,2.810833,TAMOIL,0,1,0,0,0.0,0,0,0,0.0,3.07044,0.8,0.0
41.607944,2.604917,GALP,0,1,0,0,0.0,0,0,0,0.0,38.015779,0.8,0.0
42.173833,2.931806,CEPSA,0,1,0,0,0.0,0,0,0,0.0,21.930681,0.8,0.0
41.487417,0.8655,GALP,0,1,0,0,0.0,0,0,0,0.0,8.843442,0.8,0.0
41.489389,0.8655,GALP,0,1,0,0,0.0,0,0,0,0.0,8.68201,0.8,0.0
41.543361,0.637222,VALCARCE,0,1,0,0,0.0,0,0,0,0.0,9.479203,0.8,0.0
41.541306,0.639222,VALCARCE,0,1,0,0,0.0,0,0,0,0.0,9.682901,0.8,0.0
41.079389,1.062528,ESCLATOIL,0,1,0,0,0.0,0,0,0,0.0,16.191917,0.8,0.0
40.239056,-3.995528,BP DUALEZ 365,0,1,0,0,0.0,0,0,0,0.0,6.077356,0.8,0.0
40.383167,-4.240833,GALP,0,1,0,0,0.0,0,0,0,0.0,0.341855,0.8,0.0
40.084139,-3.112889,SHELL,0,1,0,0,0.0,0,0,0,0.0,23.67092,0.8,0.0
40.189444,-3.112278,BLANCA,0,1,0,0,0.0,0,0,0,0.0,11.798738,0.8,0.0
40.955389,-3.784111,REPSOL,0,1,0,0,0.0,0,0,0,0.0,1.332879,0.8,0.0
40.955028,-3.783861,REPSOL,0,1,0,0,0.0,0,0,0,0.0,1.333169,0.8,0.0
40.526722,-3.481556,REPSOL,0,1,0,0,0.0,0,0,0,0.0,4.292061,0.8,0.0
40.528028,-3.480944,REPSOL,0,1,0,0,0.0,0,0,0,0.0,4.29097,0.8,0.0
40.717528,-3.791778,BP SOTO I,0,1,0,0,0.0,0,0,0,0.0,6.479564,0.8,0.0
40.904694,-3.608389,REPSOL,0,1,0,0,0.0,0,0,0,0.0,15.554065,0.8,0.0
40.446528,-3.36175,GALP,0,1,0,0,0.0,0,0,0,0.0,6.333201,0.8,0.0
40.439139,-3.316472,BP VILLALBILLA,0,1,0,0,0.0,0,0,0,0.0,5.902417,0.8,0.0
40.578306,-3.508083,ENI,0,1,0,0,0.0,0,0,0,0.0,2.170019,0.8,0.0
40.166778,-3.286111,MOEVE,0,1,0,0,0.0,0,0,0,0.0,17.76198,0.8,0.0
40.814278,-3.760639,MOEVE,0,1,0,0,0.0,0,0,0,0.0,1.288267,0.8,0.0
40.188056,-3.764389,GALP,0,1,0,0,0.0,0,0,0,0.0,10.007746,0.8,0.0
40.182444,-3.725222,MOEVE,0,1,0,0,0.0,0,0,0,0.0,10.360663,0.8,0.0
40.331278,-3.403472,REPSOL,0,1,0,0,0.0,0,0,0,0.0,4.133021,0.8,0.0
40.245167,-3.480556,PETRONOR,0,1,0,0,0.0,0,0,0,0.0,9.404516,0.8,0.0
40.170889,-3.82175,REPSOL,0,1,0,0,0.0,0,0,0,0.0,34.181018,0.8,0.0
40.365083,-4.314778,REPSOL ,0,1,0,0,0.0,0,0,0,0.0,0.389667,0.8,0.0
40.249833,-3.350278,BP A3 PERALES DE TAJUNA,0,1,0,0,0.0,0,0,0,0.0,25.73327,0.8,0.0
40.147111,-3.428417,CEPSA,0,1,0,0,0.0,0,0,0,0.0,8.940299,0.8,0.0
40.822111,-3.537556,REPSOL,0,1,0,0,0.0,0,0,0,0.0,0.328491,0.8,0.0
40.282778,-3.20725,REPSOL,0,1,0,0,0.0,0,0,0,0.0,3.466023,0.8,0.0
40.405056,-3.141111,REPSOL,0,1,0,0,0.0,0,0,0,0.0,4.264677,0.8,0.0
40.10075,-3.490083,REPSOL,0,1,0,0,0.0,0,0,0,0.0,13.058843,0.8,0.0
40.203472,-3.798917,MOEVE,0,1,0,0,0.0,0,0,0,0.0,9.324923,0.8,0.0
40.203083,-3.798556,MOEVE,0,1,0,0,0.0,0,0,0,0.0,9.308006,0.8,0.0
41.246278,1.58575,GM FUEL STATIONS,0,1,0,0,0.0,0,0,0,0.0,2.519933,0.8,0.0
41.012444,0.611083,REPSOL,0,1,0,0,0.0,0,0,0,0.0,0.8817,0.8,0.0
41.263889,0.904917,REPSOL,0,1,0,0,0.0,0,0,0,0.0,0.530416,0.8,0.0
41.047806,0.729667,REPSOL,0,1,0,0,0.0,0,0,0,0.0,1.084107,0.8,0.0
41.192278,1.000139,REPSOL,0,1,0,0,0.0,0,0,0,0.0,0.873647,0.8,0.0
41.279028,1.496139,REPSOL,0,1,0,0,0.0,0,0,0,0.0,2.357192,0.8,0.0
41.180833,0.593444,PETRONOR,0,1,0,0,0.0,0,0,0,0.0,0.430211,0.8,0.0
41.186194,1.219806,REPSOL,0,1,0,0,0.0,0,0,0,0.0,0.955626,0.8,0.0
41.970861,3.030917,GALP,0,1,0,0,0.0,0,0,0,0.0,2.542813,0.8,0.0
41.173583,1.238722,FRANCAS ENERGY,0,1,0,0,0.0,0,0,0,0.0,4.679688,0.8,0.0
41.192972,1.20175,PETRONOR,0,1,0,0,0.0,0,0,0,0.0,7.442917,0.8,0.0
41.235389,1.56575,REPSOL,0,1,0,0,0.0,0,0,0,0.0,2.311234,0.8,0.0
41.0795,0.661917,REPSOL,0,1,0,0,0.0,0,0,0,0.0,0.573218,0.8,0.0
41.313083,0.986667,PETRONOR,0,1,0,0,0.0,0,0,0,0.0,0.521135,0.8,0.0
41.177944,1.490806,REPSOL,0,1,0,0,0.0,0,0,0,0.0,3.685342,0.8,0.0
41.020139,0.82725,ALAS,0,1,0,0,0.0,0,0,0,0.0,2.014954,0.8,0.0
40.587778,0.44275,PETRONOR,0,1,0,0,0.0,0,0,0,0.0,0.592408,0.8,0.0
41.165361,1.030028,REPSOL,0,1,0,0,0.0,0,0,0,0.0,2.362515,0.8,0.0
41.361694,1.299389,REPSOL,0,1,0,0,0.0,0,0,0,0.0,1.533742,0.8,0.0
40.547806,0.478056,PETRONOR,0,1,0,0,0.0,0,0,0,0.0,0.374792,0.8,0.0
40.887472,0.798917,CEPSA,0,1,0,0,0.0,0,0,0,0.0,6.415441,0.8,0.0
40.905389,0.484917,REPSOL,0,1,0,0,0.0,0,0,0,0.0,0.505176,0.8,0.0
41.109722,0.535528,PETRONOR,0,1,0,0,0.0,0,0,0,0.0,1.692948,0.8,0.0
40.896611,0.747833,REPSOL,0,1,0,0,0.0,0,0,0,0.0,2.184213,0.8,0.0
41.289444,1.589944,REPSOL,0,1,0,0,0.0,0,0,0,0.0,40.266101,0.8,0.0
41.053694,0.43625,REPSOL,0,1,0,0,0.0,0,0,0,0.0,0.18358,0.8,0.0
41.262361,1.494167,SHELL,0,1,0,0,0.0,0,0,0,0.0,3.823164,0.8,0.0
41.148194,1.214861,CEPSA,0,1,0,0,0.0,0,0,0,0.0,1.992524,0.8,0.0
41.143472,0.816222,REPSOL,0,1,0,0,0.0,0,0,0,0.0,0.39375,0.8,0.0
41.374361,1.164611,REPSOL,0,1,0,0,0.0,0,0,0,0.0,0.924984,0.8,0.0
40.949722,0.855917,REPSOL,0,1,0,0,0.0,0,0,0,0.0,6.074482,0.8,0.0
41.22175,0.547722,REPSOL,0,1,0,0,0.0,0,0,0,0.0,0.461054,0.8,0.0
41.189361,1.242806,REPSOL,0,1,0,0,0.0,0,0,0,0.0,4.374712,0.8,0.0
41.093722,0.647917,REPSOL,0,1,0,0,0.0,0,0,0,0.0,0.538199,0.8,0.0
40.634667,0.284361,PETRONOR,0,1,0,0,0.0,0,0,0,0.0,0.412169,0.8,0.0
41.457917,1.178556,REPSOL,0,1,0,0,0.0,0,0,0,0.0,1.458998,0.8,0.0
41.289778,1.351222,CAMPSA,0,1,0,0,0.0,0,0,0,0.0,2.293276,0.8,0.0
40.787444,0.671,PETROCAT DIRECTE,0,1,0,0,0.0,0,0,0,0.0,6.041009,0.8,0.0
41.203556,1.145528,CEPSA,0,1,0,0,0.0,0,0,0,0.0,10.58066,0.8,0.0
40.744194,0.61475,CEPSA,0,1,0,0,0.0,0,0,0,0.0,2.010412,0.8,0.0
41.236278,1.544361,MOEVE,0,1,0,0,0.0,0,0,0,0.0,3.216134,0.8,0.0
41.285889,1.618583,MOEVE,0,1,0,0,0.0,0,0,0,0.0,2.414228,0.8,0.0
40.700972,0.716667,CEPSA,0,1,0,0,0.0,0,0,0,0.0,0.923405,0.8,0.0
40.837611,0.7115,GALP,0,1,0,0,0.0,0,0,0,0.0,1.797895,0.8,0.0
41.256167,1.169056,ICOR ENERGIA,0,1,0,0,0.0,0,0,0,0.0,6.838905,0.8,0.0
40.959333,0.498556,TAMOIL,0,1,0,0,0.0,0,0,0,0.0,0.59067,0.8,0.0
41.275472,1.592806,TAMOIL,0,1,0,0,0.0,0,0,0,0.0,4.71094,0.8,0.0
40.539583,0.471889,TAMOIL,0,1,0,0,0.0,0,0,0,0.0,0.337932,0.8,0.0
41.287889,1.411861,GALP,0,1,0,0,0.0,0,0,0,0.0,8.768511,0.8,0.0
41.387222,1.191306,CEPSA,0,1,0,0,0.0,0,0,0,0.0,6.972642,0.8,0.0
41.388056,1.187806,CEPSA,0,1,0,0,0.0,0,0,0,0.0,6.984452,0.8,0.0
41.286361,1.414278,GALP,0,1,0,0,0.0,0,0,0,0.0,9.896856,0.8,0.0
40.765028,0.626222,ENI,0,1,0,0,0.0,0,0,0,0.0,15.320125,0.8,0.0
40.764778,0.628861,ENI,0,1,0,0,0.0,0,0,0,0.0,15.533572,0.8,0.0
41.205778,1.207444,ICOR ENERGIA,0,1,0,0,0.0,0,0,0,0.0,9.504115,0.8,0.0
40.762278,0.64125,REPSOL,0,1,0,0,0.0,0,0,0,0.0,5.880622,0.8,0.0
41.17025,1.318528,PETROLIS DE BARCELONA S.A,0,1,0,0,0.0,0,0,0,0.0,1.875265,0.8,0.0
40.985472,0.897139,ENI,0,1,0,0,0.0,0,0,0,0.0,14.273084,0.8,0.0
40.985694,0.893722,ENI,0,1,0,0,0.0,0,0,0,0.0,15.473288,0.8,0.0
39.390528,-0.698972,LA BARONIA DE TURIS COOP V,0,1,0,0,0.0,0,0,0,0.0,2.407097,0.8,0.0
39.045972,-0.310944,GASOPOTENZ,0,1,0,0,0.0,0,0,0,0.0,3.178536,0.8,0.0
38.715917,-0.664056,REPSOL,0,1,0,0,0.0,0,0,0,0.0,1.191321,0.8,0.0
38.493361,-0.780417,CEPSA,0,1,0,0,0.0,0,0,0,0.0,17.252148,0.8,0.0
38.339222,-0.998222,CEPSA,0,1,0,0,0.0,0,0,0,0.0,0.661588,0.8,0.0
38.369306,-0.704611,MOEVE,0,1,0,0,0.0,0,0,0,0.0,26.378347,0.8,0.0
38.369833,-0.704556,MOEVE,0,1,0,0,0.0,0,0,0,0.0,26.331525,0.8,0.0
38.534028,-0.505083,CEPSA,0,1,0,0,0.0,0,0,0,0.0,1.490783,0.8,0.0
38.474472,-0.771,CEPSA,0,1,0,0,0.0,0,0,0,0.0,16.357149,0.8,0.0
38.140889,-0.748556,CEPSA,0,1,0,0,0.0,0,0,0,0.0,1.957978,0.8,0.0
38.059194,-0.885222,REPSOL,0,1,0,0,0.0,0,0,0,0.0,2.077045,0.8,0.0
38.800111,0.038889,REPSOL,0,1,0,0,0.0,0,0,0,0.0,2.885972,0.8,0.0
38.630583,-0.786556,REPSOL,0,1,0,0,0.0,0,0,0,0.0,2.167484,0.8,0.0
38.626278,-0.6815,EL CANARI ONIL,0,1,0,0,0.0,0,0,0,0.0,1.427707,0.8,0.0
38.029472,-0.730944,REPSOL,0,1,0,0,0.0,0,0,0,0.0,1.138501,0.8,0.0
40.604417,0.348917,REPSOL,0,1,0,0,0.0,0,0,0,0.0,2.409815,0.8,0.0
39.758889,-0.227583,E.S. ALMENARA,0,1,0,0,0.0,0,0,0,0.0,11.737615,0.8,0.0
40.091611,0.13175,GALP,0,1,0,0,0.0,0,0,0,0.0,4.306456,0.8,0.0
37.990083,-0.799444,GLOBAL OIL,0,1,0,0,0.0,0,0,0,0.0,2.40024,0.8,0.0
40.064833,-0.528583,CARLA,0,1,0,0,0.0,0,0,0,0.0,0.549134,0.8,0.0
40.014278,-0.125833,GALP,0,1,0,0,0.0,0,0,0,0.0,3.784838,0.8,0.0
40.041778,-0.073722,REPSOL,0,1,0,0,0.0,0,0,0,0.0,11.580022,0.8,0.0
39.923194,-0.184611,GALP,0,1,0,0,0.0,0,0,0,0.0,1.556085,0.8,0.0
39.910833,-0.7035,GRUPO MAICAS PEIRO,0,1,0,0,0.0,0,0,0,0.0,0.499079,0.8,0.0
39.810333,-0.1525,BP MONCOFAR,0,1,0,0,0.0,0,0,0,0.0,8.435026,0.8,0.0
39.847806,-0.493972,GALP,0,1,0,0,0.0,0,0,0,0.0,1.143565,0.8,0.0
39.795694,-0.181361,AMERICAN PETROL,0,1,0,0,0.0,0,0,0,0.0,1.408992,0.8,0.0
39.778583,-0.180722,GALP,0,1,0,0,0.0,0,0,0,0.0,1.40904,0.8,0.0
40.016528,-0.696306,CEPSA,0,1,0,0,0.0,0,0,0,0.0,1.392753,0.8,0.0
39.8245,-0.212722,RANDERO,0,1,0,0,0.0,0,0,0,0.0,14.590906,0.8,0.0
38.139722,-0.774889,REPSOL,0,1,0,0,0.0,0,0,0,0.0,3.073816,0.8,0.0
39.891083,-0.251139,SIN ROTULO,0,1,0,0,0.0,0,0,0,0.0,2.080301,0.8,0.0
39.84175,-0.475833,PETRONOR,0,1,0,0,0.0,0,0,0,0.0,0.886903,0.8,0.0
40.458194,0.179944,REPSOL,0,1,0,0,0.0,0,0,0,0.0,0.667725,0.8,0.0
40.186583,0.044556,REPSOL,0,1,0,0,0.0,0,0,0,0.0,8.777266,0.8,0.0
40.192639,-0.045389,REPSOL,0,1,0,0,0.0,0,0,0,0.0,4.818655,0.8,0.0
38.310167,-0.849528,REPSOL,0,1,0,0,0.0,0,0,0,0.0,0.560445,0.8,0.0
38.771694,-0.06225,GASORBA,0,1,0,0,0.0,0,0,0,0.0,1.110346,0.8,0.0
38.076944,-0.843056,REPSOL,0,1,0,0,0.0,0,0,0,0.0,1.830867,0.8,0.0
38.147139,-0.889278,REPSOL,0,1,0,0,0.0,0,0,0,0.0,1.35384,0.8,0.0
40.135528,-0.280583,LUCENA,0,1,0,0,0.0,0,0,0,0.0,3.17878,0.8,0.0
40.219417,-0.170611,COOPERATIVA ATZENETA,0,1,0,0,0.0,0,0,0,0.0,2.311306,0.8,0.0
38.387917,-0.736806,BP,0,1,0,0,0.0,0,0,0,0.0,23.818185,0.8,0.0
38.82825,0.01475,REPSOL,0,1,0,0,0.0,0,0,0,0.0,1.024186,0.8,0.0
40.222083,0.201056,REPSOL,0,1,0,0,0.0,0,0,0,0.0,1.849033,0.8,0.0
40.221889,0.201167,REPSOL,0,1,0,0,0.0,0,0,0,0.0,1.566611,0.8,0.0
39.822556,-0.221278,BP VALL D'UXO,0,1,0,0,0.0,0,0,0,0.0,1.633275,0.8,0.0
39.849972,-0.486611,Q8,0,1,0,0,0.0,0,0,0,0.0,1.113414,0.8,0.0
39.818583,-0.233306,BP EL PONT,0,1,0,0,0.0,0,0,0,0.0,1.525404,0.8,0.0
40.609611,-0.094556,PETRONOR,0,1,0,0,0.0,0,0,0,0.0,1.818386,0.8,0.0
40.359972,0.3035,ES ZARAGOZA,0,1,0,0,0.0,0,0,0,0.0,1.872809,0.8,0.0
39.782917,-0.39375,REPSOL,0,1,0,0,0.0,0,0,0,0.0,2.254697,0.8,0.0
40.296944,0.226333,REPSOL,0,1,0,0,0.0,0,0,0,0.0,2.400603,0.8,0.0
38.402472,-1.046806,REPSOL,0,1,0,0,0.0,0,0,0,0.0,0.635075,0.8,0.0
40.514889,0.254639,E.S. BALMAPA,0,1,0,0,0.0,0,0,0,0.0,3.213342,0.8,0.0
38.720111,-0.671194,CEPSA,0,1,0,0,0.0,0,0,0,0.0,1.20352,0.8,0.0
39.897861,-0.120778,CEPSA,0,1,0,0,0.0,0,0,0,0.0,4.220536,0.8,0.0
39.897667,-0.121306,CEPSA,0,1,0,0,0.0,0,0,0,0.0,6.630734,0.8,0.0
38.6495,-0.121194,REPSOL,0,1,0,0,0.0,0,0,0,0.0,1.344031,0.8,0.0
39.827833,-0.22525,BP,0,1,0,0,0.0,0,0,0,0.0,1.527214,0.8,0.0
40.342611,-0.006333,CAMPSA,0,1,0,0,0.0,0,0,0,0.0,0.647882,0.8,0.0
39.931306,-0.196389,PETRONOR,0,1,0,0,0.0,0,0,0,0.0,1.556085,0.8,0.0
40.307222,0.115194,REPSOL,0,1,0,0,0.0,0,0,0,0.0,3.125022,0.8,0.0
38.434417,-0.63725,PETRONOR,0,1,0,0,0.0,0,0,0,0.0,1.258475,0.8,0.0
38.175028,-0.854056,REPSOL,0,1,0,0,0.0,0,0,0,0.0,10.715601,0.8,0.0
38.538722,-0.172889,REPSOL,0,1,0,0,0.0,0,0,0,0.0,2.362813,0.8,0.0
40.040972,-0.152139,REPSOL,0,1,0,0,0.0,0,0,0,0.0,3.274236,0.8,0.0
38.143889,-0.898861,BP COX,0,1,0,0,0.0,0,0,0,0.0,19.291728,0.8,0.0
38.792028,0.06275,GALP,0,1,0,0,0.0,0,0,0,0.0,6.819967,0.8,0.0
40.131806,0.138722,ENI,0,1,0,0,0.0,1,1,200,39.6945,3.614558,0.8,0.0
39.912361,-0.564389,SHELL,0,1,0,0,0.0,0,0,0,0.0,0.092879,0.8,0.0
40.13325,0.141111,ENI,0,1,0,0,0.0,0,0,0,0.0,2.394494,0.8,0.0
38.789861,0.063417,GALP,0,1,0,0,0.0,0,0,0,0.0,1.053722,0.8,0.0
38.736056,-0.661167,BP,0,1,0,0,0.0,0,0,0,0.0,2.832349,0.8,0.0
38.885667,-0.58,LIBRE,0,1,0,0,0.0,0,0,0,0.0,11.977065,0.8,0.0
38.88525,-0.576583,REPSOL,0,1,0,0,0.0,0,0,0,0.0,12.635639,0.8,0.0
39.555611,-0.486917,GALP,0,1,0,0,0.0,0,0,0,0.0,51.103368,0.8,0.0
39.525889,-1.437167,GALP,0,1,0,0,0.0,0,0,0,0.0,5.999537,0.8,0.0
38.936,-0.148778,Q8,0,1,0,0,0.0,0,0,0,0.0,1.127146,0.8,0.0
39.031444,-0.65575,"HNOS. FRIGOLS LILA, S.L.",0,1,0,0,0.0,0,0,0,0.0,2.106502,0.8,0.0
39.203167,-0.391306,STARMA,0,1,0,0,0.0,0,0,0,0.0,1.621373,0.8,0.0
39.572167,-0.624333,REPSOL,0,1,0,0,0.0,0,0,0,0.0,9.628591,0.8,0.0
38.889333,-0.20875,E.S. VILLALONGA,0,1,0,0,0.0,0,0,0,0.0,1.177493,0.8,0.0
39.021444,-0.426361,BP,0,1,0,0,0.0,0,0,0,0.0,3.315707,0.8,0.0
38.974333,-0.592528,REPSOL,0,1,0,0,0.0,0,0,0,0.0,11.502392,0.8,0.0
39.375417,-0.563167,REPSOL,0,1,0,0,0.0,0,0,0,0.0,3.660229,0.8,0.0
38.90225,-0.419972,CEPSA-MOEVE,0,1,0,0,0.0,0,0,0,0.0,1.085318,0.8,0.0
38.934278,-0.211583,REPSOL,0,1,0,0,0.0,0,0,0,0.0,1.263072,0.8,0.0
39.289361,-0.514444,BAR / E.S. ALTAMAR J.A.,0,1,0,0,0.0,0,0,0,0.0,4.809608,0.8,0.0
38.929444,-0.662611,REPSOL,0,1,0,0,0.0,0,0,0,0.0,10.189986,0.8,0.0
40.127028,-1.249028,REPSOL,0,1,0,0,0.0,0,0,0,0.0,0.764628,0.8,0.0
38.900611,-0.688111,PETRONOR,0,1,0,0,0.0,0,0,0,0.0,10.142129,0.8,0.0
39.673722,-0.559417,PETROMAX,0,1,0,0,0.0,0,0,0,0.0,12.631749,0.8,0.0
39.366972,-0.434,CEPSA,0,1,0,0,0.0,0,0,0,0.0,10.00589,0.8,0.0
39.536889,-0.309556,REPSOL,0,1,0,0,0.0,0,0,0,0.0,29.042459,0.8,0.0
39.394194,-0.782861,REPSOL,0,1,0,0,0.0,0,0,0,0.0,1.096417,0.8,0.0
39.430472,-0.777972,REPSOL,0,1,0,0,0.0,0,0,0,0.0,1.668531,0.8,0.0
39.444778,-0.754528,REPSOL,0,1,0,0,0.0,0,0,0,0.0,12.202199,0.8,0.0
39.585194,-0.286944,GASPUIG,0,1,0,0,0.0,0,0,0,0.0,23.407303,0.8,0.0
39.366917,-0.434,CEPSA,0,1,0,0,0.0,0,0,0,0.0,10.005638,0.8,0.0
38.922667,-0.269444,REPSOL,0,1,0,0,0.0,0,0,0,0.0,11.400682,0.8,0.0
39.38925,-0.696694,AS TURÍS,0,1,0,0,0.0,0,0,0,0.0,2.40866,0.8,0.0
39.076389,-0.508222,REPSOL,0,1,0,0,0.0,0,0,0,0.0,7.754908,0.8,0.0
39.723833,-1.236806,MANCEBO,0,1,0,0,0.0,0,0,0,0.0,1.059435,0.8,0.0
39.587389,-0.299083,BP EL PUIG,0,1,0,0,0.0,0,0,0,0.0,21.670968,0.8,0.0
38.938806,-0.151194,REPSOL,0,1,0,0,0.0,0,0,0,0.0,1.114439,0.8,0.0
39.101361,-0.695528,ROS,0,1,0,0,0.0,0,0,0,0.0,4.668575,0.8,0.0
39.530194,-0.313083,REPSOL,0,1,0,0,0.0,0,0,0,0.0,39.613532,0.8,0.0
39.588778,-0.328778,BP RAFELBUNYOL GRUPO MAICAS,0,1,0,0,0.0,0,0,0,0.0,2.751344,0.8,0.0
39.563972,-0.334139,REPSOL,0,1,0,0,0.0,0,0,0,0.0,10.817679,0.8,0.0
38.878611,-0.754167,REPSOL,0,1,0,0,0.0,1,2,250,24.7987,10.038181,0.8,0.0
39.678972,-0.216972,AVIA,0,1,0,0,0.0,0,0,0,0.0,2.40155,0.8,0.0
39.358556,-0.594389,BP CHASAN CAMPOS MONTSERRAT,0,1,0,0,0.0,0,0,0,0.0,3.283581,0.8,0.0
39.425028,-0.680722,GALP,0,1,0,0,0.0,0,0,0,0.0,8.456131,0.8,0.0
38.934083,-0.183389,BENIARJO,0,1,0,0,0.0,0,0,0,0.0,1.197228,0.8,0.0
38.909667,-0.302778,BP,0,1,0,0,0.0,0,0,0,0.0,12.873963,0.8,0.0
39.539472,-0.306528,SHELL,0,1,0,0,0.0,0,0,0,0.0,28.691053,0.8,0.0
39.558389,-0.338083,BALLENOIL,0,1,0,0,0.0,0,0,0,0.0,4.616014,0.8,0.0
39.679778,-0.207611,REPSOL,0,1,0,0,0.0,0,0,0,0.0,1.922277,0.8,0.0
39.528806,-1.433389,GALP,0,1,0,0,0.0,0,0,0,0.0,4.764988,0.8,0.0
38.919306,-0.167611,GALP,0,1,0,0,0.0,0,0,0,0.0,1.450367,0.8,0.0
39.013556,-0.646083,ANNA,0,1,0,0,0.0,0,0,0,0.0,2.106499,0.8,0.0
39.559972,-0.495917,BP  MARIOLA,0,1,0,0,0.0,0,0,0,0.0,47.441891,0.8,0.0
39.059722,-1.053306,REPSOL,0,1,0,0,0.0,0,0,0,0.0,1.657637,0.8,0.0
38.982,-0.687639,REPSOL,0,1,0,0,0.0,0,0,0,0.0,1.588642,0.8,0.0
39.409944,-0.380306,BP CARY II,0,1,0,0,0.0,0,0,0,0.0,60.49511,0.8,0.0
39.545417,-0.387889,BP HOFIRA,0,1,0,0,0.0,0,0,0,0.0,4.905674,0.8,0.0
39.601583,-0.725278,REPSOL,0,1,0,0,0.0,0,0,0,0.0,43.153414,0.8,0.0
39.732722,-0.821778,"ESTACION DE SERVICIO PORTER, S.L.",0,1,0,0,0.0,0,0,0,0.0,0.116285,0.8,0.0
39.490972,-0.677222,CHESTE AGRARIA,0,1,0,0,0.0,0,0,0,0.0,3.495322,0.8,0.0
39.651556,-1.404056,REPSOL,0,1,0,0,0.0,0,0,0,0.0,0.552718,0.8,0.0
39.017167,-0.542056,AZEROIL LLOSA ,0,1,0,0,0.0,0,0,0,0.0,5.630666,0.8,0.0
39.562889,-0.335333,REPSOL FENOLLOSA,0,1,0,0,0.0,0,0,0,0.0,10.837923,0.8,0.0
39.749694,-0.992167,E.S.CHELVA,0,1,0,0,0.0,0,0,0,0.0,0.324498,0.8,0.0
38.970556,-0.157222,E.S. DAIMUS,0,1,0,0,0.0,0,0,0,0.0,0.720279,0.8,0.0
38.874139,-0.376333, BP BENICADELL,0,1,0,0,0.0,0,0,0,0.0,1.187505,0.8,0.0
39.566389,-0.618111,VILAMARXANT,0,1,0,0,0.0,0,0,0,0.0,4.344897,0.8,0.0
38.947778,-0.404528,REPSOL,0,1,0,0,0.0,0,0,0,0.0,3.297928,0.8,0.0
38.952,-0.439556,CAMPSA EXPRESS,0,1,0,0,0.0,0,0,0,0.0,2.351971,0.8,0.0
38.915667,-0.556944,REPSOL,0,1,0,0,0.0,0,0,0,0.0,3.651734,0.8,0.0
38.953389,-0.193139,BP,0,1,0,0,0.0,0,0,0,0.0,1.05343,0.8,0.0
39.378389,-0.414056,REPSOL,0,1,0,0,0.0,0,0,0,0.0,40.37716,0.8,0.0
39.585111,-0.324111,PETRONOR,0,1,0,0,0.0,0,0,0,0.0,2.752371,0.8,0.0
39.567028,-0.493333,PETROMAX,0,1,0,0,0.0,0,0,0,0.0,6.341939,0.8,0.0
39.539694,-1.311667,REPSOL,0,1,0,0,0.0,0,0,0,0.0,0.611864,0.8,0.0
39.456,-0.904528,REPSOL,0,1,0,0,0.0,0,0,0,0.0,1.405579,0.8,0.0
39.153972,-0.527806,REPSOL,0,1,0,0,0.0,0,0,0,0.0,24.989802,0.8,0.0
39.154583,-0.529361,REPSOL,0,1,0,0,0.0,0,0,0,0.0,24.544234,0.8,0.0
39.046917,-0.225639,CEPSA,0,1,0,0,0.0,0,0,0,0.0,5.570335,0.8,0.0
39.039056,-0.226417,BP AP7 LA SAFOR VALENCIA,0,1,0,0,0.0,0,0,0,0.0,10.095524,0.8,0.0
39.040833,-0.228139,BP AP7 LA SAFOR ALICANTE,0,1,0,0,0.0,0,0,0,0.0,13.381545,0.8,0.0
39.18775,-0.485028,SERVICOOP +,0,1,0,0,0.0,0,0,0,0.0,33.119876,0.8,0.0
38.949389,-0.165,REPSOL,0,1,0,0,0.0,0,0,0,0.0,8.625312,0.8,0.0
39.532389,-0.366778,GALP,0,1,0,0,0.0,0,0,0,0.0,5.612356,0.8,0.0
39.587417,-0.323722,REPSOL,0,1,0,0,0.0,0,0,0,0.0,2.751896,0.8,0.0
38.175778,-1.049806,LOS CALZONES,0,1,0,0,0.0,0,0,0,0.0,8.300702,0.8,0.0
38.203556,-1.04225,FTH,0,1,0,0,0.0,0,0,0,0.0,2.520747,0.8,0.0
37.985472,-1.513306,SUMINISTROS PLIEGO S.L,0,1,0,0,0.0,0,0,0,0.0,18.771834,0.8,0.0
37.767583,-1.069333,REPSOL,0,1,0,0,0.0,0,0,0,0.0,15.405654,0.8,0.0
37.769,-1.068806,REPSOL,0,1,0,0,0.0,0,0,0,0.0,15.867389,0.8,0.0
38.177917,-1.352694,REPSOL,0,1,0,0,0.0,0,0,0,0.0,1.983615,0.8,0.0
38.176306,-1.123667,MOEVE,0,1,0,0,0.0,0,0,0,0.0,2.818018,0.8,0.0
42.514083,-2.742111,BEROIL,0,1,0,0,0.0,0,0,0,0.0,1.302476,0.8,0.0
42.533944,-2.919194,REPSOL,0,1,0,0,0.0,0,0,0,0.0,0.621069,0.8,0.0
42.049917,-1.956722,E.S. RIO LINARES,0,1,0,0,0.0,0,0,0,0.0,0.747158,0.8,0.0
40.223333,-3.334778,GALP,0,1,0,0,0.0,0,0,0,0.0,7.000839,0.8,0.0
40.780722,-3.774528,REPSOL,0,1,0,0,0.0,0,0,0,0.0,1.24485,0.8,0.0
40.721833,-4.020472,MOEVE,0,1,0,0,0.0,0,0,0,0.0,2.759541,0.8,0.0
40.72125,-4.019528,MOEVE,0,1,0,0,0.0,0,0,0,0.0,2.759541,0.8,0.0
38.771194,-2.450028,CANOIL,0,1,0,0,0.0,0,0,0,0.0,5.062118,0.8,0.0
39.211417,-1.539167,Nº 10.935,0,1,0,0,0.0,0,0,0,0.0,0.787623,0.8,0.0
39.990806,-4.794472,AVIA ,0,1,0,0,0.0,0,0,0,0.0,1.598312,0.8,0.0
40.242611,-4.379833,NUBOIL,0,1,0,0,0.0,0,0,0,0.0,1.261651,0.8,0.0
39.817556,-4.021194,HNOS. NAVAMUEL ESPERANZA,0,1,0,0,0.0,0,0,0,0.0,17.964781,0.8,0.0
