lat,lon,name,is_city,is_feasible_location,is_existing_charger,n_chargers,mean_power_kw,x_built,c_built,p_built_kw,wq_minutes,lambda_k
37.11906,-3.584,Zubia,1,0,0,0,0.0,0,0,0,0.0,0.0
38.42539,-6.41734,Zafra,1,0,0,0,0.0,0,0,0,0.0,0.0
38.61365,-1.11468,Yecla,1,0,0,0,0.0,0,0,0,0.0,0.0
38.6373,-0.86568,Villena,1,0,0,0,0.0,0,0,0,0.0,0.0
39.22085,-3.60802,Villarrubia de los Ojos,1,0,0,0,0.0,0,0,0,0.0,0.0
39.26992,-2.60119,Villarrobledo,1,0,0,0,0.0,0,0,0,0.0,0.0
39.9383,-0.10087,Vila-real,1,0,0,0,0.0,0,0,0,0.0,0.0
38.97655,-5.7974,Villanueva de la Serena,1,0,0,0,0.0,0,0,0,0.0,0.0
38.32277,-4.62873,Villanueva de Córdoba,1,0,0,0,0.0,0,0,0,0.0,0.0
36.85979,-5.64485,Villamartín,1,0,0,0,0.0,0,0,0,0.0,0.0
38.50754,-0.23346,Villajoyosa,1,0,0,0,0.0,0,0,0,0.0,0.0
38.1156,-3.0848,Villacarrillo,1,0,0,0,0.0,0,0,0,0.0,0.0
39.62367,-3.33813,Villacañas,1,0,0,0,0.0,0,0,0,0.0,0.0
36.83155,-2.64273,Vícar,1,0,0,0,0.0,0,0,0,0.0,0.0
37.24345,-1.85905,Vera,1,0,0,0,0.0,0,0,0,0.0,0.0
36.78107,-4.10266,Vélez-Málaga,1,0,0,0,0.0,0,0,0,0.0,0.0
36.25213,-5.96717,Vejer de la Frontera,1,0,0,0,0.0,0,0,0,0.0,0.0
37.57511,-6.75432,Valverde del Camino,1,0,0,0,0.0,0,0,0,0.0,0.0
39.47391,-0.37966,Valencia,1,0,0,0,0.0,0,0,0,0.0,0.0
38.76211,-3.38483,Valdepeñas,1,0,0,0,0.0,0,0,0,0.0,0.0
37.18516,-5.78093,Utrera,1,0,0,0,0.0,0,0,0,0.0,0.0
39.56667,-1.2,Utiel,1,0,0,0,0.0,0,0,0,0.0,0.0
36.67777,-5.446,Ubrique,1,0,0,0,0.0,0,0,0,0.0,0.0
38.01328,-3.3705,Úbeda,1,0,0,0,0.0,0,0,0,0.0,0.0
37.7688,-1.50229,Totana,1,0,0,0,0.0,0,0,0,0.0,0.0
39.98195,-4.28349,Torrijos,1,0,0,0,0.0,0,0,0,0.0,0.0
37.97872,-0.68222,Torrevieja,1,0,0,0,0.0,0,0,0,0.0,0.0
37.74293,-0.95396,Torre-Pacheco,1,0,0,0,0.0,0,0,0,0.0,0.0
36.62035,-4.49976,Torremolinos,1,0,0,0,0.0,0,0,0,0.0,0.0
37.76748,-3.95776,Torredonjimeno,1,0,0,0,0.0,0,0,0,0.0,0.0
39.15759,-3.02156,Tomelloso,1,0,0,0,0.0,0,0,0,0.0,0.0
37.37281,-6.04589,Tomares,1,0,0,0,0.0,0,0,0,0.0,0.0
39.8581,-4.02263,Toledo,1,0,0,0,0.0,0,0,0,0.0,0.0
38.7294,0.10383,Teulada,1,0,0,0,0.0,0,0,0,0.0,0.0
36.01393,-5.60695,Tarifa,1,0,0,0,0.0,0,0,0,0.0,0.0
39.96348,-4.83076,Talavera de la Reina,1,0,0,0,0.0,0,0,0,0.0,0.0
39.07195,-0.26623,Tavernes de la Valldigna,1,0,0,0,0.0,0,0,0,0.0,0.0
39.67747,-3.97448,Sonseca,1,0,0,0,0.0,0,0,0,0.0,0.0
38.3964,-0.5255,San Vicent del Raspeig,1,0,0,0,0.0,0,0,0,0.0,0.0
38.06147,-1.04877,Santomera,1,0,0,0,0.0,0,0,0,0.0,0.0
38.19165,-0.5658,Santa Pola,1,0,0,0,0.0,0,0,0,0.0,0.0
36.20983,-5.38452,San Roque,1,0,0,0,0.0,0,0,0,0.0,0.0
36.48839,-4.99123,San Pedro Alcántara,1,0,0,0,0.0,0,0,0,0.0,0.0
36.77808,-6.3515,Sanlúcar de Barrameda,1,0,0,0,0.0,0,0,0,0.0,0.0
36.4759,-6.19817,San Fernando,1,0,0,0,0.0,0,0,0,0.0,0.0
36.74277,-3.58717,Salobreña,1,0,0,0,0.0,0,0,0,0.0,0.0
39.68333,-0.26667,Sagunto,1,0,0,0,0.0,0,0,0,0.0,0.0
37.3269,-4.36827,Rute,1,0,0,0,0.0,0,0,0,0.0,0.0
36.74231,-5.16709,Ronda,1,0,0,0,0.0,0,0,0,0.0,0.0
39.59369,-3.04165,Quintanar de la Orden,1,0,0,0,0.0,0,0,0,0.0,0.0
38.68712,-4.10734,Puertollano,1,0,0,0,0.0,0,0,0,0.0,0.0
37.38943,-4.76686,Puente-Genil,1,0,0,0,0.0,0,0,0,0.0,0.0
39.59747,-0.55468,La Pobla de Vallbona,1,0,0,0,0.0,0,0,0,0.0,0.0
38.37906,-4.84827,Pozoblanco,1,0,0,0,0.0,0,0,0,0.0,0.0
37.25109,-3.74967,Pinos Puente,1,0,0,0,0.0,0,0,0,0.0,0.0
37.30337,-6.30097,Pilas,1,0,0,0,0.0,0,0,0,0.0,0.0
38.3,-5.26667,Peñarroya-Pueblonuevo,1,0,0,0,0.0,0,0,0,0.0,0.0
37.23457,-6.89471,Palos de la Frontera,1,0,0,0,0.0,0,0,0,0.0,0.0
37.70024,-5.28121,Palma del Río,1,0,0,0,0.0,0,0,0,0.0,0.0
37.2376,-5.10311,Osuna,1,0,0,0,0.0,0,0,0,0.0,0.0
38.82191,-0.60603,Ontinyent,1,0,0,0,0.0,0,0,0,0.0,0.0
38.91971,-0.11935,Oliva,1,0,0,0,0.0,0,0,0,0.0,0.0
38.38479,-0.76773,Novelda,1,0,0,0,0.0,0,0,0,0.0,0.0
36.96655,-2.20595,Níjar,1,0,0,0,0.0,0,0,0,0.0,0.0
36.75278,-3.8744,Nerja,1,0,0,0,0.0,0,0,0,0.0,0.0
39.89158,-5.54064,Navalmoral de la Mata,1,0,0,0,0.0,0,0,0,0.0,0.0
38.04095,-1.49014,Mula,1,0,0,0,0.0,0,0,0,0.0,0.0
37.12084,-5.45403,Morón de la Frontera,1,0,0,0,0.0,0,0,0,0.0,0.0
37.58627,-4.63805,Montilla,1,0,0,0,0.0,0,0,0,0.0,0.0
38.90839,-6.61785,Montijo,1,0,0,0,0.0,0,0,0,0.0,0.0
38.96442,-3.89047,Miguelturra,1,0,0,0,0.0,0,0,0,0.0,0.0
39.15127,-5.90841,Miajadas,1,0,0,0,0.0,0,0,0,0.0,0.0
38.91802,-6.34292,Mérida,1,0,0,0,0.0,0,0,0,0.0,0.0
36.45695,-5.92717,Medina Sidonia,1,0,0,0,0.0,0,0,0,0.0,0.0
37.5992,-1.31493,Mazarrón,1,0,0,0,0.0,0,0,0,0.0,0.0
37.329,-5.41681,Marchena,1,0,0,0,0.0,0,0,0,0.0,0.0
38.99915,-3.36991,Manzanares,1,0,0,0,0.0,0,0,0,0.0,0.0
36.37645,-5.25026,Manilva,1,0,0,0,0.0,0,0,0,0.0,0.0
37.78627,-3.61226,Mancha Real,1,0,0,0,0.0,0,0,0,0.0,0.0
37.37301,-5.74951,Mairena del Alcor,1,0,0,0,0.0,0,0,0,0.0,0.0
39.46823,-3.53196,Madridejos,1,0,0,0,0.0,0,0,0,0.0,0.0
37.56329,-1.80974,Puerto Lumbreras,1,0,0,0,0.0,0,0,0,0.0,0.0
37.65896,-5.52751,Lora del Río,1,0,0,0,0.0,0,0,0,0.0,0.0
37.16887,-4.15129,Loja,1,0,0,0,0.0,0,0,0,0.0,0.0
38.09519,-3.63602,Linares,1,0,0,0,0.0,0,0,0,0.0,0.0
37.25482,-7.20433,Lepe,1,0,0,0,0.0,0,0,0,0.0,0.0
36.92077,-6.07529,Lebrija,1,0,0,0,0.0,0,0,0,0.0,0.0
39.20735,-2.15723,La Roda,1,0,0,0,0.0,0,0,0,0.0,0.0
37.38605,-6.55231,La Palma del Condado,1,0,0,0,0.0,0,0,0,0.0,0.0
38.27559,-3.61535,La Carolina,1,0,0,0,0.0,0,0,0,0.0,0.0
37.67359,-4.93122,La Carlota,1,0,0,0,0.0,0,0,0,0.0,0.0
38.47917,-1.325,Jumilla,1,0,0,0,0.0,0,0,0,0.0,0.0
38.32063,-6.7726,Jerez de los Caballeros,1,0,0,0,0.0,0,0,0,0.0,0.0
36.68645,-6.13606,Jerez de la Frontera,1,0,0,0,0.0,0,0,0,0.0,0.0
38.99042,-0.51852,Xàtiva,1,0,0,0,0.0,0,0,0,0.0,0.0
38.62533,-0.57225,Ibi,1,0,0,0,0.0,0,0,0,0.0,0.0
38.5106,-1.70096,Hellín,1,0,0,0,0.0,0,0,0,0.0,0.0
37.29932,-3.13922,Guadix,1,0,0,0,0.0,0,0,0,0.0,0.0
38.53089,-5.92513,El Casar,1,0,0,0,0.0,0,0,0,0.0,0.0
39.98406,-6.53603,Coria,1,0,0,0,0.0,0,0,0,0.0,0.0
37.89155,-4.77275,Córdoba,1,0,0,0,0.0,0,0,0,0.0,0.0
36.65947,-4.75639,Coín,1,0,0,0,0.0,0,0,0,0.0,0.0
38.23998,-1.41987,Cieza,1,0,0,0,0.0,0,0,0,0.0,0.0
39.46667,-0.71667,Chiva,1,0,0,0,0.0,0,0,0,0.0,0.0
38.09242,-1.7985,Cehegín,1,0,0,0,0.0,0,0,0,0.0,0.0
39.2266,-0.52142,Carlet,1,0,0,0,0.0,0,0,0,0.0,0.0
37.61032,-5.82472,Cantillana,1,0,0,0,0.0,0,0,0,0.0,0.0
39.40463,-3.12492,Campo de Criptana,1,0,0,0,0.0,0,0,0,0.0,0.0
39.47649,-6.37224,Cáceres,1,0,0,0,0.0,0,0,0,0.0,0.0
38.9069,-3.66345,Bolaños de Calatrava,1,0,0,0,0.0,0,0,0,0.0,0.0
36.84693,-2.94966,Berja,1,0,0,0,0.0,0,0,0,0.0,0.0
37.49073,-2.77259,Baza,1,0,0,0,0.0,0,0,0,0.0,0.0
37.6167,-4.32245,Baena,1,0,0,0,0.0,0,0,0,0.0,0.0
38.87789,-6.97061,Badajoz,1,0,0,0,0.0,0,0,0,0.0,0.0
37.59989,-0.80682,Atamaría,1,0,0,0,0.0,0,0,0,0.0,0.0
37.01938,-4.56123,Antequera,1,0,0,0,0.0,0,0,0,0.0,0.0
38.03922,-4.05077,Andújar,1,0,0,0,0.0,0,0,0,0.0,0.0
38.68316,-6.40747,Almendralejo,1,0,0,0,0.0,0,0,0,0.0,0.0
38.86917,-1.09713,Almansa,1,0,0,0,0.0,0,0,0,0.0,0.0
37.59091,-4.08237,Alcaudete,1,0,0,0,0.0,0,0,0,0.0,0.0
37.4614,-3.92301,Alcalá la Real,1,0,0,0,0.0,0,0,0,0.0,0.0
37.38856,-2.14949,Albox,1,0,0,0,0.0,0,0,0,0.0,0.0
38.17902,-0.87059,Albatera,1,0,0,0,0.0,0,0,0,0.0,0.0
38.99424,-1.85643,Albacete,1,0,0,0,0.0,0,0,0,0.0,0.0
37.4063,-1.58289,Águilas,1,0,0,0,0.0,0,0,0,0.0,0.0
43.28444,-2.16992,Zarautz,1,0,0,0,0.0,0,0,0,0.0,0.0
41.65606,-0.87734,Zaragoza,1,0,0,0,0.0,0,0,0,0.0,0.0
41.50633,-5.74456,Zamora,1,0,0,0,0.0,0,0,0,0.0,0.0
43.66228,-7.59344,Viveiro,1,0,0,0,0.0,0,0,0,0.0,0.0
42.84998,-2.67268,Gasteiz / Vitoria,1,0,0,0,0.0,0,0,0,0.0,0.0
40.47033,0.47559,Vinaròs,1,0,0,0,0.0,0,0,0,0.0,0.0
40.3581,-3.9043,Villaviciosa de Odón,1,0,0,0,0.0,0,0,0,0.0,0.0
43.48126,-5.43574,Villaviciosa,1,0,0,0,0.0,0,0,0,0.0,0.0
42.64685,-5.55835,Villaquilambre,1,0,0,0,0.0,0,0,0,0.0,0.0
41.22392,1.72511,Vilanova i la Geltrú,1,0,0,0,0.0,0,0,0,0.0,0.0
42.564,-8.82797,Vilanova de Arousa,1,0,0,0,0.0,0,0,0,0.0,0.0
43.29806,-7.6813,Vilalba,1,0,0,0,0.0,0,0,0,0.0,0.0
42.8323,-1.60735,Atarrabia,1,0,0,0,0.0,0,0,0,0.0,0.0
41.11118,1.14764,Vila-seca,1,0,0,0,0.0,0,0,0,0.0,0.0
42.06174,2.25528,Vilaseca,1,0,0,0,0.0,0,0,0,0.0,0.0
41.57165,1.63751,Vilanova del Camí,1,0,0,0,0.0,0,0,0,0.0,0.0
41.31405,2.01427,Viladecans,1,0,0,0,0.0,0,0,0,0.0,0.0
42.23282,-8.72264,Vigo,1,0,0,0,0.0,0,0,0,0.0,0.0
40.4,-3.6,Vicálvaro,1,0,0,0,0.0,0,0,0,0.0,0.0
41.94149,-7.43809,Verín,1,0,0,0,0.0,0,0,0,0.0,0.0
43.1151,-2.4175,Bergara,1,0,0,0,0.0,0,0,0,0.0,0.0
41.28612,1.24993,Valls,1,0,0,0,0.0,0,0,0,0.0,0.0
41.65541,-4.72353,Valladolid,1,0,0,0,0.0,0,0,0,0.0,0.0
40.19081,-3.67887,Valdemoro,1,0,0,0,0.0,0,0,0,0.0,0.0
40.50064,-4.0671,Valdemorillo,1,0,0,0,0.0,0,0,0,0.0,0.0
42.04713,-8.64435,Tui,1,0,0,0,0.0,0,0,0,0.0,0.0
42.06166,-1.60452,Tudela,1,0,0,0,0.0,0,0,0,0.0,0.0
40.81249,0.5216,Tortosa,1,0,0,0,0.0,0,0,0,0.0,0.0
42.04254,3.12703,Torroella de Montgrí,1,0,0,0,0.0,0,0,0,0.0,0.0
43.34943,-4.04785,Torrelavega,1,0,0,0,0.0,0,0,0,0.0,0.0
41.14505,1.39861,Torredembarra,1,0,0,0,0.0,0,0,0,0.0,0.0
41.69914,2.71888,Tordera,1,0,0,0,0.0,0,0,0,0.0,0.0
43.33765,-6.41452,Tineo,1,0,0,0,0.0,0,0,0,0.0,0.0
40.3456,-1.10646,Teruel,1,0,0,0,0.0,0,0,0,0.0,0.0
42.795,-8.548,Teo,1,0,0,0,0.0,0,0,0,0.0,0.0
41.64704,1.13957,Tàrrega,1,0,0,0,0.0,0,0,0,0.0,0.0
41.56667,2.01667,Terrassa,1,0,0,0,0.0,0,0,0,0.0,0.0
41.90475,-1.72678,Tarazona,1,0,0,0,0.0,0,0,0,0.0,0.0
40.00851,-3.00731,Tarancón,1,0,0,0,0.0,0,0,0,0.0,0.0
42.52687,-1.67446,Tafalla,1,0,0,0,0.0,0,0,0,0.0,0.0
41.76401,-2.46883,Soria,1,0,0,0,0.0,0,0,0,0.0,0.0
43.37891,-2.98313,Sopela,1,0,0,0,0.0,0,0,0,0.0,0.0
42.35877,1.46144,La Seu d'Urgell,1,0,0,0,0.0,0,0,0,0.0,0.0
40.94808,-4.11839,Segovia,1,0,0,0,0.0,0,0,0,0.0,0.0
42.78148,-7.41431,Sarria,1,0,0,0,0.0,0,0,0,0.0,0.0
43.44386,-3.45757,Santoña,1,0,0,0,0.0,0,0,0,0.0,0.0
41.74549,1.80476,Sant Joan de Vilatorrada,1,0,0,0,0.0,0,0,0,0.0,0.0
43.46589,-3.80493,Santander,1,0,0,0,0.0,0,0,0,0.0,0.0
40.95065,-5.62723,Santa Marta de Tormes,1,0,0,0,0.0,0,0,0,0.0,0.0
43.03306,-8.80925,Santa Comba,1,0,0,0,0.0,0,0,0,0.0,0.0
41.45152,2.2081,Santa Coloma de Gramenet,1,0,0,0,0.0,0,0,0,0.0,0.0
41.42555,1.78519,Sant Sadurní d'Anoia,1,0,0,0,0.0,0,0,0,0.0,0.0
41.78333,3.03333,Sant Feliu de Guíxols,1,0,0,0,0.0,0,0,0,0.0,0.0
41.56667,2.48333,Sant Andreu de Llavaneres,1,0,0,0,0.0,0,0,0,0.0,0.0
40.67882,-3.61639,San Agustín del Guadalix,1,0,0,0,0.0,0,0,0,0.0,0.0
43.29568,-5.68416,Sama,1,0,0,0,0.0,0,0,0,0.0,0.0
41.97489,2.79281,Salt,1,0,0,0,0.0,0,0,0,0.0,0.0
43.35619,-8.25796,Sada,1,0,0,0,0.0,0,0,0,0.0,0.0
42.51924,-0.36607,Sabiñánigo,1,0,0,0,0.0,0,0,0,0.0,0.0
42.26199,3.17689,Roses,1,0,0,0,0.0,0,0,0,0.0,0.0
43.31195,-1.90234,Errenteria,1,0,0,0,0.0,0,0,0,0.0,0.0
42.99959,-4.13801,Reinosa,1,0,0,0,0.0,0,0,0,0.0,0.0
43.45266,-7.85178,As Pontes de García Rodríguez,1,0,0,0,0.0,0,0,0,0.0,0.0
42.431,-8.64435,Pontevedra,1,0,0,0,0.0,0,0,0,0.0,0.0
42.54664,-6.59619,Ponferrada,1,0,0,0,0.0,0,0,0,0.0,0.0
40.03116,-6.08845,Plasencia,1,0,0,0,0.0,0,0,0,0.0,0.0
42.00955,-4.52406,Palencia,1,0,0,0,0.0,0,0,0,0.0,0.0
42.33669,-7.86407,Ourense,1,0,0,0,0.0,0,0,0,0.0,0.0
43.07654,-8.409,Ordes,1,0,0,0,0.0,0,0,0,0.0,0.0
42.18096,2.49012,Olot,1,0,0,0,0.0,0,0,0,0.0,0.0
40.67816,-3.9707,Moralzarzal,1,0,0,0,0.0,0,0,0,0.0,0.0
41.91084,0.19406,Monzón,1,0,0,0,0.0,0,0,0,0.0,0.0
42.52165,-7.51422,Monforte de Lemos,1,0,0,0,0.0,0,0,0,0.0,0.0
42.6865,-2.94695,Miranda de Ebro,1,0,0,0,0.0,0,0,0,0.0,0.0
41.31239,-4.91413,Medina del Campo,1,0,0,0,0.0,0,0,0,0.0,0.0
40.55274,-3.32894,Meco,1,0,0,0,0.0,0,0,0,0.0,0.0
43.00992,-7.55602,Lugo,1,0,0,0,0.0,0,0,0,0.0,0.0
43.61517,-5.79344,Luanco,1,0,0,0,0.0,0,0,0,0.0,0.0
42.46615,-2.45115,Logroño,1,0,0,0,0.0,0,0,0,0.0,0.0
43.14322,-2.96204,Laudio / Llodio,1,0,0,0,0.0,0,0,0,0.0,0.0
43.41982,-4.75485,Llanes,1,0,0,0,0.0,0,0,0,0.0,0.0
43.43963,-5.8508,Llanera,1,0,0,0,0.0,0,0,0,0.0,0.0
41.61674,0.62218,Lleida,1,0,0,0,0.0,0,0,0,0.0,0.0
43.25375,-8.58535,Laracha,1,0,0,0,0.0,0,0,0,0.0,0.0
42.66085,-8.11285,Lalín,1,0,0,0,0.0,0,0,0,0.0,0.0
41.68333,2.28333,la Garriga,1,0,0,0,0.0,0,0,0,0.0,0.0
42.30026,-5.89772,La Bañeza,1,0,0,0,0.0,0,0,0,0.0,0.0
42.13615,-0.4087,Huesca,1,0,0,0,0.0,0,0,0,0.0,0.0
43.31667,-2.68333,Gernika-Lumo,1,0,0,0,0.0,0,0,0,0.0,0.0
42.0635,-7.72459,Xinzo de Limia,1,0,0,0,0.0,0,0,0,0.0,0.0
42.35664,-3.67321,Gamonal,1,0,0,0,0.0,0,0,0,0.0,0.0
41.52294,0.34894,Fraga,1,0,0,0,0.0,0,0,0,0.0,0.0
42.67182,-2.03226,Estella-Lizarra,1,0,0,0,0.0,0,0,0,0.0,0.0
42.41642,-6.99005,O Barco de Valdeorras,1,0,0,0,0.0,0,0,0,0.0,0.0
42.12632,-1.13716,Ejea de los Caballeros,1,0,0,0,0.0,0,0,0,0.0,0.0
40.06667,-2.13333,Cuenca,1,0,0,0,0.0,0,0,0,0.0,0.0
40.6,-6.53333,Ciudad Rodrigo,1,0,0,0,0.0,0,0,0,0.0,0.0
42.43163,-8.07899,O Carballiño,1,0,0,0,0.0,0,0,0,0.0,0.0
43.18333,-6.55,Cangas del Narcea,1,0,0,0,0.0,0,0,0,0.0,0.0
41.35353,-1.64318,Calatayud,1,0,0,0,0.0,0,0,0,0.0,0.0
42.30506,-1.96521,Calahorra,1,0,0,0,0.0,0,0,0,0.0,0.0
42.10429,1.84628,Berga,1,0,0,0,0.0,0,0,0,0.0,0.0
42.00249,-5.67826,Benavente,1,0,0,0,0.0,0,0,0,0.0,0.0
40.38641,-5.76341,Béjar,1,0,0,0,0.0,0,0,0,0.0,0.0
41.79117,0.81094,Balaguer,1,0,0,0,0.0,0,0,0,0.0,0.0
40.65724,-4.69951,Ávila,1,0,0,0,0.0,0,0,0,0.0,0.0
42.45879,-6.05601,Astorga,1,0,0,0,0.0,0,0,0,0.0,0.0
41.67041,-3.6892,Aranda de Duero,1,0,0,0,0.0,0,0,0,0.0,0.0
41.05,-0.13333,Alcañiz,1,0,0,0,0.0,0,0,0,0.0,0.0
38.68269,-7.10046,Olivenza,1,0,0,0,0.0,0,0,0,0.0,0.0
42.892,-1.777806,SARASATE,0,1,0,0,0.0,0,0,0,0.0,1.153186
42.055861,-1.861722,REPSOL,0,1,0,0,0.0,0,0,0,0.0,0.604066
42.590333,-1.363972,AVIA,0,1,0,0,0.0,0,0,0,0.0,0.16047
42.024778,-1.580333,PLENERGY,0,1,0,0,0.0,0,0,0,0.0,5.02052
42.774333,-1.633278,GASOLINERA NOÁIN,0,1,0,0,0.0,0,0,0,0.0,0.134341
42.818278,-1.60325,REPSOL,0,1,0,0,0.0,0,0,0,0.0,0.052609
42.837667,-0.939306,PETRONOR,0,1,0,0,0.0,0,0,0,0.0,0.43192
42.731944,-1.618028,MOEVE,0,1,0,0,0.0,0,0,0,0.0,0.411109
42.724889,-1.615528,MOEVE,0,1,0,0,0.0,0,0,0,0.0,0.421017
42.200333,-1.676278,REPSOL,0,1,0,0,0.0,0,0,0,0.0,2.924681
42.200361,-1.674889,REPSOL,0,1,0,0,0.0,0,0,0,0.0,3.252456
42.012583,-1.600861,REPSOL,0,1,0,0,0.0,0,0,0,0.0,4.447356
40.907139,-3.876222,CEPSA,0,1,0,0,0.0,0,0,0,0.0,0.417375
38.495972,-5.136278,OLIVARERA NTRA.SRA.DEL CARMEN,0,1,0,0,0.0,0,0,0,0.0,0.11553
39.5105,-3.241944,REPSOL,0,1,0,0,0.0,0,0,0,0.0,0.32025
41.863222,-5.716722,TEO,0,1,0,0,0.0,0,0,0,0.0,2.42912
41.207806,-1.394028,COOP. LANGA DEL CASTILLO,0,1,0,0,0.0,0,0,0,0.0,0.051712
42.140583,-5.598556,TEO,0,1,0,0,0.0,0,0,0,0.0,1.269957
39.768389,-2.268028,PASACONSOL S. COOP. DE C-LM,0,1,0,0,0.0,0,0,0,0.0,0.256227
43.535611,-6.705833,E.S.LA COLORADA,0,1,0,0,0.0,0,0,0,0.0,1.413291
42.251222,-5.566194,SUTECAL,0,1,0,0,0.0,0,0,0,0.0,0.823125
42.218889,-5.801917,SUTECAL,0,1,0,0,0.0,0,0,0,0.0,0.697318
43.323611,-1.879944,MERKAOIL,0,1,0,0,0.0,0,0,0,0.0,0.543355
41.191778,-1.309528,COOP. MAINAR,0,1,0,0,0.0,0,0,0,0.0,0.156519
37.590278,-5.747333,COOP.SAN LUIS,0,1,0,0,0.0,0,0,0,0.0,3.668004
39.030361,-3.821833,"MONTES NORTE ENERGETICOS, S.L.",0,1,0,0,0.0,0,0,0,0.0,11.516178
40.999,-1.512083,COOP GALLOCANTA,0,1,0,0,0.0,0,0,0,0.0,0.370761
41.691556,0.594194,"FRU-ROSE, SCCL",0,1,0,0,0.0,0,0,0,0.0,1.498533
42.389528,-1.972064,CARCAR,0,1,0,0,0.0,0,0,0,0.0,2.271984
39.363611,-7.133861,JOYMAR,0,1,0,0,0.0,0,0,0,0.0,0.235356
41.914,-1.259917,COOPERATIVA SAN MIGUEL,0,1,0,0,0.0,0,0,0,0.0,0.926998
42.522889,-1.837889,ENERGETICOS BERBINZANA,0,1,0,0,0.0,0,0,0,0.0,1.850824
42.171361,-1.588306,S.COOP. SAN ESTEBAN,0,1,0,0,0.0,0,0,0,0.0,0.892738
41.97325,-1.635194,AN ENERGETICOS,0,1,0,0,0.0,0,0,0,0.0,1.012103
39.274667,-3.520028,OLEOVINICOLA LABOREÑA SDAD COOP DE C-LM,0,1,0,0,0.0,0,0,0,0.0,1.529763
42.231,2.959417,AVANZA,0,1,0,0,0.0,0,0,0,0.0,0.760585
41.495472,-4.189472,EL PARAMO S.C.L.,0,1,0,0,0.0,0,0,0,0.0,0.603559
41.858028,1.874306,PETROBAGES S.L.,0,1,0,0,0.0,0,0,0,0.0,15.23101
41.741194,-4.385306,"AN ENERGETICOS, S.L. - ESGUEVILLAS DE ESGUEVA",0,1,0,0,0.0,0,0,0,0.0,3.528325
41.256528,-6.070167,AVIA,0,1,0,0,0.0,0,0,0,0.0,0.036948
40.309472,0.118278,COOPERATIVA AGRARIA SAN ISIDRO DE CUEVAS DE VINROMA,0,1,0,0,0.0,0,0,0,0.0,2.778233
38.662639,-3.069639,COOPERATIVA COZAR DE LA SIERRA,0,1,0,0,0.0,0,0,0,0.0,2.108494
41.864194,-1.925111,UNION COMARCAL AGREDANA.S.C.L,0,1,0,0,0.0,0,0,0,0.0,2.994951
42.60225,-1.644417,TALLERES ARRUBLA,0,1,0,0,0.0,0,0,0,0.0,1.01367
39.408694,-2.421139,COOPERATIVA DEL CAMPO NTRA SRA DE RUS,0,1,0,0,0.0,0,0,0,0.0,0.453334
40.751007,-3.163644,SUMINISTROS YUNQUERA SOCIEDAD COOPERATIVA DE CASTILLA LAMANCHA,0,1,0,0,0.0,0,0,0,0.0,3.501926
37.674528,-4.556306,COOP. OLIVARERA SAN ISIDRO,0,1,0,0,0.0,0,0,0,0.0,1.928095
39.829778,-4.71575,AVIA,0,1,0,0,0.0,0,0,0,0.0,0.550832
42.922111,-2.0145,MOEVE,0,1,0,0,0.0,0,0,0,0.0,5.155525
42.350056,-1.371222,COOPERATIVA AGRICOLA SAN FRANCISCO JAVIER,0,1,0,0,0.0,0,0,0,0.0,1.761227
40.699617,-1.347402,CEREALES TERUEL,0,1,0,0,0.0,0,0,0,0.0,0.412094
40.61525,-1.344639,CEREALES TERUEL,0,1,0,0,0.0,0,0,0,0.0,0.470821
40.812361,-1.482972,CEREALES TERUEL,0,1,0,0,0.0,0,0,0,0.0,1.063576
40.588172,-0.987763,CEREALES TERUEL,0,1,0,0,0.0,0,0,0,0.0,3.140754
39.281778,-1.719778,COOP SAN GREGORIO,0,1,0,0,0.0,0,0,0,0.0,0.270163
40.8922,-1.461152,CEREALES TERUEL,0,1,0,0,0.0,0,0,0,0.0,0.150989
41.060639,-1.235667,GASOLEOS TERUEL,0,1,0,0,0.0,0,0,0,0.0,3.051098
40.683278,-1.098417,CEREALES TERUEL,0,1,0,0,0.0,0,0,0,0.0,0.828175
39.131015,-4.947033,SI,0,1,0,0,0.0,0,0,0,0.0,0.698567
36.9067,-4.337866,S. COOP. AND. NTRA. SRA. DE LA CANDELARIA,0,1,0,0,0.0,0,0,0,0.0,10.838798
40.636194,-1.001639,CEREALES TERUEL,0,1,0,0,0.0,0,0,0,0.0,0.403207
37.19375,-3.776917,SHELL,0,1,0,0,0.0,0,0,0,0.0,4.393025
40.701472,-0.80425,CEREALES TERUEL,0,1,0,0,0.0,0,0,0,0.0,0.428935
43.170556,-2.597556,EUSKOIL-STAR PETROLEUM,0,1,0,0,0.0,0,0,0,0.0,4.185956
43.281972,-1.916778,ONROAD 24,0,1,0,0,0.0,0,0,0,0.0,0.501487
43.185778,-2.671556,SHELL,0,1,0,0,0.0,0,0,0,0.0,1.559628
43.123361,-3.122528,AVIA ,0,1,0,0,0.0,0,0,0,0.0,2.151452
43.015361,-2.1765,AVIA,0,1,0,0,0.0,0,0,0,0.0,0.559107
43.241444,-2.259444,E.S. ZESTOA-AVIA,0,1,0,0,0.0,0,0,0,0.0,1.820213
42.8635,-2.320361,"ANDAMUR ""SAN ROMAN""",0,1,0,0,0.0,0,0,0,0.0,4.91071
43.186278,-2.671,SHELL,0,1,0,0,0.0,0,0,0,0.0,1.558602
42.876861,-2.616361,REPSOL,0,1,0,0,0.0,0,0,0,0.0,3.922083
43.041944,-2.188333,AVIA,0,1,0,0,0.0,0,0,0,0.0,0.503537
42.755583,-3.04575,AVIA,0,1,0,0,0.0,0,0,0,0.0,0.898875
43.013833,-2.5345,PETRONOR,0,1,0,0,0.0,0,0,0,0.0,1.369952
42.704639,-2.917639,EROSKI,0,1,0,0,0.0,0,0,0,0.0,15.964621
43.276889,-2.022194,EROSKI,0,1,0,0,0.0,0,0,0,0.0,1.287844
43.035056,-2.2175,CARREFOUR,0,1,0,0,0.0,0,0,0,0.0,4.353428
43.314639,-1.876417,CARREFOUR,0,1,0,0,0.0,0,0,0,0.0,1.23377
42.941417,-2.639528,CEPSA,0,1,0,0,0.0,0,0,0,0.0,7.069988
42.635194,-2.849833,REPSOL,0,1,0,0,0.0,0,0,0,0.0,4.500047
43.296222,-1.871833,REPSOL,0,1,0,0,0.0,0,0,0,0.0,0.56966
43.177167,-2.055528,REPSOL,0,1,0,0,0.0,0,0,0,0.0,3.916551
43.065889,-2.163667,REPSOL,0,1,0,0,0.0,0,0,0,0.0,3.938165
42.848944,-2.394583,GALP,0,1,0,0,0.0,0,0,0,0.0,0.620588
43.293806,-2.341111,GALP,0,1,0,0,0.0,0,0,0,0.0,2.78674
43.294167,-2.340833,GALP,0,1,0,0,0.0,0,0,0,0.0,2.788516
43.284944,-2.328222,AVIA,0,1,0,0,0.0,0,0,0,0.0,7.998576
43.284528,-2.329861,AVIA,0,1,0,0,0.0,0,0,0,0.0,8.077653
43.326944,-1.870444,GALP,0,1,0,0,0.0,0,0,0,0.0,0.529093
43.026472,-2.219917,BP OLABERRIA,0,1,0,0,0.0,0,0,0,0.0,0.539158
43.087111,-2.312889,GALP,0,1,0,0,0.0,0,0,0,0.0,0.508542
43.284833,-2.029083,MOEVE,0,1,0,0,0.0,0,0,0,0.0,4.73508
43.286611,-2.031889,MOEVE,0,1,0,0,0.0,0,0,0,0.0,4.677815
42.547639,-2.578806,REPSOL,0,1,0,0,0.0,0,0,0,0.0,1.331252
43.277417,-2.073278,PETRONOR,0,1,0,0,0.0,0,0,0,0.0,1.576956
43.271361,-2.070472,REPSOL,0,1,0,0,0.0,0,0,0,0.0,1.520785
43.034694,-2.332194,CEPSA,0,1,0,0,0.0,0,0,0,0.0,0.52694
43.294833,-2.258083,CEPSA,0,1,0,0,0.0,0,0,0,0.0,3.195962
42.878556,-2.518167,REPSOL,0,1,0,0,0.0,0,0,0,0.0,5.116266
42.966111,-2.870083,PETRONOR,0,1,0,0,0.0,0,0,0,0.0,3.915569
42.966472,-2.873583,REPSOL,0,1,0,0,0.0,0,0,0,0.0,3.914243
42.743111,-2.913306,PETRONOR,0,1,0,0,0.0,0,0,0,0.0,6.259259
42.741361,-2.913222,PETRONOR,0,1,0,0,0.0,0,0,0,0.0,4.075007
42.670222,-2.357278,PETRONOR,0,1,0,0,0.0,0,0,0,0.0,2.974405
42.961583,-2.827722,CEPSA,0,1,0,0,0.0,0,0,0,0.0,4.373088
43.178611,-2.055778,REPSOL,0,1,0,0,0.0,0,0,0,0.0,3.935084
43.312222,-1.879444,REPSOL,0,1,0,0,0.0,0,0,0,0.0,1.234339
43.312139,-1.879528,REPSOL,0,1,0,0,0.0,0,0,0,0.0,1.234773
43.078861,-2.156194,REPSOL,0,1,0,0,0.0,0,0,0,0.0,3.914243
43.316611,-1.852222,MOEVE,0,1,0,0,0.0,0,0,0,0.0,4.720775
43.317611,-1.844528,MOEVE,0,1,0,0,0.0,0,0,0,0.0,0.435968
42.81125,-2.901944,E.S. TOCALU ,0,1,0,0,0.0,0,0,0,0.0,5.667046
43.411583,-2.814667,AVIA,0,1,0,0,0.0,0,0,0,0.0,0.653363
43.209889,-3.124889,EROSKI,0,1,0,0,0.0,0,0,0,0.0,1.413593
43.171889,-2.618111,EROSKI,0,1,0,0,0.0,0,0,0,0.0,2.657533
43.166722,-2.58525,MOEVE,0,1,0,0,0.0,0,0,0,0.0,1.319042
43.212361,-3.126639,MOEVE,0,1,0,0,0.0,0,0,0,0.0,1.413593
43.145611,-2.644972,URKIOIL,0,1,0,0,0.0,0,0,0,0.0,1.394545
43.193861,-2.519028,AVIA,0,1,0,0,0.0,0,0,0,0.0,0.782549
43.292806,-3.01775,BP VALLE DEL TRAPAGA,0,1,0,0,0.0,0,0,0,0.0,5.003416
43.120944,-2.912639,BP BENGOECHEA,0,1,0,0,0.0,0,0,0,0.0,0.812732
43.307861,-2.943556,PETRONOR,0,1,0,0,0.0,0,0,0,0.0,1.72947
43.412306,-2.702944,REPSOL,0,1,0,0,0.0,0,0,0,0.0,0.626119
43.366194,-2.930028,PETRONOR,0,1,0,0,0.0,0,0,0,0.0,0.688446
43.175167,-2.641389,REPSOL,0,1,0,0,0.0,0,0,0,0.0,2.748845
43.318583,-2.876444,PETRONOR,0,1,0,0,0.0,0,0,0,0.0,4.734958
43.259611,-2.523694,PETRONOR,0,1,0,0,0.0,0,0,0,0.0,1.517788
43.18975,-2.894444,PETRONOR,0,1,0,0,0.0,0,0,0,0.0,4.734424
43.190194,-2.897389,PETRONOR,0,1,0,0,0.0,0,0,0,0.0,4.735715
43.390333,-2.943917,REPSOL,0,1,0,0,0.0,0,0,0,0.0,0.639419
43.130583,-2.548889,MOEVE,0,1,0,0,0.0,0,0,0,0.0,5.160379
43.130278,-2.564722,GALP ,0,1,0,0,0.0,0,0,0,0.0,4.958026
43.238139,-3.355694,PETRONOR,0,1,0,0,0.0,0,0,0,0.0,0.764871
43.321861,-3.068056,REPSOL,0,1,0,0,0.0,0,0,0,0.0,4.77461
43.250806,-2.888444,REPSOL,0,1,0,0,0.0,0,0,0,0.0,1.578961
43.250667,-2.889028,REPSOL,0,1,0,0,0.0,0,0,0,0.0,1.548789
43.267,-3.152944,REPSOL,0,1,0,0,0.0,0,0,0,0.0,0.793267
43.204333,-3.047306,PETRONOR,0,1,0,0,0.0,0,0,0,0.0,0.607739
43.280111,-2.495722,PETRONOR,0,1,0,0,0.0,0,0,0,0.0,1.474814
43.29725,-3.0135,PETRONOR,0,1,0,0,0.0,0,0,0,0.0,5.092543
43.3285,-3.068806,PETRONOR,0,1,0,0,0.0,0,0,0,0.0,4.739504
43.327111,-3.067722,PETRONOR,0,1,0,0,0.0,0,0,0,0.0,17.475016
43.163778,-2.777556,AVIA,0,1,0,0,0.0,0,0,0,0.0,1.820855
42.849722,-8.582556,GALP,0,1,0,0,0.0,0,0,0,0.0,11.889924
42.167972,-8.625944,FEGOBLAN SL-VALCARCE,0,1,0,0,0.0,0,0,0,0.0,3.124255
42.156917,-8.665083,SERTUY - SAN COSME - CELA - MOS,0,1,0,0,0.0,0,0,0,0.0,2.429424
43.261944,-8.81925,VALCARCE,0,1,0,0,0.0,0,0,0,0.0,1.459661
42.876194,-7.861972,ULTREYA,0,1,0,0,0.0,0,0,0,0.0,1.907583
42.649639,-7.95325,VALCARCE,0,1,0,0,0.0,0,0,0,0.0,0.10808
42.787361,-9.055806,SHELL,0,1,0,0,0.0,0,0,0,0.0,3.306257
42.728194,-8.301694,MOEVE,0,1,0,0,0.0,0,0,0,0.0,2.666942
43.172722,-7.766167,VALCARCE ,0,1,0,0,0.0,0,0,0,0.0,0.629162
43.193167,-8.728639,REPSOL,0,1,0,0,0.0,0,0,0,0.0,3.747329
43.281222,-8.237417,CARBUGAL CORTIÑAN,0,1,0,0,0.0,0,0,0,0.0,8.162679
42.406667,-7.846389,LATEQUIN,0,1,0,0,0.0,0,0,0,0.0,1.660441
42.185861,-8.611028,EL SOL,0,1,0,0,0.0,0,0,0,0.0,6.273754
42.761889,-7.563444,GALP,0,1,0,0,0.0,0,0,0,0.0,0.706706
42.397361,-7.735417,"ESTACION DE SERVICIO LUINTRA, S.L.",0,1,0,0,0.0,0,0,0,0.0,3.523362
42.142028,-8.462111,LA PARADA - VALCARCE,0,1,0,0,0.0,0,0,0,0.0,7.474409
42.805139,-7.618056,CAMPA,0,1,0,0,0.0,0,0,0,0.0,0.591038
42.95725,-8.751222,CEPSA,0,1,0,0,0.0,0,0,0,0.0,5.328737
42.16675,-8.272528,E.S.VALEIXE,0,1,0,0,0.0,0,0,0,0.0,0.506011
43.253583,-8.363333,ESTACION DE SERVICIO TABEAIO,0,1,0,0,0.0,0,0,0,0.0,6.854204
42.503028,-8.767139,E.S. PEIBAR BARRANTES,0,1,0,0,0.0,0,0,0,0.0,9.760438
42.344972,-7.812389,J.L E HIJOS,0,1,0,0,0.0,0,0,0,0.0,0.940693
42.318278,-7.118583,PETROL LENTELLAIS,0,1,0,0,0.0,0,0,0,0.0,1.21154
42.218333,-8.013389,ESTACIÓN DE SERVICIO OUTOMURO S.L.,0,1,0,0,0.0,0,0,0,0.0,3.609766
42.269806,-7.806028,OURENSANA DE PETROLEOS SL,0,1,0,0,0.0,0,0,0,0.0,2.655838
42.27225,-7.646778,EESS MACEDA,0,1,0,0,0.0,0,0,0,0.0,0.592341
43.406833,-8.168972,COMBUSTIBLES RIO EUME,0,1,0,0,0.0,0,0,0,0.0,8.287712
42.851111,-7.153056,E.S.RUTANCARES S.L.,0,1,0,0,0.0,0,0,0,0.0,0.9645
42.901972,-7.46475,LIBRE,0,1,0,0,0.0,0,0,0,0.0,0.752728
43.084222,-7.605972,Q8,0,1,0,0,0.0,0,0,0,0.0,2.688321
42.034389,-7.973083,REPSOL,0,1,0,0,0.0,0,0,0,0.0,0.689928
42.793361,-8.166444,REPSOL,0,1,0,0,0.0,0,0,0,0.0,0.399753
41.910778,-8.852611,REPSOL,0,1,0,0,0.0,0,0,0,0.0,1.716781
42.084444,-8.496806,MOEVE,0,1,0,0,0.0,0,0,0,0.0,1.587034
42.188778,-7.101333,REPSOL,0,1,0,0,0.0,0,0,0,0.0,0.560093
42.396056,-7.106472,PETROL A RUA,0,1,0,0,0.0,0,0,0,0.0,1.435909
42.340417,-7.260361,REPSOL,0,1,0,0,0.0,0,0,0,0.0,0.952144
42.207083,-8.267611,REPSOL,0,1,0,0,0.0,0,0,0,0.0,1.775616
42.250722,-7.864556,REPSOL,0,1,0,0,0.0,0,0,0,0.0,9.881573
42.215667,-8.268056,REPSOL,0,1,0,0,0.0,0,0,0,0.0,0.354881
42.251056,-7.864722,REPSOL,0,1,0,0,0.0,0,0,0,0.0,9.893165
42.058583,-7.665611,CEPSA,0,1,0,0,0.0,0,0,0,0.0,3.6599
42.358611,-8.628889,CEPSA,0,1,0,0,0.0,0,0,0,0.0,5.925872
42.249944,-7.023444,FINA,0,1,0,0,0.0,0,0,0,0.0,0.757431
42.704444,-8.245722,REPSOL,0,1,0,0,0.0,0,0,0,0.0,0.537737
42.31775,-8.1235,GALP,0,1,0,0,0.0,0,0,0,0.0,1.627507
42.425806,-8.057944,MOEVE,0,1,0,0,0.0,0,0,0,0.0,1.204207
42.127306,-7.950611,GALP,0,1,0,0,0.0,0,0,0,0.0,0.437927
42.5625,-8.671833,REPSOL,0,1,0,0,0.0,0,0,0,0.0,8.323144
42.498528,-8.744972,GALP,0,1,0,0,0.0,0,0,0,0.0,8.537525
42.716389,-8.300833,GALP,0,1,0,0,0.0,0,0,0,0.0,2.277507
42.318052,-7.877994,GALP,0,1,0,0,0.0,0,0,0,0.0,3.248
42.318111,-7.877389,GALP,0,1,0,0,0.0,0,0,0,0.0,3.247632
42.137472,-8.186667,GALP,0,1,0,0,0.0,0,0,0,0.0,1.896646
43.541111,-6.534333,REPSOL,0,1,0,0,0.0,0,0,0,0.0,1.150216
43.412778,-6.157278,REPSOL,0,1,0,0,0.0,0,0,0,0.0,2.550677
43.536417,-6.724611,PETRONOR,0,1,0,0,0.0,0,0,0,0.0,1.409183
43.381722,-4.557444,PETRONOR,0,1,0,0,0.0,0,0,0,0.0,1.775664
43.345139,-5.360667,BP INFIESTO,0,1,0,0,0.0,0,0,0,0.0,1.508996
43.470806,-7.05125,PETRONOR,0,1,0,0,0.0,0,0,0,0.0,1.847283
43.484417,-5.260944,REPSOL,0,1,0,0,0.0,0,0,0,0.0,0.32841
41.433139,1.863806,E.S.GELIDA,0,1,0,0,0.0,0,0,0,0.0,25.14173
43.57125,-5.959278,REPSOL,0,1,0,0,0.0,0,0,0,0.0,3.716808
43.038139,-6.871306,CAMPSA,0,1,0,0,0.0,0,0,0,0.0,1.302738
43.431056,-6.815833,REPSOL,0,1,0,0,0.0,0,0,0,0.0,0.932795
40.900528,-5.203889,MONTE LA REINA,0,1,0,0,0.0,0,0,0,0.0,0.211841
43.514361,-5.819694,PETRONOR,0,1,0,0,0.0,0,0,0,0.0,29.255596
43.511278,-5.817333,PETRONOR,0,1,0,0,0.0,0,0,0,0.0,22.695569
43.288917,-5.633417,ALCAMPO,0,1,0,0,0.0,0,0,0,0.0,3.097967
43.5785,-5.7545,GALP,0,1,0,0,0.0,0,0,0,0.0,4.607454
42.940028,-4.123389,CEPSA,0,1,0,0,0.0,0,0,0,0.0,0.228049
43.398583,-3.365528,VALLE DE LIENDO,0,1,0,0,0.0,0,0,0,0.0,1.889773
43.084528,-7.606361,Q8,0,1,0,0,0.0,0,0,0,0.0,2.68612
43.540278,-7.060222,EROSKI,0,1,0,0,0.0,0,0,0,0.0,2.271188
42.804722,-8.636278,GALP,0,1,0,0,0.0,0,0,0,0.0,8.754508
42.837417,-8.443278,GASOLEOS SAN BENITO,0,1,0,0,0.0,0,0,0,0.0,4.83391
43.439417,-8.155056,CARBUGAL LARAXE,0,1,0,0,0.0,0,0,0,0.0,4.94476
42.800056,-8.856056,BARCIA,0,1,0,0,0.0,0,0,0,0.0,2.105193
43.189611,-8.732278,CARBUGAL CORISTANCO,0,1,0,0,0.0,0,0,0,0.0,3.814847
43.050611,-8.01725,CEPSA,0,1,0,0,0.0,0,0,0,0.0,0.726046
42.5985,-8.942778,REPSOL,0,1,0,0,0.0,0,0,0,0.0,0.672423
43.296722,-7.336389,CEPSA,0,1,0,0,0.0,0,0,0,0.0,0.381237
42.990028,-8.697028,MYG GASOLEOS,0,1,0,0,0.0,0,0,0,0.0,3.256973
43.2135,-8.997389,PETRONOR,0,1,0,0,0.0,0,0,0,0.0,1.211446
42.917722,-9.265167,CAMPSA,0,1,0,0,0.0,0,0,0,0.0,2.591518
43.032611,-9.112972,REPSOL,0,1,0,0,0.0,0,0,0,0.0,2.930886
43.021667,-8.656194,REPSOL,0,1,0,0,0.0,0,0,0,0.0,1.453276
42.781972,-7.898806,REPSOL,0,1,0,0,0.0,0,0,0,0.0,1.700812
42.541278,-7.8125,REPSOL,0,1,0,0,0.0,0,0,0,0.0,0.167937
43.104861,-8.917667,CEPSA,0,1,0,0,0.0,0,0,0,0.0,4.503611
43.010639,-8.430889,CEPSA,0,1,0,0,0.0,0,0,0,0.0,4.038758
43.226444,-8.191583,CEPSA,0,1,0,0,0.0,0,0,0,0.0,10.11227
43.490028,-8.161806,REPSOL,0,1,0,0,0.0,0,0,0,0.0,1.641083
42.960222,-8.646944,REPSOL,0,1,0,0,0.0,0,0,0,0.0,3.247519
43.188806,-8.17525,GALP,0,1,0,0,0.0,0,0,0,0.0,1.328514
42.771667,-9.049167,CEPSA,0,1,0,0,0.0,0,0,0,0.0,3.780299
42.837778,-8.900139,MOEVE,0,1,0,0,0.0,0,0,0,0.0,0.852957
42.838139,-8.900667,MOEVE,0,1,0,0,0.0,0,0,0,0.0,0.851568
43.030139,-7.326361,ESTACION DE SERVICIO LA FORTALEZA,0,1,0,0,0.0,0,0,0,0.0,2.342131
43.121639,-7.069833,REPSOL,0,1,0,0,0.0,0,0,0,0.0,3.277857
43.215694,-7.309028,MOEVE,0,1,0,0,0.0,0,0,0,0.0,5.848168
42.966056,-9.193611,REPSOL,0,1,0,0,0.0,0,0,0,0.0,2.141152
40.322167,-4.198056,GALP,0,1,0,0,0.0,0,0,0,0.0,4.577579
43.355389,-7.775,REPSOL,0,1,0,0,0.0,0,0,0,0.0,1.960524
43.113972,-8.147917,PETRONOR,0,1,0,0,0.0,0,0,0,0.0,3.542513
42.604167,-7.770333,"AMMNSA, S.L.",0,1,0,0,0.0,0,0,0,0.0,0.520837
43.029722,-7.78675,REPSOL,0,1,0,0,0.0,0,0,0,0.0,0.310201
43.243083,-8.894639,REPSOL,0,1,0,0,0.0,0,0,0,0.0,1.148896
42.811361,-9.106333,CEPSA,0,1,0,0,0.0,0,0,0,0.0,4.362977
42.793444,-8.646194,BALLENOIL,0,1,0,0,0.0,0,0,0,0.0,4.050899
42.793417,-8.645361,CEPSA,0,1,0,0,0.0,0,0,0,0.0,9.224863
43.028056,-8.593028,EESSBENZA,0,1,0,0,0.0,0,0,0,0.0,1.939862
43.436167,-8.065056,REPSOL,0,1,0,0,0.0,0,0,0,0.0,2.775728
42.732583,-7.325722,REPSOL,0,1,0,0,0.0,0,0,0,0.0,0.310183
43.490083,-7.284139,GALP,0,1,0,0,0.0,0,0,0,0.0,1.574526
42.731806,-8.985083,MOEVE,0,1,0,0,0.0,0,0,0,0.0,2.44403
43.227806,-8.288444,PETROPRIX,0,1,0,0,0.0,0,0,0,0.0,4.496265
42.712389,-7.765444,VALCARCE,0,1,0,0,0.0,0,0,0,0.0,1.077334
42.910528,-8.955222,CEPSA,0,1,0,0,0.0,0,0,0,0.0,3.332919
43.681694,-7.49325,REPSOL,0,1,0,0,0.0,0,0,0,0.0,1.157259
43.576306,-7.269056,CAMPSA,0,1,0,0,0.0,0,0,0,0.0,3.636556
43.028083,-8.237417,REPSOL,0,1,0,0,0.0,0,0,0,0.0,1.059525
43.001139,-7.234194,CEPSA,0,1,0,0,0.0,0,0,0,0.0,2.529254
42.612528,-7.766,REPSOL,0,1,0,0,0.0,0,0,0,0.0,0.499511
43.538333,-7.05425,REPSOL,0,1,0,0,0.0,0,0,0,0.0,2.256151
43.225778,-8.356222,REPSOL,0,1,0,0,0.0,0,0,0,0.0,6.259892
42.912222,-8.006167,REPSOL,0,1,0,0,0.0,0,0,0,0.0,3.32299
42.930167,-8.144667,REPSOL,0,1,0,0,0.0,0,0,0,0.0,0.36731
43.508861,-8.122528,PETRONOR,0,1,0,0,0.0,0,0,0,0.0,4.540152
43.43325,-7.361861,REPSOL,0,1,0,0,0.0,0,0,0,0.0,0.190229
42.893083,-7.254306,CEPSA-E.S. ROCA,0,1,0,0,0.0,0,0,0,0.0,1.474938
43.351389,-7.191639,REPSOL,0,1,0,0,0.0,0,0,0,0.0,0.969995
43.122306,-7.621028,REPSOL,0,1,0,0,0.0,0,0,0,0.0,0.595524
43.158861,-8.803028,DIGANA,0,1,0,0,0.0,0,0,0,0.0,2.567777
42.777528,-8.406444,PONTEULLA,0,1,0,0,0.0,0,0,0,0.0,2.246877
42.776944,-8.406611,PONTEULLA,0,1,0,0,0.0,0,0,0,0.0,2.244465
42.910083,-8.3585,CEPSA,0,1,0,0,0.0,0,0,0,0.0,1.15727
42.527806,-7.397833,REPSOL,0,1,0,0,0.0,0,0,0,0.0,1.048318
43.179167,-7.879917,REPSOL,0,1,0,0,0.0,0,0,0,0.0,0.646348
42.860889,-8.201306,REPSOL,0,1,0,0,0.0,0,0,0,0.0,0.440599
43.253583,-7.432972,REPSOL,0,1,0,0,0.0,0,0,0,0.0,0.498613
42.91,-8.730667,REPSOL,0,1,0,0,0.0,0,0,0,0.0,1.940957
43.1405,-9.112722,REPSOL,0,1,0,0,0.0,0,0,0,0.0,1.705646
42.995944,-8.911611,REPSOL,0,1,0,0,0.0,0,0,0,0.0,7.409874
43.112,-9.02875,REPSOL,0,1,0,0,0.0,0,0,0,0.0,3.926972
43.539972,-7.241778,REPSOL,0,1,0,0,0.0,0,0,0,0.0,3.078902
42.584889,-7.640694,REPSOL,0,1,0,0,0.0,0,0,0,0.0,0.223279
43.130278,-8.533417,REPSOL,0,1,0,0,0.0,0,0,0,0.0,1.069199
43.341389,-8.203694,REPSOL,0,1,0,0,0.0,0,0,0,0.0,11.073907
43.651333,-7.353889,ENI,0,1,0,0,0.0,0,0,0,0.0,2.867617
42.504861,-7.628056,PETRONOR,0,1,0,0,0.0,0,0,0,0.0,0.500691
42.774028,-8.65125,REPSOL,0,1,0,0,0.0,0,0,0,0.0,10.027997
42.607778,-8.963778,REPSOL,0,1,0,0,0.0,0,0,0,0.0,5.883552
43.157694,-8.00375,REPSOL,0,1,0,0,0.0,0,0,0,0.0,0.866347
43.373222,-8.187972,REPSOL,0,1,0,0,0.0,0,0,0,0.0,12.379191
43.188222,-7.929917,GALP,0,1,0,0,0.0,0,0,0,0.0,4.477725
42.940306,-7.393611,REPSOL,0,1,0,0,0.0,0,0,0,0.0,3.060963
43.18125,-7.967889,DISA_SHELL,0,1,0,0,0.0,0,0,0,0.0,1.701736
42.714833,-8.695889,GALP,0,1,0,0,0.0,0,0,0,0.0,1.289122
43.527139,-8.085083,GALP,0,1,0,0,0.0,0,0,0,0.0,6.956029
43.655528,-7.911556,GALP,0,1,0,0,0.0,0,0,0,0.0,3.532878
43.386833,-8.169194,CC OIL,0,1,0,0,0.0,0,0,0,0.0,3.640555
42.787556,-8.880333,MOEVE,0,1,0,0,0.0,0,0,0,0.0,0.818397
42.289722,-7.816611,STAROIL SAN CIBRAO,0,1,0,0,0.0,0,0,0,0.0,2.640123
42.536194,-8.543778,CEPSA,0,1,0,0,0.0,0,0,0,0.0,3.659488
42.566222,-8.046056,PETRONOR,0,1,0,0,0.0,0,0,0,0.0,1.759258
42.513028,-8.017417,CEPSA,0,1,0,0,0.0,0,0,0,0.0,2.123389
41.911528,-8.0945,REPSOL,0,1,0,0,0.0,0,0,0,0.0,1.413396
42.273139,-8.199083,MOEVE,0,1,0,0,0.0,0,0,0,0.0,0.794889
42.408222,-7.073194,VALCARCE,0,1,0,0,0.0,0,0,0,0.0,3.076524
41.917194,-8.879639,PETRONOR,0,1,0,0,0.0,0,0,0,0.0,1.966424
42.374361,-8.246028,REPSOL,0,1,0,0,0.0,0,0,0,0.0,8.47012
42.038694,-7.009194,CEPSA,0,1,0,0,0.0,0,0,0,0.0,0.888292
42.371167,-7.423694,REPSOL,0,1,0,0,0.0,0,0,0,0.0,0.510444
42.532278,-8.405361,REPSOL,0,1,0,0,0.0,0,0,0,0.0,4.511571
42.532444,-8.40525,REPSOL,0,1,0,0,0.0,0,0,0,0.0,4.508893
42.311667,-7.676111,E.S. ALTO DO COUSO,0,1,0,0,0.0,0,0,0,0.0,0.459502
42.383694,-7.85175,CEPSA,0,1,0,0,0.0,0,0,0,0.0,3.776326
42.762389,-8.024778,REPSOL,0,1,0,0,0.0,0,0,0,0.0,2.548742
42.517833,-8.273944,REPSOL,0,1,0,0,0.0,0,0,0,0.0,2.422754
42.467583,-7.98825,REPSOL,0,1,0,0,0.0,0,0,0,0.0,2.191307
41.988722,-7.603278,PETRONOR,0,1,0,0,0.0,1,1,200,10.8978,2.208472
42.670111,-8.711667,REPSOL,0,1,0,0,0.0,0,0,0,0.0,1.380889
42.031944,-8.883583,REPSOL,0,1,0,0,0.0,0,0,0,0.0,3.15399
42.501889,-8.656444,REPSOL,0,1,0,0,0.0,0,0,0,0.0,1.700544
42.5015,-8.656806,REPSOL,0,1,0,0,0.0,0,0,0,0.0,1.698647
42.632167,-8.563444,REPSOL,0,1,0,0,0.0,0,0,0,0.0,4.256294
42.223889,-8.473917,REPSOL,0,1,0,0,0.0,0,0,0,0.0,0.881513
42.102639,-8.569083,PETRONOR,0,1,0,0,0.0,0,0,0,0.0,5.033342
42.203444,-8.392167,ESTACION DE SERVICIO PARAÑOS,0,1,0,0,0.0,0,0,0,0.0,1.820157
42.019583,-7.608472,REPSOL,0,1,0,0,0.0,0,0,0,0.0,0.222044
42.105444,-8.322472,REPSOL,0,1,0,0,0.0,0,0,0,0.0,0.708194
42.322889,-7.790167,REPSOL,0,1,0,0,0.0,0,0,0,0.0,0.864792
41.951694,-8.029389,REPSOL,0,1,0,0,0.0,0,0,0,0.0,1.856131
42.3185,-8.662806,MOEVE,0,1,0,0,0.0,0,0,0,0.0,19.866543
42.317667,-8.662222,MOEVE,0,1,0,0,0.0,0,0,0,0.0,21.172385
42.193667,-7.794806,GALP,0,1,0,0,0.0,0,0,0,0.0,1.573335
42.187444,-8.044833,MOEVE,0,1,0,0,0.0,0,0,0,0.0,2.199772
42.228556,-7.925861,CEPSA,0,1,0,0,0.0,0,0,0,0.0,3.076563
42.313028,-7.865111,REPSOL,0,1,0,0,0.0,0,0,0,0.0,7.828157
41.98325,-7.541972,GALP,0,1,0,0,0.0,0,0,0,0.0,1.526323
42.193444,-8.651722,MOEVE,0,1,0,0,0.0,0,0,0,0.0,18.623342
42.193861,-8.651694,MOEVE,0,1,0,0,0.0,0,0,0,0.0,23.26371
42.31325,-7.866361,REPSOL,0,1,0,0,0.0,0,0,0,0.0,7.738886
42.712417,-8.651139,ENI,0,1,0,0,0.0,0,0,0,0.0,3.870284
42.59075,-8.588611,REPSOL,0,1,0,0,0.0,0,0,0,0.0,0.97453
42.158778,-7.949639,REPSOL,0,1,0,0,0.0,0,0,0,0.0,1.750326
42.304083,-8.130722,PETRONOR,0,1,0,0,0.0,0,0,0,0.0,3.178245
42.417111,-7.873556,REPSOL,0,1,0,0,0.0,0,0,0,0.0,2.361031
42.057028,-7.148694,REPSOL,0,1,0,0,0.0,0,0,0,0.0,0.164273
43.297944,-4.795833,ESC-PETROLEOS,0,1,0,0,0.0,0,0,0,0.0,0.332119
43.350889,-5.119889,REPSOL,0,1,0,0,0.0,0,0,0,0.0,0.887764
43.277417,-5.617611,REPSOL,0,1,0,0,0.0,0,0,0,0.0,1.658135
43.455917,-5.061389,REPSOL,0,1,0,0,0.0,0,0,0,0.0,2.529717
43.545083,-6.721167,EROSKI,0,1,0,0,0.0,0,0,0,0.0,1.409886
41.939056,-4.5005,IDS,0,1,0,0,0.0,0,0,0,0.0,7.903624
43.546944,-6.217694,REPSOL,0,1,0,0,0.0,0,0,0,0.0,0.067251
43.557583,-6.283778,REPSOL,0,1,0,0,0.0,0,0,0,0.0,1.160469
43.3885,-5.18275,GALP ARRIONDAS,0,1,0,0,0.0,0,0,0,0.0,1.112515
43.544278,-6.783639,REPSOL,0,1,0,0,0.0,0,0,0,0.0,4.640413
43.555028,-6.845083,REPSOL,0,1,0,0,0.0,0,0,0,0.0,1.473121
43.327472,-4.583,REPSOL,0,1,0,0,0.0,0,0,0,0.0,2.168466
43.376639,-6.151944,PETRONOR,0,1,0,0,0.0,0,0,0,0.0,1.128479
43.488611,-6.426667,PANDORA BIOENERGY SL,0,1,0,0,0.0,0,0,0,0.0,1.211359
43.56825,-6.944278,REPSOL,0,1,0,0,0.0,0,0,0,0.0,1.252337
43.365861,-5.271472,REPSOL,0,1,0,0,0.0,0,0,0,0.0,3.445933
43.546333,-6.138361,SOLRAS,0,1,0,0,0.0,0,0,0,0.0,1.369587
43.557306,-5.981028,A. G. ,0,1,0,0,0.0,0,0,0,0.0,3.817582
43.38725,-6.074333,REPSOL,0,1,0,0,0.0,0,0,0,0.0,0.832141
43.543083,-6.412361,CEPSA,0,1,0,0,0.0,0,0,0,0.0,0.174261
43.542694,-6.982472,GALP ,0,1,0,0,0.0,0,0,0,0.0,1.255752
43.543361,-6.982722,CHIQUÍN II,0,1,0,0,0.0,0,0,0,0.0,1.255835
43.542667,-6.023917,BP - CARCEDO - SOTO BARCO,0,1,0,0,0.0,0,0,0,0.0,12.242522
43.271667,-6.614222,PETRONOR,0,1,0,0,0.0,0,0,0,0.0,0.055209
43.412944,-7.148583,PETRONOR,0,1,0,0,0.0,0,0,0,0.0,1.202231
43.249194,-5.568944,CEPSA,0,1,0,0,0.0,0,0,0,0.0,1.608088
43.554528,-6.166056,AVIA,0,1,0,0,0.0,0,0,0,0.0,1.269831
43.358222,-5.497333,GALP,0,1,0,0,0.0,0,0,0,0.0,0.969754
43.533611,-6.570333,GALP,0,1,0,0,0.0,0,0,0,0.0,2.85588
43.171833,-5.742972,GALP,0,1,0,0,0.0,0,0,0,0.0,10.720576
43.408667,-6.258917,GALP,0,1,0,0,0.0,0,0,0,0.0,0.2122
43.373056,-5.546583,GALP,0,1,0,0,0.0,0,0,0,0.0,6.943541
43.393417,-6.063667,CEPSA,0,1,0,0,0.0,0,0,0,0.0,0.833574
43.554833,-5.767861,CEPSA,0,1,0,0,0.0,0,0,0,0.0,7.284087
43.498278,-6.078194,GALP,0,1,0,0,0.0,0,0,0,0.0,1.962419
43.219472,-6.879361,EL SALVADOR,0,1,0,0,0.0,0,0,0,0.0,1.094991
43.541,-6.101111,GALP,0,1,0,0,0.0,0,0,0,0.0,1.542826
43.535,-6.518917,GALP,0,1,0,0,0.0,0,0,0,0.0,0.293784
43.487833,-6.110667,GALP,0,1,0,0,0.0,0,0,0,0.0,1.318509
43.456778,-3.709361,REPSOL,0,1,0,0,0.0,0,0,0,0.0,2.572854
43.396583,-3.787222,CEPSA,0,1,0,0,0.0,0,0,0,0.0,2.195588
43.314472,-4.069278,MEROIL,0,1,0,0,0.0,0,0,0,0.0,1.331949
43.328167,-3.967583,MEROIL,0,1,0,0,0.0,0,0,0,0.0,4.955374
43.320694,-3.867861,REPSOL,0,1,0,0,0.0,0,0,0,0.0,2.360907
43.353889,-4.093056,CEPSA,0,1,0,0,0.0,0,0,0,0.0,2.706934
43.319556,-4.309,E.S. TRECEÑO S.L.,0,1,0,0,0.0,0,0,0,0.0,1.055449
43.37482,-4.496616,COMBUSCAN,0,1,0,0,0.0,0,0,0,0.0,3.023938
43.414194,-3.578556,REPSOL,0,1,0,0,0.0,0,0,0,0.0,4.07667
43.209722,-3.472361,(SIN RÓTULO),0,1,0,0,0.0,0,0,0,0.0,0.266543
43.269333,-4.249639,CEPSA,0,1,0,0,0.0,0,0,0,0.0,1.489432
43.356,-4.094167,CEPSA,0,1,0,0,0.0,0,0,0,0.0,2.677327
43.167083,-4.606194,ESTACION DE SERVICIO LIEBANA S.L,0,1,0,0,0.0,0,0,0,0.0,2.371808
43.426083,-3.522444,REPSOL,0,1,0,0,0.0,0,0,0,0.0,2.535917
43.378278,-4.05975,REPSOL,0,1,0,0,0.0,0,0,0,0.0,5.014295
43.181972,-4.052444,PETRONOR,0,1,0,0,0.0,0,0,0,0.0,0.638786
43.447306,-3.562611,REPSOL,0,1,0,0,0.0,0,0,0,0.0,2.028976
43.395944,-4.155194,CEPSA,0,1,0,0,0.0,0,0,0,0.0,2.095005
43.254194,-4.405361,PETRONOR,0,1,0,0,0.0,0,0,0,0.0,1.218887
43.368611,-4.089444,PETRONOR,0,1,0,0,0.0,0,0,0,0.0,3.925414
43.425833,-3.769333,REPSOL,0,1,0,0,0.0,0,0,0,0.0,4.93131
43.131389,-4.049,PETRONOR,0,1,0,0,0.0,0,0,0,0.0,1.016776
43.388583,-3.687083,REPSOL,0,1,0,0,0.0,0,0,0,0.0,5.719064
43.341889,-3.418167,REPSOL,0,1,0,0,0.0,0,0,0,0.0,0.372269
43.383472,-3.73775,BALLENOIL,0,1,0,0,0.0,0,0,0,0.0,2.408498
43.358278,-3.924083,GALP,0,1,0,0,0.0,0,0,0,0.0,2.476205
43.408472,-3.945806,BALLENOIL,0,1,0,0,0.0,0,0,0,0.0,3.33566
43.394806,-3.458722,PETRONOR,0,1,0,0,0.0,0,0,0,0.0,2.654672
43.388417,-3.685028,REPSOL,0,1,0,0,0.0,0,0,0,0.0,1.85932
43.218333,-3.943222,REPSOL,0,1,0,0,0.0,0,0,0,0.0,1.975773
43.229528,-3.814194,REPSOL,0,1,0,0,0.0,0,0,0,0.0,1.521808
43.469778,-3.56225,CAMPSA,0,1,0,0,0.0,0,0,0,0.0,2.299777
43.387639,-4.279472,REPSOL,0,1,0,0,0.0,0,0,0,0.0,0.877619
43.391056,-3.665,CEPSA,0,1,0,0,0.0,0,0,0,0.0,3.798959
43.397806,-4.049056,REPSOL,0,1,0,0,0.0,0,0,0,0.0,3.821159
43.411417,-3.542028,REPSOL,0,1,0,0,0.0,0,0,0,0.0,6.711929
43.389806,-3.6835,REPSOL,0,1,0,0,0.0,0,0,0,0.0,1.844391
43.331556,-4.0655,REPSOL,0,1,0,0,0.0,0,0,0,0.0,1.314661
43.333972,-4.329278,REPSOL,0,1,0,0,0.0,0,0,0,0.0,11.646967
43.334083,-4.330611,REPSOL,0,1,0,0,0.0,0,0,0,0.0,11.588405
43.327028,-4.191639,REPSOL,0,1,0,0,0.0,0,0,0,0.0,8.867611
43.388361,-4.407833,E.S.SOLBAS,0,1,0,0,0.0,0,0,0,0.0,1.895479
43.420056,-4.039,BALLENOIL,0,1,0,0,0.0,0,0,0,0.0,3.982543
43.391056,-3.665,MOEVE,0,1,0,0,0.0,0,0,0,0.0,3.798959
43.459083,-3.549028,E.S. CARBURANTES DE ARNUERO S.L.,0,1,0,0,0.0,0,0,0,0.0,1.329911
42.380306,-1.552944,AVIA,0,1,0,0,0.0,0,0,0,0.0,1.177453
42.734444,-1.633556,MOEVE,0,1,0,0,0.0,0,0,0,0.0,0.134175
42.581139,-1.285639,AVIA,0,1,0,0,0.0,0,0,0,0.0,0.194958
42.84325,-1.681528,ESTACION DE SERVICIO ARALAR,0,1,0,0,0.0,0,0,0,0.0,0.134292
42.586528,-1.76475,ADELFAS OIL,0,1,0,0,0.0,0,0,0,0.0,2.058635
42.736,-1.633139,BALLENOIL,0,1,0,0,0.0,0,0,0,0.0,0.134413
42.784389,-1.372472,"ESTACION DE SERVICIO AOIZ, S.L.",0,1,0,0,0.0,0,0,0,0.0,0.171129
42.666917,-2.252397,AVIA,0,1,0,0,0.0,0,0,0,0.0,2.641798
42.568333,-2.191722,AVIA,0,1,0,0,0.0,0,0,0,0.0,1.758524
43.136083,-1.680583,AVIA,0,1,0,0,0.0,0,0,0,0.0,0.440125
42.571139,-2.022194,HNOS. FERNANDEZ URABAIN S.L.,0,1,0,0,0.0,0,0,0,0.0,2.339988
42.607389,-2.016806,AVANZA OIL,0,1,0,0,0.0,0,0,0,0.0,2.200638
42.036472,-1.631,Q8,0,1,0,0,0.0,0,0,0,0.0,1.475409
42.9155,-2.183833,IDS,0,1,0,0,0.0,0,0,0,0.0,7.943889
42.734722,-1.633889,IDS,0,1,0,0,0.0,0,0,0,0.0,0.135804
42.891,-2.16075,REPSOL,0,1,0,0,0.0,0,0,0,0.0,6.85098
42.350639,-1.937639,REPSOL,0,1,0,0,0.0,0,0,0,0.0,1.767526
42.136917,-1.699944,REPSOL,0,1,0,0,0.0,0,0,0,0.0,3.603541
43.278278,-1.710056,REPSOL,0,1,0,0,0.0,0,0,0,0.0,0.135178
43.278111,-1.708583,REPSOL,0,1,0,0,0.0,0,0,0,0.0,0.134184
42.167611,-1.593083,E.S.LA RECTA,0,1,0,0,0.0,0,0,0,0.0,0.895957
42.861639,-1.743917,REPSOL,0,1,0,0,0.0,0,0,0,0.0,1.563796
42.983333,-1.630528,CEPSA,0,1,0,0,0.0,0,0,0,0.0,0.165181
42.945722,-1.265667,PETRONOR,0,1,0,0,0.0,0,0,0,0.0,0.175205
42.868083,-1.096694,AVIA,0,1,0,0,0.0,0,0,0,0.0,0.22906
42.771222,-2.130472,PETRONOR,0,1,0,0,0.0,0,0,0,0.0,4.209698
42.350722,-1.650389,MOEVE,0,1,0,0,0.0,0,0,0,0.0,1.220282
42.076944,-1.79675,MOEVE,0,1,0,0,0.0,0,0,0,0.0,1.349635
43.137472,-1.611139,ZONA AUTO MUGAIRE AVIA,0,1,0,0,0.0,0,0,0,0.0,0.210599
43.148639,-1.512361,CAMPSA,0,1,0,0,0.0,0,0,0,0.0,0.153126
42.614194,-1.27825,REPSOL,0,1,0,0,0.0,0,0,0,0.0,0.122573
42.775972,-1.635278,REPSOL,0,1,0,0,0.0,0,0,0,0.0,0.134147
42.776111,-1.634722,REPSOL,0,1,0,0,0.0,0,0,0,0.0,0.410769
43.270833,-1.687167,PETRONOR,0,1,0,0,0.0,0,0,0,0.0,0.139979
42.856083,-1.618917,ARALAR,0,1,0,0,0.0,0,0,0,0.0,0.134144
43.058806,-1.955944,CEPSA,0,1,0,0,0.0,0,0,0,0.0,6.655342
43.059111,-1.957306,CEPSA,0,1,0,0,0.0,0,0,0,0.0,6.300088
42.201611,-1.642861,REPSOL,0,1,0,0,0.0,0,0,0,0.0,0.909509
42.818417,-1.718111,PETRONOR,0,1,0,0,0.0,0,0,0,0.0,0.487953
42.756667,-1.624167,REPSOL,0,1,0,0,0.0,0,0,0,0.0,0.454029
42.89,-2.169028,IZELAI FUEL,0,1,0,0,0.0,0,0,0,0.0,7.016205
42.917667,-2.195389,GALP,0,1,0,0,0.0,0,0,0,0.0,8.939246
42.915306,-2.197889,GALP,0,1,0,0,0.0,0,0,0,0.0,14.058291
41.993278,-1.676361,REPSOL,0,1,0,0,0.0,0,0,0,0.0,1.213553
43.287444,-1.505667,CEPSA,0,1,0,0,0.0,0,0,0,0.0,0.135474
43.033417,-1.983694,REPSOL,0,1,0,0,0.0,0,0,0,0.0,6.026747
42.512583,-2.374028,REPSOL,0,1,0,0,0.0,0,0,0,0.0,7.894903
41.975444,-1.44,EURONOR ENERGY ,0,1,0,0,0.0,0,0,0,0.0,1.406602
42.416556,-2.076861,CEPSA,0,1,0,0,0.0,0,0,0,0.0,1.710181
42.449611,-2.212222,REPSOL,0,1,0,0,0.0,0,0,0,0.0,1.460393
42.173278,-1.699139,ATUGAS,0,1,0,0,0.0,0,0,0,0.0,0.955841
42.400583,-1.964639,COMBUSTIBLES PIUDO,0,1,0,0,0.0,0,0,0,0.0,2.379253
43.109083,-1.283028,ZONA AUTO LUAIDE AVIA,0,1,0,0,0.0,0,0,0,0.0,0.127778
42.831361,-1.585417,BP HUARTE,0,1,0,0,0.0,0,0,0,0.0,0.135134
42.937167,-1.503167,JOSENEA ZUBIRI AVIA,0,1,0,0,0.0,0,0,0,0.0,0.124325
42.029556,-1.516056,PETRONOR,0,1,0,0,0.0,0,0,0,0.0,1.41263
42.9125,-1.863028,REPSOL,0,1,0,0,0.0,0,0,0,0.0,8.240708
42.8355,-1.653361,REPSOL,0,1,0,0,0.0,0,0,0,0.0,0.134186
43.084972,-1.922278,CAMPSA,0,1,0,0,0.0,0,0,0,0.0,1.862064
43.155889,-1.670167,E.S. KONTXA S.L.,0,1,0,0,0.0,0,0,0,0.0,0.231637
41.227694,-0.029944,"GANAR, S. COOP.",0,1,0,0,0.0,0,0,0,0.0,0.532966
40.529083,-1.025306,E.S DE ALFAMBRA,0,1,0,0,0.0,0,0,0,0.0,3.910409
41.58575,-1.099611,SHELL,0,1,0,0,0.0,0,0,0,0.0,18.851128
41.605944,0.269639,CEPSA,0,1,0,0,0.0,0,0,0,0.0,0.408974
41.624333,0.194139,CEPSA,0,1,0,0,0.0,0,0,0,0.0,1.491474
42.254083,0.731861,ESTACION SERVICIO BONET SL,0,1,0,0,0.0,0,0,0,0.0,2.290211
41.414806,-1.516972,MLC ALUENDA,0,1,0,0,0.0,0,0,0,0.0,3.440848
41.475944,-0.153111,BONAREA,0,1,0,0,0.0,0,0,0,0.0,0.703058
42.274861,-0.685917,"LABOIL, S.L.",0,1,0,0,0.0,0,0,0,0.0,0.815918
41.863667,0.419222,ESC,0,1,0,0,0.0,0,0,0,0.0,0.513708
42.446444,0.132528,ESTACION DE SERVICIO RV,0,1,0,0,0.0,0,0,0,0.0,0.358589
41.477278,-1.379333,COSANSE,0,1,0,0,0.0,0,0,0,0.0,3.367496
41.59475,-1.274806,E.S.EPILA,0,1,0,0,0.0,0,0,0,0.0,4.153486
41.579444,-1.113083,E.S.LA MUELA,0,1,0,0,0.0,0,0,0,0.0,14.492978
42.142972,-0.325167,GALP,0,1,0,0,0.0,0,0,0,0.0,11.715251
42.773972,-0.367806,REPSOL,0,1,0,0,0.0,0,0,0,0.0,0.102702
41.672583,0.188167,REPSOL-E.S.JAIME I,0,1,0,0,0.0,0,0,0,0.0,0.17792
41.827972,0.311167,REPSOL,0,1,0,0,0.0,0,0,0,0.0,0.310409
42.188222,0.337861,"LABOIL, S.L.",0,1,0,0,0.0,0,0,0,0.0,0.435391
41.413417,0.332806,REPSOL,0,1,0,0,0.0,0,0,0,0.0,3.015945
42.630222,-0.326889,REPSOL,0,1,0,0,0.0,0,0,0,0.0,0.80386
42.584167,0.212917,REPSOL,0,1,0,0,0.0,0,0,0,0.0,0.92608
42.315778,0.56475,REPSOL,0,1,0,0,0.0,0,0,0,0.0,0.178664
41.978278,0.490083,MOEVE (ANTERIORMENTE CEPSA) PENDIENTE DE CANVIAR TODA LA IMAGEN,0,1,0,0,0.0,0,0,0,0.0,2.285879
42.740833,-0.748278,MOEVE,0,1,0,0,0.0,0,0,0,0.0,0.870625
42.723056,-0.524528,MOEVE,0,1,0,0,0.0,0,0,0,0.0,1.728355
42.606472,-0.123389,REPSOL,0,1,0,0,0.0,0,0,0,0.0,1.121744
42.66125,0.2095,REPSOL,0,1,0,0,0.0,0,0,0,0.0,1.401498
42.123722,-0.271806,REPSOL,0,1,0,0,0.0,0,0,0,0.0,1.171047
42.716,-0.308444,REPSOL,0,1,0,0,0.0,0,0,0,0.0,0.307071
42.4155,0.141028,CEPSA,0,1,0,0,0.0,0,0,0,0.0,0.284708
41.7145,-0.049111,CEPSA,0,1,0,0,0.0,0,0,0,0.0,1.318279
42.556611,-0.786556,CEPSA,0,1,0,0,0.0,0,0,0,0.0,1.191221
41.939611,-0.369333,REPSOL,0,1,0,0,0.0,0,0,0,0.0,0.437366
41.845722,0.295694,REPSOL,0,1,0,0,0.0,0,0,0,0.0,0.314517
41.721833,0.146667,REPSOL,0,1,0,0,0.0,0,0,0,0.0,0.144525
41.792333,-0.153222,REPSOL,0,1,0,0,0.0,0,0,0,0.0,2.441228
42.052139,-0.015222,REPSOL,0,1,0,0,0.0,0,0,0,0.0,6.985905
41.769472,-0.327639,REPSOL,0,1,0,0,0.0,0,0,0,0.0,2.017587
42.055083,0.239861,REPSOL  ,0,1,0,0,0.0,0,0,0,0.0,0.968763
42.677667,-0.538194,REPSOL,0,1,0,0,0.0,0,0,0,0.0,0.462515
42.402417,0.396917,REPSOL,0,1,0,0,0.0,0,0,0,0.0,0.781272
41.992,-0.667444,REPSOL,0,1,0,0,0.0,0,0,0,0.0,4.20913
42.036194,-0.575528,REPSOL,0,1,0,0,0.0,0,0,0,0.0,0.41096
42.140611,0.225944,REPSOL,0,1,0,0,0.0,0,0,0,0.0,0.434633
41.950139,0.153611,MOEVE-E.S.JAIME I,0,1,0,0,0.0,0,0,0,0.0,1.090339
41.518139,0.042028,GALP,0,1,0,0,0.0,0,0,0,0.0,34.714478
41.518222,0.039361,GALP,0,1,0,0,0.0,0,0,0,0.0,35.489233
41.170611,-0.442194,Q8,0,1,0,0,0.0,0,0,0,0.0,1.746223
41.028194,-0.806722,GASOLEOS TERUEL,0,1,0,0,0.0,0,0,0,0.0,0.297668
41.738667,-0.844917,IDS,0,1,0,0,0.0,0,0,0,0.0,13.991978
40.482583,-1.251333,MOEVE,0,1,0,0,0.0,0,0,0,0.0,1.602732
40.802472,-0.837611,REPSOL,0,1,0,0,0.0,0,0,0,0.0,0.663663
41.249056,-0.067917,REPSOL,0,1,0,0,0.0,0,0,0,0.0,0.142063
41.736972,-1.066694,E.S. LA JOYOSA,0,1,0,0,0.0,0,0,0,0.0,14.746789
41.450694,-1.346556,AREA-220,0,1,0,0,0.0,0,0,0,0.0,3.570675
41.840056,-1.419444,REPSOL,0,1,0,0,0.0,0,0,0,0.0,3.58055
41.524333,-1.273361,REPSOL,0,1,0,0,0.0,0,0,0,0.0,9.839333
41.5165,-1.288111,REPSOL,0,1,0,0,0.0,0,0,0,0.0,8.798638
41.305917,-1.964361,AVIA,0,1,0,0,0.0,0,0,0,0.0,4.348067
41.681361,-0.780861,REPSOL,0,1,0,0,0.0,0,0,0,0.0,6.22248
41.521917,-1.599833,REPSOL,0,1,0,0,0.0,0,0,0,0.0,1.140532
40.946639,-0.230444,CEPSA,0,1,0,0,0.0,0,0,0,0.0,1.90704
40.788111,-0.035556,REPSOL,0,1,0,0,0.0,0,0,0,0.0,0.831614
41.466056,-1.787278,PETRONOR,0,1,0,0,0.0,0,0,0,0.0,1.532819
40.547639,-1.651944,E.S.ORIHUELA DEL TREMEDAL,0,1,0,0,0.0,0,0,0,0.0,0.162408
40.824694,-0.201611,E.S. AGUAVIVA,0,1,0,0,0.0,0,0,0,0.0,0.618532
41.212833,-1.788167,MONTEPIEDRA,0,1,0,0,0.0,0,0,0,0.0,1.006266
41.483222,-1.371528,REPSOL,0,1,0,0,0.0,0,0,0,0.0,1.320776
40.19075,-0.655917,REPSOL,0,1,0,0,0.0,0,0,0,0.0,0.675869
40.149639,-0.823556,REPSOL,0,1,0,0,0.0,0,0,0,0.0,0.294162
41.640722,-0.754611,REPSOL,0,1,0,0,0.0,0,0,0,0.0,11.80186
41.640639,-0.754694,REPSOL,0,1,0,0,0.0,0,0,0,0.0,11.801564
40.438083,-0.848861,CEPSA,0,1,0,0,0.0,0,0,0,0.0,1.648962
41.834472,-1.32,REPSOL,0,1,0,0,0.0,0,0,0,0.0,5.142958
41.832972,-1.319722,REPSOL,0,1,0,0,0.0,0,0,0,0.0,5.146378
41.730583,-1.031417,PETRONOR,0,1,0,0,0.0,0,0,0,0.0,5.902247
41.731639,-1.029833,REPSOL,0,1,0,0,0.0,0,0,0,0.0,5.905802
41.128361,-0.510583,MOEVE,0,1,0,0,0.0,0,0,0,0.0,0.7476
40.913361,-1.298306,REPSOL,0,1,0,0,0.0,0,0,0,0.0,0.452935
42.283333,-1.272111,COOP SAN JOSE - SÁDABA,0,1,0,0,0.0,0,0,0,0.0,2.20325
41.766806,-1.1265,REPSOL,0,1,0,0,0.0,0,0,0,0.0,3.734826
40.831417,-0.798167,REPSOL,0,1,0,0,0.0,0,0,0,0.0,0.933143
41.514972,-0.63675,REPSOL,0,1,0,0,0.0,0,0,0,0.0,0.325167
41.432722,-0.504083,REPSOL,0,1,0,0,0.0,0,0,0,0.0,2.469389
40.627667,-1.000472,GASOLEOS TERUEL,0,1,0,0,0.0,0,0,0,0.0,2.716933
40.750583,-1.333361,REPSOL,0,1,0,0,0.0,0,0,0,0.0,4.633517
41.761639,-1.149528,REPSOL,0,1,0,0,0.0,0,0,0,0.0,11.502988
41.761111,-1.149389,REPSOL,0,1,0,0,0.0,0,0,0,0.0,10.769568
40.365861,-0.706083,GALP,0,1,0,0,0.0,0,0,0,0.0,1.377039
40.78275,-1.346972,REPSOL,0,1,0,0,0.0,0,0,0,0.0,0.303539
41.925278,-1.254972,REPSOL,0,1,0,0,0.0,0,0,0,0.0,0.97946
41.219833,-0.469806,REPSOL,0,1,0,0,0.0,0,0,0,0.0,1.401518
41.117167,-1.406028,REPSOL,0,1,0,0,0.0,0,0,0,0.0,0.525709
41.761472,-0.831278,REPSOL,0,1,0,0,0.0,0,0,0,0.0,10.265785
41.857,-0.794,REPSOL,0,1,0,0,0.0,0,0,0,0.0,0.504625
40.831472,-0.24025,CAMPSA,0,1,0,0,0.0,0,0,0,0.0,0.654036
41.523639,-1.348194,CALATORAO ES,0,1,0,0,0.0,0,0,0,0.0,1.563867
41.259111,-0.869,CEPSA,0,1,0,0,0.0,0,0,0,0.0,0.253206
41.335639,-1.219639,MOEVE,0,1,0,0,0.0,0,0,0,0.0,0.432706
41.350472,-1.038972,CEPSA,0,1,0,0,0.0,0,0,0,0.0,1.224458
41.322528,-0.343889,CEPSA,0,1,0,0,0.0,0,0,0,0.0,0.594216
41.846111,-1.355389,AVIA,0,1,0,0,0.0,0,0,0,0.0,6.290932
42.260639,-1.194694,MOEVE,0,1,0,0,0.0,0,0,0,0.0,3.952184
41.540417,-1.233833,MOEVE,0,1,0,0,0.0,0,0,0,0.0,9.769888
41.235944,-0.04375,CEPSA,0,1,0,0,0.0,0,0,0,0.0,0.344228
41.74825,-0.639972,SIN ROTULO,0,1,0,0,0.0,0,0,0,0.0,6.797715
41.483056,-1.379361,MOEVE,0,1,0,0,0.0,0,0,0,0.0,3.100126
41.311611,-2.002722,MOEVE,0,1,0,0,0.0,0,0,0,0.0,5.844633
41.312611,-2.001333,MOEVE,0,1,0,0,0.0,0,0,0,0.0,4.349254
41.531944,-1.618056,CEPSA,0,1,0,0,0.0,0,0,0,0.0,0.66913
41.50175,-1.32125,BP,0,1,0,0,0.0,0,0,0,0.0,1.454566
41.605778,-1.077278,MOEVE,0,1,0,0,0.0,0,0,0,0.0,23.655372
40.894278,-0.377333,REPSOL,0,1,0,0,0.0,0,0,0,0.0,0.391295
41.016083,0.192972,REPSOL,0,1,0,0,0.0,0,0,0,0.0,0.684445
40.872528,0.150917,CEPSA,0,1,0,0,0.0,0,0,0,0.0,0.422433
40.982278,-0.447833,REPSOL,0,1,0,0,0.0,0,0,0,0.0,0.350949
40.564778,-1.2855,REPSOL,0,1,0,0,0.0,0,0,0,0.0,0.640793
41.309667,-0.742333,REPSOL,0,1,0,0,0.0,0,0,0,0.0,0.548859
41.208861,-0.710861,ES NTRA SRA OLIVAR,0,1,0,0,0.0,0,0,0,0.0,0.319376
41.539889,-0.996556,REPSOL,0,1,0,0,0.0,0,0,0,0.0,1.67498
41.836167,-1.177194,REPSOL,0,1,0,0,0.0,0,0,0,0.0,2.305957
42.490944,-1.215111,"AN ENERGETICOS S,L - SOS DEL REY CATOLICO",0,1,0,0,0.0,0,0,0,0.0,0.227142
41.302944,-1.945833,REPSOL,0,1,0,0,0.0,0,0,0,0.0,6.83585
41.303611,-1.946278,REPSOL,0,1,0,0,0.0,0,0,0,0.0,6.147077
40.680528,-0.696056,REPSOL,0,1,0,0,0.0,0,0,0,0.0,0.090067
41.492778,-0.520222,REPSOL,0,1,0,0,0.0,0,0,0,0.0,0.715693
41.665806,-1.239167,REPSOL,0,1,0,0,0.0,0,0,0,0.0,3.775332
41.436444,-1.24025,PETRONOR,0,1,0,0,0.0,0,0,0,0.0,1.259254
41.637972,-0.419389,REPSOL,0,1,0,0,0.0,0,0,0,0.0,2.881715
40.508333,-0.407417,PETRONOR,0,1,0,0,0.0,0,0,0,0.0,2.382231
41.762833,-1.475639,REPSOL,0,1,0,0,0.0,0,0,0,0.0,0.938829
41.583361,-0.774694,REPSOL,0,1,0,0,0.0,0,0,0,0.0,6.014403
41.984528,1.556083,PETROLIS DE BARCELONA,0,1,0,0,0.0,0,0,0,0.0,3.483685
42.406889,2.8785,TORTUGA,0,1,0,0,0.0,0,0,0,0.0,7.858908
41.655,1.421944,E.S. SANT GUIM,0,1,0,0,0.0,0,0,0,0.0,1.403305
41.564333,0.78825,GALP,0,1,0,0,0.0,0,0,0,0.0,3.386129
42.364444,1.681139,BENZINERA MARTINET,0,1,0,0,0.0,0,0,0,0.0,0.991892
42.14725,0.893667,BONAREA,0,1,0,0,0.0,0,0,0,0.0,0.601591
42.032056,2.362917,PETROVOLTREGÀ - ÀREA DEL COLLSACABRA,0,1,0,0,0.0,0,0,0,0.0,1.405538
41.807833,1.403056,BONAREA,0,1,0,0,0.0,0,0,0,0.0,1.391639
41.612111,1.129444,BONAREA,0,1,0,0,0.0,0,0,0,0.0,3.81663
42.700222,0.862583,MOEVE,0,1,0,0,0.0,0,0,0,0.0,0.578383
41.853611,2.360056,SIN ROTULO,0,1,0,0,0.0,0,0,0,0.0,5.351002
41.793,0.573111,E.S. SEGRIÀ,0,1,0,0,0.0,0,0,0,0.0,1.584834
41.810694,1.40225,E.S.MAS,0,1,0,0,0.0,0,0,0,0.0,1.406095
41.583806,2.255972,EASYGAS,0,1,0,0,0.0,0,0,0,0.0,18.643849
41.8895,1.050194,FARRE OIL,0,1,0,0,0.0,0,0,0,0.0,2.751828
41.687917,0.633,PONENT ENERGIA,0,1,0,0,0.0,0,0,0,0.0,1.412035
42.160306,1.85775,PETROMIRALLES,0,1,0,0,0.0,0,0,0,0.0,0.374981
42.020124,2.823503,PETREM,0,1,0,0,0.0,0,0,0,0.0,3.593882
42.380333,2.890583,SHELL,0,1,0,0,0.0,0,0,0,0.0,2.181463
41.358,1.752167,SHELL,0,1,0,0,0.0,0,0,0,0.0,8.596199
42.096722,2.222861,NADA ,0,1,0,0,0.0,0,0,0,0.0,3.262604
41.781917,1.278167,BONAREA,0,1,0,0,0.0,0,0,0,0.0,3.496615
41.67125,2.217222,ESTACIO SERVEI BIGUES I RIELLS,0,1,0,0,0.0,0,0,0,0.0,6.545769
41.808722,2.106667,BONAREA,0,1,0,0,0.0,0,0,0,0.0,4.450571
42.402972,2.878639,"ANDAMUR ""LA JONQUERA""",0,1,0,0,0.0,0,0,0,0.0,2.343134
41.883528,2.283806,"AREA DE SERVEIS TARADELL,SL",0,1,0,0,0.0,0,0,0,0.0,5.78863
41.490972,1.513444,PETROMIRALLES,0,1,0,0,0.0,0,0,0,0.0,1.783787
42.204306,2.5385,PANAWAY ROAD,0,1,0,0,0.0,0,0,0,0.0,8.481649
41.622444,2.574889,CARBURANTS SANT ISCLE,0,1,0,0,0.0,0,0,0,0.0,33.242992
41.716028,0.762639,E.S.TERMENS,0,1,0,0,0.0,0,0,0,0.0,4.472438
42.370278,1.78,ANEU OIL ,0,1,0,0,0.0,0,0,0,0.0,1.813649
42.577139,1.139194,MOEVE,0,1,0,0,0.0,0,0,0,0.0,0.34806
41.532889,0.842694,BONAREA,0,1,0,0,0.0,0,0,0,0.0,3.273238
41.563944,0.788028,GALP,0,1,0,0,0.0,0,0,0,0.0,3.385417
41.795,1.946806,MEROIL,0,1,0,0,0.0,0,0,0,0.0,2.024054
41.853056,2.435917,ZONA DIESEL ,0,1,0,0,0.0,0,0,0,0.0,58.666205
41.3655,1.985083,BONAREA,0,1,0,0,0.0,0,0,0,0.0,8.207386
41.538639,1.393167,COPERAL,0,1,0,0,0.0,0,0,0,0.0,1.274463
42.381222,2.889167,SHELL,0,1,0,0,0.0,0,0,0,0.0,2.181723
41.356889,1.752694,SHELL,0,1,0,0,0.0,0,0,0,0.0,8.598
42.423056,1.922,MEROIL,0,1,0,0,0.0,0,0,0,0.0,3.158128
42.004194,2.242389,GALP,0,1,0,0,0.0,0,0,0,0.0,1.133845
41.814361,0.635944,ES ALGERRI,0,1,0,0,0.0,0,0,0,0.0,0.833394
41.757139,2.120167,PORBOL,0,1,0,0,0.0,0,0,0,0.0,4.719672
41.632889,2.704111,BENZINERA SANTA SUSANNA,0,1,0,0,0.0,0,0,0,0.0,6.894461
42.410333,2.876306,GALP,0,1,0,0,0.0,0,0,0,0.0,2.345626
41.74475,1.858,E.S. ROSALEDA  -ST. FRUITOS DE BAGES-     GASOILS ROVIRA,0,1,0,0,0.0,0,0,0,0.0,1.982807
41.568722,0.5365,Q8,0,1,0,0,0.0,0,0,0,0.0,2.187556
42.033722,2.899889,Q8,0,1,0,0,0.0,0,0,0,0.0,2.341599
42.053028,2.544889,Q8,0,1,0,0,0.0,0,0,0,0.0,2.208005
41.984556,2.310056,FEIXAS AULET,0,1,0,0,0.0,0,0,0,0.0,3.389014
41.984528,2.310028,FEIXAS AULET ,0,1,0,0,0.0,0,0,0,0.0,3.389014
41.322694,1.718667,PETROCAT DIRECTE,0,1,0,0,0.0,0,0,0,0.0,19.481343
41.323389,1.718806,PETROCAT DIRECTE,0,1,0,0,0.0,0,0,0,0.0,22.107025
41.83475,2.273111,BLANCA,0,1,0,0,0.0,0,0,0,0.0,5.596907
41.882028,2.243583,ESCLATOIL,0,1,0,0,0.0,0,0,0,0.0,5.535043
41.758611,2.396361,BLANCA,0,1,0,0,0.0,0,0,0,0.0,4.975853
41.354889,1.739167,CARREFOUR,0,1,0,0,0.0,0,0,0,0.0,8.284546
41.750556,1.862139,CARREFOUR,0,1,0,0,0.0,0,0,0,0.0,4.504573
41.6125,1.888889,CEPSA,0,1,0,0,0.0,0,0,0,0.0,19.83021
41.611139,1.891361,CEPSA,0,1,0,0,0.0,0,0,0,0.0,19.803624
41.327611,1.945472,BP BEGUES,0,1,0,0,0.0,0,0,0,0.0,2.150403
41.332667,1.683139,Q8,0,1,0,0,0.0,0,0,0,0.0,13.473318
41.958167,2.634361,SHELL,0,1,0,0,0.0,0,0,0,0.0,2.478988
42.030917,2.88675,SHELL,0,1,0,0,0.0,0,0,0,0.0,2.504666
41.788139,0.82675,GADCAR,0,1,0,0,0.0,0,0,0,0.0,4.130617
42.221,2.82375,CEPSA,0,1,0,0,0.0,0,0,0,0.0,3.026522
41.967528,3.031222,CONDIS,0,1,0,0,0.0,0,0,0,0.0,2.419034
41.650833,0.898806,IDS,0,1,0,0,0.0,0,0,0,0.0,12.009442
41.967583,3.031139,Q8,0,1,0,0,0.0,0,0,0,0.0,2.419504
42.155417,2.465361,Q8,0,1,0,0,0.0,0,0,0,0.0,1.597587
41.628333,0.908972,PETROLIS INDEPENDENTS - PETRO7 ,0,1,0,0,0.0,0,0,0,0.0,12.063065
41.853028,0.95675,SEROIL ENERGY,0,1,0,0,0.0,0,0,0,0.0,4.080431
41.313861,1.652389,PINS OIL,0,1,0,0,0.0,0,0,0,0.0,8.298012
42.028972,3.065417,REPSOL,0,1,0,0,0.0,0,0,0,0.0,0.773008
41.754333,0.915694,REPSOL,0,1,0,0,0.0,0,0,0,0.0,4.161723
42.165083,2.745139,REPSOL,0,1,0,0,0.0,0,0,0,0.0,1.677132
42.310111,3.1265,REPSOL,0,1,0,0,0.0,0,0,0,0.0,0.553513
41.880222,0.878778,SEGRE OIL,0,1,0,0,0.0,0,0,0,0.0,3.178202
41.719972,2.148694,U.S. SANT QUIRZE SAFAJA  -GASOILS ROVIRA AUTOSERVEI-,0,1,0,0,0.0,0,0,0,0.0,5.796766
42.0045,3.145944,PETROCAT,0,1,0,0,0.0,0,0,0,0.0,1.955837
41.576194,2.222583,REPSOL,0,1,0,0,0.0,0,0,0,0.0,6.776267
41.511278,2.361389,REPSOL,0,1,0,0,0.0,0,0,0,0.0,53.782249
41.378417,1.730361,REPSOL,0,1,0,0,0.0,0,0,0,0.0,3.113635
41.377889,1.730583,REPSOL,0,1,0,0,0.0,0,0,0,0.0,3.110393
41.661917,1.201,DST,0,1,0,0,0.0,0,0,0,0.0,10.931565
41.990167,2.768306,PETRONOR,0,1,0,0,0.0,0,0,0,0.0,2.994088
41.664778,2.269667,PETROCAT,0,1,0,0,0.0,0,0,0,0.0,14.735263
42.025389,2.865167,REPSOL,0,1,0,0,0.0,0,0,0,0.0,2.356349
41.785639,2.761694,GALP,0,1,0,0,0.0,0,0,0,0.0,17.953555
42.259583,3.048472,GALP,0,1,0,0,0.0,0,0,0,0.0,2.74028
41.6425,0.894917,REPSOL,0,1,0,0,0.0,0,0,0,0.0,14.780923
41.666028,1.211083,REPSOL,0,1,0,0,0.0,0,0,0,0.0,12.348935
41.536889,1.679778,PETRONOR,0,1,0,0,0.0,0,0,0,0.0,5.50631
41.841611,2.698528,PETROSELVA,0,1,0,0,0.0,0,0,0,0.0,5.490618
41.844361,2.694944,PETROSELVA,0,1,0,0,0.0,0,0,0,0.0,5.569106
41.815806,2.89925,REPSOL,0,1,0,0,0.0,0,0,0,0.0,14.890303
41.66825,2.716333,CEPSA,0,1,0,0,0.0,0,0,0,0.0,27.105271
42.215194,2.947806,AOIL,0,1,0,0,0.0,0,0,0,0.0,1.382822
42.212111,1.33025,PETRONOR,0,1,0,0,0.0,0,0,0,0.0,1.803447
41.907389,2.661139,REPSOL,0,1,0,0,0.0,0,0,0,0.0,3.266258
41.615528,2.137083,REPSOL,0,1,0,0,0.0,0,0,0,0.0,11.372348
41.401694,1.704667,MEROIL,0,1,0,0,0.0,0,0,0,0.0,7.987857
42.417083,2.872,GALP,0,1,0,0,0.0,0,0,0,0.0,2.336121
41.531,2.420278,REPSOL,0,1,0,0,0.0,0,0,0,0.0,13.903921
41.809889,1.899389,"SALLENT DE SERVEIS, S.L.",0,1,0,0,0.0,0,0,0,0.0,13.14704
41.283306,1.723917,MOEVE,0,1,0,0,0.0,0,0,0,0.0,19.349563
41.928861,2.298444,REPSOL,0,1,0,0,0.0,0,0,0,0.0,19.771293
41.796528,1.999861,ES CALDERS,0,1,0,0,0.0,0,0,0,0.0,2.25967
42.2265,1.745389,REPSOL,0,1,0,0,0.0,0,0,0,0.0,0.259465
41.748833,2.262694,PETROCAT,0,1,0,0,0.0,0,0,0,0.0,18.935493
39.2115,-0.529944,CANSO CARBUANTES BENIMODO,0,1,0,0,0.0,0,0,0,0.0,11.087108
39.726,-0.833944,(SIN RÓTULO),0,1,0,0,0.0,0,0,0,0.0,0.079953
39.583417,-1.363111,(SIN RÓTULO),0,1,0,0,0.0,0,0,0,0.0,0.71746
39.420778,-0.37375,EXOIL PISTA DE SILLA,0,1,0,0,0.0,0,0,0,0.0,6.394866
38.462861,-0.782611,E.S. PETRER-ELDA,0,1,0,0,0.0,0,0,0,0.0,16.339654
38.131278,-0.775194,MAYAYO,0,1,0,0,0.0,0,0,0,0.0,1.838805
38.779222,-0.801361,GRUPO CIRUGEDA COLOM SL ,0,1,0,0,0.0,0,0,0,0.0,0.945241
39.279111,-0.567194,ESTACIO DE SERVICI EL REGAIXO,0,1,0,0,0.0,0,0,0,0.0,4.11674
39.348278,-0.611194,BON SERVICI,0,1,0,0,0.0,0,0,0,0.0,3.691625
39.162806,-0.518806,RIBERCOST,0,1,0,0,0.0,0,0,0,0.0,36.650918
39.659861,-0.516833,   ES J NUÑEZ ,0,1,0,0,0.0,0,0,0,0.0,5.65915
38.518611,-0.909722,MEROIL,0,1,0,0,0.0,0,0,0,0.0,3.956193
38.701889,-0.76775,COOPERATIVA DIVINA AURORA,0,1,0,0,0.0,0,0,0,0.0,2.742688
39.697528,-0.863833,GASOLINERA GALMAR,0,1,0,0,0.0,0,0,0,0.0,3.288881
38.277611,-0.920417,SANTA CRUZ,0,1,0,0,0.0,0,0,0,0.0,2.816985
38.167583,-0.803306,BRIOGAS,0,1,0,0,0.0,0,0,0,0.0,13.33619
39.706611,-0.348028,SEL,0,1,0,0,0.0,0,0,0,0.0,9.484707
39.055556,-1.056167,LA AYORENSE CARBURANTES,0,1,0,0,0.0,0,0,0,0.0,1.543444
39.609083,-0.773389,(SIN RÓTULO),0,1,0,0,0.0,0,0,0,0.0,1.554614
39.273778,-0.374694,"E.S. MIDES, S.L.",0,1,0,0,0.0,0,0,0,0.0,2.358081
39.510472,-0.359528,S2,0,1,0,0,0.0,0,0,0,0.0,6.171548
39.427556,-0.682944,(SIN RÓTULO),0,1,0,0,0.0,0,0,0,0.0,8.490647
38.9405,-0.360389,CARBURANTS+DEL+CAMP+DE+LLUTXENT,0,1,0,0,0.0,0,0,0,0.0,2.261238
39.60875,-0.575583,COOPERATIVA DE BENISANO,0,1,0,0,0.0,0,0,0,0.0,5.790013
39.410444,-0.388,COOP.+SAN+PEDRO,0,1,0,0,0.0,0,0,0,0.0,56.459624
38.156,-0.889806,GALP,0,1,0,0,0.0,0,0,0,0.0,1.35132
38.48825,-0.773306,CARREFOUR,0,1,0,0,0.0,0,0,0,0.0,19.711558
38.537389,-0.175167,CARREFOUR,0,1,0,0,0.0,0,0,0,0.0,2.362041
39.8155,-0.230278,VCC LA VALL,0,1,0,0,0.0,0,0,0,0.0,1.527693
40.361139,0.397111,REPSOL,0,1,0,0,0.0,0,0,0,0.0,0.671254
41.802611,-1.256278,REPSOL,0,1,0,0,0.0,0,0,0,0.0,4.451439
41.606417,-0.691639,REPSOL,0,1,0,0,0.0,0,0,0,0.0,2.433013
41.606806,-0.691167,REPSOL,0,1,0,0,0.0,0,0,0,0.0,2.432891
41.738306,-1.076389,REPSOL,0,1,0,0,0.0,0,0,0,0.0,16.940673
41.6155,-1.058833,GALP,0,1,0,0,0.0,0,0,0,0.0,26.776309
40.1115,-0.740056,GALP,0,1,0,0,0.0,0,0,0,0.0,0.083715
41.525889,-0.397806,CEPSA,0,1,0,0,0.0,0,0,0,0.0,14.090577
41.52425,-0.395306,CEPSA,0,1,0,0,0.0,0,0,0,0.0,13.828008
41.733111,1.526806,BONAREA,0,1,0,0,0.0,0,0,0,0.0,12.306585
41.810611,2.531722,BONAREA,0,1,0,0,0.0,0,0,0,0.0,3.931628
41.906833,1.193528,BONAREA,0,1,0,0,0.0,0,0,0,0.0,3.690088
41.673139,1.263944,BONAREA,0,1,0,0,0.0,0,0,0,0.0,1.425185
41.729722,1.513667,(SIN RÓTULO),0,1,0,0,0.0,0,0,0,0.0,1.161331
42.299833,2.9405,PETROMIRALLES,0,1,0,0,0.0,0,0,0,0.0,1.844918
41.67525,1.26975,PETROLIS INDEPENDENTS,0,1,0,0,0.0,0,0,0,0.0,1.746215
41.76,1.197528,BONAREA,0,1,0,0,0.0,0,0,0,0.0,2.085142
41.656861,1.079,BONAREA,0,1,0,0,0.0,0,0,0,0.0,2.745509
41.782056,1.104639,BONAREA,0,1,0,0,0.0,0,0,0,0.0,1.224347
41.679861,0.985389,COOP. IVARS,0,1,0,0,0.0,0,0,0,0.0,12.536634
41.797222,2.229722,PETROLIS INDEPENDENTS,0,1,0,0,0.0,0,0,0,0.0,45.88984
42.064333,1.312917,ESTACIO SERVEI OLIANA,0,1,0,0,0.0,0,0,0,0.0,0.885468
41.536694,1.387667,COPERAL,0,1,0,0,0.0,0,0,0,0.0,1.253942
41.640194,2.404694,ESTACIO SERVEI LLINARS,0,1,0,0,0.0,0,0,0,0.0,14.359704
42.009639,2.817361,SYM SARRIA,0,1,0,0,0.0,0,0,0,0.0,3.908303
41.749833,0.658056,COOPERATIVA SANT ROC,0,1,0,0,0.0,0,0,0,0.0,0.867899
41.789361,1.287806,BONAREA,0,1,0,0,0.0,0,0,0,0.0,3.48098
41.845083,2.23225,CEPSA,0,1,0,0,0.0,0,0,0,0.0,43.744964
41.619722,2.317722,GALP ,0,1,0,0,0.0,0,0,0,0.0,6.015883
41.906917,2.853861,REPSOL,0,1,0,0,0.0,0,0,0,0.0,3.532813
41.906194,2.853139,REPSOL,0,1,0,0,0.0,0,0,0,0.0,3.525366
42.022694,2.591833,REPSOL,0,1,0,0,0.0,0,0,0,0.0,7.893479
41.813444,2.738083,REPSOL,0,1,0,0,0.0,0,0,0,0.0,4.733938
41.643611,2.518028,CEPSA,0,1,0,0,0.0,0,0,0,0.0,37.967051
41.826639,2.94775,REPSOL,0,1,0,0,0.0,0,0,0,0.0,17.589573
41.827389,2.946889,REPSOL,0,1,0,0,0.0,0,0,0,0.0,16.320249
41.66775,2.7555,GALP,0,1,0,0,0.0,0,0,0,0.0,2.466624
41.824,0.568806,PETRONOR,0,1,0,0,0.0,0,0,0,0.0,2.545989
41.484778,1.854667,REPSOL,0,1,0,0,0.0,0,0,0,0.0,8.967241
41.548806,0.823722,REPSOL,0,1,0,0,0.0,0,0,0,0.0,3.043223
42.385833,2.751833,PETROCAT,0,1,0,0,0.0,0,0,0,0.0,1.912166
42.462861,1.982889,PETROCAT,0,1,0,0,0.0,0,0,0,0.0,3.132286
42.259306,3.046833,GALP,0,1,0,0,0.0,0,0,0,0.0,2.692088
41.597778,2.5425,REPSOL,0,1,0,0,0.0,0,0,0,0.0,37.873572
41.733222,0.591306,REPSOL,0,1,0,0,0.0,0,0,0,0.0,1.405518
37.723667,-1.164889,MOEVE,0,1,0,0,0.0,0,0,0,0.0,2.936607
38.098639,-1.237778,REPSOL,0,1,0,0,0.0,0,0,0,0.0,2.565926
38.173222,-1.313167,CEPSA,0,1,0,0,0.0,0,0,0,0.0,15.761753
38.193944,-1.333444,MOEVE,0,1,0,0,0.0,0,0,0,0.0,2.29451
37.74675,-1.123556,EL MARINO,0,1,0,0,0.0,0,0,0,0.0,4.291625
38.122417,-1.107611,CEPSA,0,1,0,0,0.0,0,0,0,0.0,8.129068
37.885556,-1.360389,BP,0,1,0,0,0.0,0,0,0,0.0,55.427955
41.700722,1.793306,REPSOL,0,1,0,0,0.0,0,0,0,0.0,5.545447
41.657444,2.450278,REPSOL,0,1,0,0,0.0,0,0,0,0.0,15.75518
42.701917,0.793222,REPSOL,0,1,0,0,0.0,0,0,0,0.0,0.494733
41.491917,2.333944,REPSOL,0,1,0,0,0.0,0,0,0,0.0,48.637576
42.245111,1.9785,REPSOL,0,1,0,0,0.0,0,0,0,0.0,0.141568
41.772833,2.739972,REPSOL,0,1,0,0,0.0,0,0,0,0.0,18.451335
42.260889,2.950056,PETRONOR,0,1,0,0,0.0,0,0,0,0.0,4.109833
41.694667,0.738083,REPSOL,0,1,0,0,0.0,0,0,0,0.0,15.014564
42.432667,1.936194,REPSOL,0,1,0,0,0.0,0,0,0,0.0,2.47641
41.758083,1.840028,REPSOL,0,1,0,0,0.0,0,0,0,0.0,2.375277
41.802306,2.761889,BP HOSTAL DE LA SELVA,0,1,0,0,0.0,0,0,0,0.0,16.295009
41.906,2.772139,GALP,0,1,0,0,0.0,0,0,0,0.0,10.176329
41.906833,2.773556,GALP,0,1,0,0,0.0,0,0,0,0.0,18.22178
42.424306,2.869167,BP,0,1,0,0,0.0,0,0,0,0.0,13.395168
42.428333,2.866278,GALP,0,1,0,0,0.0,0,0,0,0.0,2.203764
42.711111,0.797083,REPSOL,0,1,0,0,0.0,0,0,0,0.0,1.917225
41.643444,0.931306,MOEVE,0,1,0,0,0.0,0,0,0,0.0,11.595505
41.670278,0.814167,SHELL - E.S. BELLVIS,0,1,0,0,0.0,0,0,0,0.0,12.709987
42.171361,0.895,REPSOL,0,1,0,0,0.0,0,0,0,0.0,0.471274
42.005889,1.294306,REPSOL,0,1,0,0,0.0,0,0,0,0.0,2.798054
41.578361,1.636806,PETRONOR,0,1,0,0,0.0,0,0,0,0.0,4.9993
42.427278,3.158528,CEPSA,0,1,0,0,0.0,0,0,0,0.0,0.504672
41.633333,0.823056,REPSOL,0,1,0,0,0.0,0,0,0,0.0,12.881342
42.405722,2.874361,GALP,0,1,0,0,0.0,0,0,0,0.0,14.224558
41.773139,1.881472,REPSOL,0,1,0,0,0.0,0,0,0,0.0,16.163463
42.5045,0.80275,PETRONOR,0,1,0,0,0.0,0,0,0,0.0,0.180075
42.136056,1.591778,REPSOL,0,1,0,0,0.0,0,0,0,0.0,0.544561
41.671361,0.604722,PETROCAT,0,1,0,0,0.0,0,0,0,0.0,1.304271
41.892056,2.731972,BP,0,1,0,0,0.0,0,0,0,0.0,3.443632
41.517667,0.619667,REPSOL,0,1,0,0,0.0,0,0,0,0.0,2.160314
42.405278,2.87225,REPSOL,0,1,0,0,0.0,0,0,0,0.0,7.858415
41.414028,1.962917,REPSOL,0,1,0,0,0.0,0,0,0,0.0,3.091149
42.173417,2.930083,REPSOL,0,1,0,0,0.0,0,0,0,0.0,22.409066
41.562278,1.967583,REPSOL,0,1,0,0,0.0,0,0,0,0.0,16.949318
42.346167,1.833806,REPSOL,0,1,0,0,0.0,0,0,0,0.0,0.548816
42.346556,1.832806,REPSOL,0,1,0,0,0.0,0,0,0,0.0,0.545999
42.325472,-2.050417,REPSOL,0,1,0,0,0.0,0,0,0,0.0,0.755306
42.552444,-2.965306,PETRONOR ,0,1,0,0,0.0,0,0,0,0.0,0.466528
42.332556,-3.013222,GALP,0,1,0,0,0.0,0,0,0,0.0,0.800461
42.166556,-2.650028,REPSOL,0,1,0,0,0.0,0,0,0,0.0,0.933131
42.1785,-1.756417,REPSOL SA,0,1,0,0,0.0,0,0,0,0.0,0.370379
42.173639,-2.885722,REPSOL,0,1,0,0,0.0,0,0,0,0.0,1.443347
42.571028,-2.761583,PETRONOR,0,1,0,0,0.0,0,0,0,0.0,1.010637
42.350472,-2.497278,NALDA,0,1,0,0,0.0,0,0,0,0.0,3.554567
42.513222,-2.752889,PETRONOR,0,1,0,0,0.0,0,0,0,0.0,0.404256
42.511667,-2.754389,PETRONOR,0,1,0,0,0.0,0,0,0,0.0,0.620862
42.439639,-2.935083,CEPSA,0,1,0,0,0.0,0,0,0,0.0,1.518447
42.431389,-2.280028,REPSOL,0,1,0,0,0.0,0,0,0,0.0,1.611298
42.449778,-2.34325,AVIA,0,1,0,0,0.0,0,0,0,0.0,5.240894
42.182778,-1.762083,REPSOL SA,0,1,0,0,0.0,0,0,0,0.0,0.464661
42.328528,-2.76075,REPSOL,0,1,0,0,0.0,0,0,0,0.0,0.452048
42.213722,-1.990472,REPSOL,0,1,0,0,0.0,0,0,0,0.0,1.174037
42.399528,-2.334028,REPSOL,0,1,0,0,0.0,0,0,0,0.0,0.808143
42.017139,-1.946889,REPSOL,0,1,0,0,0.0,0,0,0,0.0,0.850914
42.483194,-2.652472,PETRONOR,0,1,0,0,0.0,0,0,0,0.0,1.07949
42.463111,-2.570389,AVIA,0,1,0,0,0.0,0,0,0,0.0,4.618818
42.439667,-2.531139,CEPSA,0,1,0,0,0.0,0,0,0,0.0,9.364811
42.135306,3.071111,FLUID,0,1,0,0,0.0,0,0,0,0.0,1.297291
42.437111,1.130556,PETROLIS,0,1,0,0,0.0,0,0,0,0.0,0.360257
41.907278,1.698917,VILALTA,0,1,0,0,0.0,0,0,0,0.0,5.054649
42.3345,3.1995,LA TRAMUNTANA,0,1,0,0,0.0,0,0,0,0.0,0.511753
41.781139,2.740917,GALP,0,1,0,0,0.0,0,0,0,0.0,5.3129
41.782,1.094528,CEPSA,0,1,0,0,0.0,0,0,0,0.0,2.764504
42.433694,3.165944,CEPSA,0,1,0,0,0.0,0,0,0,0.0,0.541737
41.721806,2.928333,E.S. TOSSA DE MAR,0,1,0,0,0.0,0,0,0,0.0,2.021013
41.636833,1.850222,REPSOL,0,1,0,0,0.0,0,0,0,0.0,5.576895
41.647111,1.103222,REPSOL,0,1,0,0,0.0,0,0,0,0.0,11.38374
42.365444,3.15075,REPSOL,0,1,0,0,0.0,0,0,0,0.0,0.724574
41.811417,2.998861,RIU D'OR,0,1,0,0,0.0,0,0,0,0.0,14.774787
41.670972,1.261056,REPSOL,0,1,0,0,0.0,0,0,0,0.0,1.432332
41.628667,0.77475,REPSOL,0,1,0,0,0.0,0,0,0,0.0,17.167874
41.727667,0.44175,REPSOL,0,1,0,0,0.0,0,0,0,0.0,0.296355
41.903861,1.878111,PETROCAT,0,1,0,0,0.0,0,0,0,0.0,15.026523
41.99425,1.528528,REPSOL,0,1,0,0,0.0,0,0,0,0.0,2.665248
41.817639,2.52,REPSOL,0,1,0,0,0.0,0,0,0,0.0,4.116217
41.552611,1.676111,CAMPSA,0,1,0,0,0.0,0,0,0,0.0,18.38461
41.92075,1.191222,ONDINA DEL SEGRE,0,1,0,0,0.0,0,0,0,0.0,3.687393
41.649944,2.297667,REPSOL,0,1,0,0,0.0,0,0,0,0.0,15.341945
42.431667,1.930389,REPSOL,0,1,0,0,0.0,0,0,0,0.0,4.024819
41.828833,2.896528,REPSOL,0,1,0,0,0.0,0,0,0,0.0,2.17699
42.7495,0.700722,REPSOL,0,1,0,0,0.0,0,0,0,0.0,2.512873
41.558861,0.511667,REPSOL,0,1,0,0,0.0,0,0,0,0.0,2.333059
41.800639,1.898056,PETRONOR,0,1,0,0,0.0,0,0,0,0.0,14.011643
41.553694,2.250167,CAMPSA EXPRESS,0,1,0,0,0.0,0,0,0,0.0,34.638008
42.234417,2.290778,REPSOL,0,1,0,0,0.0,0,0,0,0.0,2.659529
41.789278,1.287583,REPSOL,0,1,0,0,0.0,0,0,0,0.0,3.48074
42.316444,3.063806,PETRONOR,0,1,0,0,0.0,0,0,0,0.0,4.57432
41.891611,2.868111,RABELL,0,1,0,0,0.0,0,0,0,0.0,4.385852
41.652611,0.393,REPSOL,0,1,0,0,0.0,0,0,0,0.0,0.610927
42.4525,0.70925,CAMPSA,0,1,0,0,0.0,0,0,0,0.0,0.674659
42.045306,3.117222,REPSOL,0,1,0,0,0.0,0,0,0,0.0,1.845155
41.785583,0.829917,CAMPSA EXPRESS,0,1,0,0,0.0,0,0,0,0.0,4.131951
41.933361,2.84375,REPSOL,0,1,0,0,0.0,0,0,0,0.0,5.18557
41.576111,0.610333,PETRONOR,0,1,0,0,0.0,0,0,0,0.0,6.735265
41.551778,2.285083,REPSOL,0,1,0,0,0.0,0,0,0,0.0,6.741155
42.304222,2.359167,REPSOL,0,1,0,0,0.0,0,0,0,0.0,1.027901
42.832111,0.72975,REPSOL,0,1,0,0,0.0,0,0,0,0.0,1.949614
41.668694,1.854167,PETRONOR,0,1,0,0,0.0,0,0,0,0.0,5.573154
41.738111,2.266944,REPSOL,0,1,0,0,0.0,0,0,0,0.0,19.670317
42.202083,2.691889,REPSOL,0,1,0,0,0.0,0,0,0,0.0,8.584489
42.290083,3.276167,REPSOL,0,1,0,0,0.0,0,0,0,0.0,2.489341
41.745944,2.627472,REPSOL,0,1,0,0,0.0,0,0,0,0.0,7.579527
41.617056,1.399639,LA PANADELLA,0,1,0,0,0.0,0,0,0,0.0,1.207897
41.61775,1.399361,LA PANADELLA,0,1,0,0,0.0,0,0,0,0.0,1.206386
41.468806,0.421056,SEROIL ENERGY,0,1,0,0,0.0,0,0,0,0.0,0.892952
41.966806,2.62525,REPSOL,0,1,0,0,0.0,0,0,0,0.0,6.002713
41.878333,2.505806,BP,0,1,0,0,0.0,0,0,0,0.0,5.952219
41.566139,2.519556,REPSOL,0,1,0,0,0.0,0,0,0,0.0,18.013871
41.544528,0.475611,REPSOL,0,1,0,0,0.0,0,0,0,0.0,1.860705
41.632389,1.007167,REPSOL,0,1,0,0,0.0,0,0,0,0.0,1.450823
41.827361,1.756083,REPSOL,0,1,0,0,0.0,0,0,0,0.0,2.180294
41.984917,2.09725,PETRONOR,0,1,0,0,0.0,0,0,0,0.0,1.253816
41.587917,2.179667,REPSOL,0,1,0,0,0.0,0,0,0,0.0,17.253549
42.025278,2.983472,REPSOL,0,1,0,0,0.0,0,0,0,0.0,2.429184
41.645,2.231306,BP SANTA EULALIA DE RONÇANA,0,1,0,0,0.0,0,0,0,0.0,6.297695
42.016639,1.884444,REPSOL,0,1,0,0,0.0,0,0,0,0.0,2.340699
42.086583,2.888639,REPSOL,0,1,0,0,0.0,0,0,0,0.0,2.102567
42.286806,2.160667,REPSOL,0,1,0,0,0.0,0,0,0,0.0,0.26759
42.368306,1.845528,REPSOL,0,1,0,0,0.0,0,0,0,0.0,0.228913
41.917028,2.791306,REPSOL,0,1,0,0,0.0,0,0,0,0.0,19.924693
41.845,2.233278,CEPSA,0,1,0,0,0.0,0,0,0,0.0,43.701738
41.669083,2.715556,CEPSA,0,1,0,0,0.0,0,0,0,0.0,27.42884
41.514889,2.413139,REPSOL,0,1,0,0,0.0,0,0,0,0.0,15.07484
42.399056,2.8805,REPSOL,0,1,0,0,0.0,0,0,0,0.0,1.656106
41.661556,1.198583,REPSOL,0,1,0,0,0.0,0,0,0,0.0,10.859975
41.478917,1.883722,REPSOL,0,1,0,0,0.0,0,0,0,0.0,11.714093
41.745028,1.578861,REPSOL,0,1,0,0,0.0,0,0,0,0.0,13.933503
41.745833,1.580083,REPSOL,0,1,0,0,0.0,0,0,0,0.0,13.925074
42.398417,2.882667,REPSOL,0,1,0,0,0.0,0,0,0,0.0,1.652697
42.820447,0.714372,ESTACION BOYA,0,1,0,0,0.0,0,0,0,0.0,1.83443
41.638722,0.87425,REPSOL,0,1,0,0,0.0,0,0,0,0.0,12.81831
41.618806,1.509722,REPSOL,0,1,0,0,0.0,0,0,0,0.0,10.663705
41.933278,2.193306,MOEVE,0,1,0,0,0.0,0,0,0,0.0,3.738804
41.93425,2.194306,MOEVE,0,1,0,0,0.0,0,0,0,0.0,4.446558
42.172722,1.320417,ES COLL DE NARGÓ,0,1,0,0,0.0,0,0,0,0.0,1.492234
42.427056,2.866833,MOEVE,0,1,0,0,0.0,0,0,0,0.0,2.144489
42.404278,0.742583,CEPSA,0,1,0,0,0.0,0,0,0,0.0,1.135735
41.867472,1.972389,E.S.  AVINYÓ   -CEPSA-,0,1,0,0,0.0,0,0,0,0.0,19.5956
41.809306,2.102139,MOEVE,0,1,0,0,0.0,0,0,0,0.0,4.395641
42.071,3.093861,FULL  ENERGY BELLCAIRE D'EMPORDA,0,1,0,0,0.0,0,0,0,0.0,0.955149
41.893444,3.144028,PETROLIS INDEPENDENTS,0,1,0,0,0.0,0,0,0,0.0,6.478902
42.064694,3.049528,CEPSA,0,1,0,0,0.0,0,0,0,0.0,2.271606
42.223528,1.872722,"ESTACIÓ SERRA CADI, S.L.",0,1,0,0,0.0,0,0,0,0.0,0.384056
40.81,-3.7705,EDV,0,1,0,0,0.0,0,0,0,0.0,0.954136
40.242639,-3.319472,TIELMES S.L.,0,1,0,0,0.0,0,0,0,0.0,7.428367
40.40725,-3.36975,SHELL,0,1,0,0,0.0,0,0,0,0.0,7.255485
40.302222,-4.088111,BP VILLAMANTA,0,1,0,0,0.0,0,0,0,0.0,8.834698
41.493028,2.333917,REPSOL,0,1,0,0,0.0,0,0,0,0.0,49.388761
42.238306,0.965278,MOEVE,0,1,0,0,0.0,0,0,0,0.0,0.319622
42.60875,1.126333,MOEVE,0,1,0,0,0.0,0,0,0,0.0,0.4238
41.732306,2.600333,CEPSA,0,1,0,0,0.0,0,0,0,0.0,7.358255
41.725667,2.672917,MOEVE,0,1,0,0,0.0,0,0,0,0.0,29.970324
41.95825,2.649083,CEPSA,0,1,0,0,0.0,0,0,0,0.0,6.004148
41.852806,2.77375,ZONA DIESEL,0,1,0,0,0.0,0,0,0,0.0,17.094087
41.647972,2.425611,GALP,0,1,0,0,0.0,0,0,0,0.0,44.832886
41.646806,2.425667,GALP,0,1,0,0,0.0,0,0,0,0.0,51.932289
41.686028,2.443667,MOEVE,0,1,0,0,0.0,0,0,0,0.0,5.042378
41.567917,1.801722,GALP,0,1,0,0,0.0,0,0,0,0.0,20.325013
42.126444,2.922361,MLC,0,1,0,0,0.0,0,0,0,0.0,0.878573
41.861222,2.884944,PLENERGY,0,1,0,0,0.0,0,0,0,0.0,5.102631
41.757583,2.756778,LOW COST FUEL,0,1,0,0,0.0,0,0,0,0.0,5.647402
41.757222,2.75725,LOW COST FUEL,0,1,0,0,0.0,0,0,0,0.0,5.651206
42.397861,2.880528,GALP,0,1,0,0,0.0,0,0,0,0.0,1.654304
41.774389,2.738889,CEPSA,0,1,0,0,0.0,0,0,0,0.0,30.157908
41.896889,2.810833,TAMOIL,0,1,0,0,0.0,0,0,0,0.0,3.035121
41.607944,2.604917,GALP,0,1,0,0,0.0,0,0,0,0.0,37.425176
42.173833,2.931806,CEPSA,0,1,0,0,0.0,0,0,0,0.0,21.560773
41.487417,0.8655,GALP,0,1,0,0,0.0,0,0,0,0.0,8.209706
41.489389,0.8655,GALP,0,1,0,0,0.0,0,0,0,0.0,7.961199
41.543361,0.637222,VALCARCE,0,1,0,0,0.0,0,0,0,0.0,9.462579
41.541306,0.639222,VALCARCE,0,1,0,0,0.0,0,0,0,0.0,9.650407
41.079389,1.062528,ESCLATOIL,0,1,0,0,0.0,0,0,0,0.0,15.90946
40.239056,-3.995528,BP DUALEZ 365,0,1,0,0,0.0,0,0,0,0.0,5.213419
40.383167,-4.240833,GALP,0,1,0,0,0.0,0,0,0,0.0,0.339847
40.084139,-3.112889,SHELL,0,1,0,0,0.0,0,0,0,0.0,22.47546
40.189444,-3.112278,BLANCA,0,1,0,0,0.0,0,0,0,0.0,8.279115
40.955389,-3.784111,REPSOL,0,1,0,0,0.0,0,0,0,0.0,1.266758
40.955028,-3.783861,REPSOL,0,1,0,0,0.0,0,0,0,0.0,1.267032
40.526722,-3.481556,REPSOL,0,1,0,0,0.0,0,0,0,0.0,4.285598
40.528028,-3.480944,REPSOL,0,1,0,0,0.0,0,0,0,0.0,4.28451
40.717528,-3.791778,BP SOTO I,0,1,0,0,0.0,0,0,0,0.0,6.41365
40.904694,-3.608389,REPSOL,0,1,0,0,0.0,0,0,0,0.0,15.553601
40.446528,-3.36175,GALP,0,1,0,0,0.0,0,0,0,0.0,6.313439
40.439139,-3.316472,BP VILLALBILLA,0,1,0,0,0.0,0,0,0,0.0,5.808734
40.578306,-3.508083,ENI,0,1,0,0,0.0,0,0,0,0.0,2.027282
40.166778,-3.286111,MOEVE,0,1,0,0,0.0,0,0,0,0.0,14.335404
40.814278,-3.760639,MOEVE,0,1,0,0,0.0,0,0,0,0.0,0.98039
40.188056,-3.764389,GALP,0,1,0,0,0.0,0,0,0,0.0,9.552
40.182444,-3.725222,MOEVE,0,1,0,0,0.0,0,0,0,0.0,9.873325
40.331278,-3.403472,REPSOL,0,1,0,0,0.0,0,0,0,0.0,4.004434
40.245167,-3.480556,PETRONOR,0,1,0,0,0.0,0,0,0,0.0,9.089094
40.170889,-3.82175,REPSOL,0,1,0,0,0.0,0,0,0,0.0,32.707481
40.365083,-4.314778,REPSOL ,0,1,0,0,0.0,0,0,0,0.0,0.339212
40.249833,-3.350278,BP A3 PERALES DE TAJUNA,0,1,0,0,0.0,0,0,0,0.0,25.198844
40.147111,-3.428417,CEPSA,0,1,0,0,0.0,0,0,0,0.0,8.833513
40.822111,-3.537556,REPSOL,0,1,0,0,0.0,0,0,0,0.0,0.316417
40.282778,-3.20725,REPSOL,0,1,0,0,0.0,0,0,0,0.0,3.381674
40.405056,-3.141111,REPSOL,0,1,0,0,0.0,0,0,0,0.0,3.513308
40.10075,-3.490083,REPSOL,0,1,0,0,0.0,0,0,0,0.0,12.899528
40.203472,-3.798917,MOEVE,0,1,0,0,0.0,0,0,0,0.0,8.96565
40.203083,-3.798556,MOEVE,0,1,0,0,0.0,0,0,0,0.0,8.919589
41.246278,1.58575,GM FUEL STATIONS,0,1,0,0,0.0,0,0,0,0.0,2.51568
41.012444,0.611083,REPSOL,0,1,0,0,0.0,0,0,0,0.0,0.723231
41.263889,0.904917,REPSOL,0,1,0,0,0.0,0,0,0,0.0,0.392308
41.047806,0.729667,REPSOL,0,1,0,0,0.0,0,0,0,0.0,1.081405
41.192278,1.000139,REPSOL,0,1,0,0,0.0,0,0,0,0.0,0.718985
41.279028,1.496139,REPSOL,0,1,0,0,0.0,0,0,0,0.0,2.129219
41.180833,0.593444,PETRONOR,0,1,0,0,0.0,0,0,0,0.0,0.426733
41.186194,1.219806,REPSOL,0,1,0,0,0.0,0,0,0,0.0,0.953309
41.970861,3.030917,GALP,0,1,0,0,0.0,0,0,0,0.0,2.44877
41.173583,1.238722,FRANCAS ENERGY,0,1,0,0,0.0,0,0,0,0.0,4.612638
41.192972,1.20175,PETRONOR,0,1,0,0,0.0,0,0,0,0.0,7.441739
41.235389,1.56575,REPSOL,0,1,0,0,0.0,0,0,0,0.0,2.1898
41.0795,0.661917,REPSOL,0,1,0,0,0.0,0,0,0,0.0,0.571895
41.313083,0.986667,PETRONOR,0,1,0,0,0.0,0,0,0,0.0,0.39105
41.177944,1.490806,REPSOL,0,1,0,0,0.0,0,0,0,0.0,3.675575
41.020139,0.82725,ALAS,0,1,0,0,0.0,0,0,0,0.0,1.775885
40.587778,0.44275,PETRONOR,0,1,0,0,0.0,0,0,0,0.0,0.573692
41.165361,1.030028,REPSOL,0,1,0,0,0.0,0,0,0,0.0,2.175199
41.361694,1.299389,REPSOL,0,1,0,0,0.0,0,0,0,0.0,1.529005
40.547806,0.478056,PETRONOR,0,1,0,0,0.0,0,0,0,0.0,0.349985
40.887472,0.798917,CEPSA,0,1,0,0,0.0,0,0,0,0.0,4.930953
40.905389,0.484917,REPSOL,0,1,0,0,0.0,0,0,0,0.0,0.464319
41.109722,0.535528,PETRONOR,0,1,0,0,0.0,0,0,0,0.0,1.595354
40.896611,0.747833,REPSOL,0,1,0,0,0.0,0,0,0,0.0,1.874497
41.289444,1.589944,REPSOL,0,1,0,0,0.0,0,0,0,0.0,37.404066
41.053694,0.43625,REPSOL,0,1,0,0,0.0,0,0,0,0.0,0.183351
41.262361,1.494167,SHELL,0,1,0,0,0.0,0,0,0,0.0,3.631398
41.148194,1.214861,CEPSA,0,1,0,0,0.0,0,0,0,0.0,1.988754
41.143472,0.816222,REPSOL,0,1,0,0,0.0,0,0,0,0.0,0.391126
41.374361,1.164611,REPSOL,0,1,0,0,0.0,0,0,0,0.0,0.924486
40.949722,0.855917,REPSOL,0,1,0,0,0.0,0,0,0,0.0,6.059275
41.22175,0.547722,REPSOL,0,1,0,0,0.0,0,0,0,0.0,0.459588
41.189361,1.242806,REPSOL,0,1,0,0,0.0,0,0,0,0.0,4.277226
41.093722,0.647917,REPSOL,0,1,0,0,0.0,0,0,0,0.0,0.536145
40.634667,0.284361,PETRONOR,0,1,0,0,0.0,0,0,0,0.0,0.334596
41.457917,1.178556,REPSOL,0,1,0,0,0.0,0,0,0,0.0,1.458926
41.289778,1.351222,CAMPSA,0,1,0,0,0.0,0,0,0,0.0,2.219886
40.787444,0.671,PETROCAT DIRECTE,0,1,0,0,0.0,0,0,0,0.0,5.977757
41.203556,1.145528,CEPSA,0,1,0,0,0.0,0,0,0,0.0,10.386476
40.744194,0.61475,CEPSA,0,1,0,0,0.0,0,0,0,0.0,1.990647
41.236278,1.544361,MOEVE,0,1,0,0,0.0,0,0,0,0.0,3.055083
41.285889,1.618583,MOEVE,0,1,0,0,0.0,0,0,0,0.0,2.225224
40.700972,0.716667,CEPSA,0,1,0,0,0.0,0,0,0,0.0,0.923247
40.837611,0.7115,GALP,0,1,0,0,0.0,0,0,0,0.0,1.629559
41.256167,1.169056,ICOR ENERGIA,0,1,0,0,0.0,0,0,0,0.0,6.81469
40.959333,0.498556,TAMOIL,0,1,0,0,0.0,0,0,0,0.0,0.566359
41.275472,1.592806,TAMOIL,0,1,0,0,0.0,0,0,0,0.0,4.359317
40.539583,0.471889,TAMOIL,0,1,0,0,0.0,0,0,0,0.0,0.315672
41.287889,1.411861,GALP,0,1,0,0,0.0,0,0,0,0.0,7.879203
41.387222,1.191306,CEPSA,0,1,0,0,0.0,0,0,0,0.0,6.876732
41.388056,1.187806,CEPSA,0,1,0,0,0.0,0,0,0,0.0,6.944646
41.286361,1.414278,GALP,0,1,0,0,0.0,0,0,0,0.0,9.569722
40.765028,0.626222,ENI,0,1,0,0,0.0,0,0,0,0.0,15.199998
40.764778,0.628861,ENI,0,1,0,0,0.0,0,0,0,0.0,15.208826
41.205778,1.207444,ICOR ENERGIA,0,1,0,0,0.0,0,0,0,0.0,9.381081
40.762278,0.64125,REPSOL,0,1,0,0,0.0,0,0,0,0.0,5.88005
41.17025,1.318528,PETROLIS DE BARCELONA S.A,0,1,0,0,0.0,0,0,0,0.0,1.682563
40.985472,0.897139,ENI,0,1,0,0,0.0,0,0,0,0.0,14.211762
40.985694,0.893722,ENI,0,1,0,0,0.0,0,0,0,0.0,15.465516
39.390528,-0.698972,LA BARONIA DE TURIS COOP V,0,1,0,0,0.0,0,0,0,0.0,2.396654
39.045972,-0.310944,GASOPOTENZ,0,1,0,0,0.0,0,0,0,0.0,3.167163
38.715917,-0.664056,REPSOL,0,1,0,0,0.0,0,0,0,0.0,1.190896
38.493361,-0.780417,CEPSA,0,1,0,0,0.0,0,0,0,0.0,17.126395
38.339222,-0.998222,CEPSA,0,1,0,0,0.0,0,0,0,0.0,0.471785
38.369306,-0.704611,MOEVE,0,1,0,0,0.0,0,0,0,0.0,22.470038
38.369833,-0.704556,MOEVE,0,1,0,0,0.0,0,0,0,0.0,22.537845
38.534028,-0.505083,CEPSA,0,1,0,0,0.0,0,0,0,0.0,1.270178
38.474472,-0.771,CEPSA,0,1,0,0,0.0,0,0,0,0.0,16.341807
38.140889,-0.748556,CEPSA,0,1,0,0,0.0,0,0,0,0.0,1.921962
38.059194,-0.885222,REPSOL,0,1,0,0,0.0,0,0,0,0.0,2.022427
38.800111,0.038889,REPSOL,0,1,0,0,0.0,0,0,0,0.0,2.860073
38.630583,-0.786556,REPSOL,0,1,0,0,0.0,0,0,0,0.0,2.159718
38.626278,-0.6815,EL CANARI ONIL,0,1,0,0,0.0,0,0,0,0.0,1.245532
38.029472,-0.730944,REPSOL,0,1,0,0,0.0,0,0,0,0.0,1.131017
40.604417,0.348917,REPSOL,0,1,0,0,0.0,0,0,0,0.0,2.403686
39.758889,-0.227583,E.S. ALMENARA,0,1,0,0,0.0,0,0,0,0.0,11.632565
40.091611,0.13175,GALP,0,1,0,0,0.0,0,0,0,0.0,3.535339
37.990083,-0.799444,GLOBAL OIL,0,1,0,0,0.0,0,0,0,0.0,2.152145
40.064833,-0.528583,CARLA,0,1,0,0,0.0,0,0,0,0.0,0.41305
40.014278,-0.125833,GALP,0,1,0,0,0.0,0,0,0,0.0,3.721111
40.041778,-0.073722,REPSOL,0,1,0,0,0.0,0,0,0,0.0,11.225652
39.923194,-0.184611,GALP,0,1,0,0,0.0,0,0,0,0.0,1.455699
39.910833,-0.7035,GRUPO MAICAS PEIRO,0,1,0,0,0.0,0,0,0,0.0,0.394683
39.810333,-0.1525,BP MONCOFAR,0,1,0,0,0.0,0,0,0,0.0,8.435026
39.847806,-0.493972,GALP,0,1,0,0,0.0,0,0,0,0.0,1.097739
39.795694,-0.181361,AMERICAN PETROL,0,1,0,0,0.0,0,0,0,0.0,1.408808
39.778583,-0.180722,GALP,0,1,0,0,0.0,0,0,0,0.0,1.40904
40.016528,-0.696306,CEPSA,0,1,0,0,0.0,0,0,0,0.0,1.346102
39.8245,-0.212722,RANDERO,0,1,0,0,0.0,0,0,0,0.0,14.577842
38.139722,-0.774889,REPSOL,0,1,0,0,0.0,0,0,0,0.0,3.072725
39.891083,-0.251139,SIN ROTULO,0,1,0,0,0.0,0,0,0,0.0,1.773047
39.84175,-0.475833,PETRONOR,0,1,0,0,0.0,0,0,0,0.0,0.883485
40.458194,0.179944,REPSOL,0,1,0,0,0.0,0,0,0,0.0,0.489809
40.186583,0.044556,REPSOL,0,1,0,0,0.0,0,0,0,0.0,7.551
40.192639,-0.045389,REPSOL,0,1,0,0,0.0,0,0,0,0.0,4.040079
38.310167,-0.849528,REPSOL,0,1,0,0,0.0,0,0,0,0.0,0.438985
38.771694,-0.06225,GASORBA,0,1,0,0,0.0,0,0,0,0.0,1.060033
38.076944,-0.843056,REPSOL,0,1,0,0,0.0,0,0,0,0.0,1.816745
38.147139,-0.889278,REPSOL,0,1,0,0,0.0,0,0,0,0.0,1.350986
40.135528,-0.280583,LUCENA,0,1,0,0,0.0,0,0,0,0.0,3.154237
40.219417,-0.170611,COOPERATIVA ATZENETA,0,1,0,0,0.0,0,0,0,0.0,2.081605
38.387917,-0.736806,BP,0,1,0,0,0.0,0,0,0,0.0,21.063215
38.82825,0.01475,REPSOL,0,1,0,0,0.0,0,0,0,0.0,1.022954
40.222083,0.201056,REPSOL,0,1,0,0,0.0,0,0,0,0.0,1.847259
40.221889,0.201167,REPSOL,0,1,0,0,0.0,0,0,0,0.0,1.565594
39.822556,-0.221278,BP VALL D'UXO,0,1,0,0,0.0,0,0,0,0.0,1.631837
39.849972,-0.486611,Q8,0,1,0,0,0.0,0,0,0,0.0,1.069841
39.818583,-0.233306,BP EL PONT,0,1,0,0,0.0,0,0,0,0.0,1.525404
40.609611,-0.094556,PETRONOR,0,1,0,0,0.0,0,0,0,0.0,1.379347
40.359972,0.3035,ES ZARAGOZA,0,1,0,0,0.0,0,0,0,0.0,1.617129
39.782917,-0.39375,REPSOL,0,1,0,0,0.0,0,0,0,0.0,2.158489
40.296944,0.226333,REPSOL,0,1,0,0,0.0,0,0,0,0.0,2.248667
38.402472,-1.046806,REPSOL,0,1,0,0,0.0,0,0,0,0.0,0.63146
40.514889,0.254639,E.S. BALMAPA,0,1,0,0,0.0,0,0,0,0.0,2.645882
38.720111,-0.671194,CEPSA,0,1,0,0,0.0,0,0,0,0.0,1.19745
39.897861,-0.120778,CEPSA,0,1,0,0,0.0,0,0,0,0.0,4.219279
39.897667,-0.121306,CEPSA,0,1,0,0,0.0,0,0,0,0.0,6.628765
38.6495,-0.121194,REPSOL,0,1,0,0,0.0,0,0,0,0.0,1.268058
39.827833,-0.22525,BP,0,1,0,0,0.0,0,0,0,0.0,1.527214
40.342611,-0.006333,CAMPSA,0,1,0,0,0.0,0,0,0,0.0,0.56877
39.931306,-0.196389,PETRONOR,0,1,0,0,0.0,0,0,0,0.0,1.415988
40.307222,0.115194,REPSOL,0,1,0,0,0.0,0,0,0,0.0,2.817144
38.434417,-0.63725,PETRONOR,0,1,0,0,0.0,0,0,0,0.0,1.053245
38.175028,-0.854056,REPSOL,0,1,0,0,0.0,0,0,0,0.0,10.715601
38.538722,-0.172889,REPSOL,0,1,0,0,0.0,0,0,0,0.0,2.355132
40.040972,-0.152139,REPSOL,0,1,0,0,0.0,0,0,0,0.0,3.178531
38.143889,-0.898861,BP COX,0,1,0,0,0.0,0,0,0,0.0,19.041995
38.792028,0.06275,GALP,0,1,0,0,0.0,0,0,0,0.0,6.327842
40.131806,0.138722,ENI,0,1,0,0,0.0,1,1,250,10.7206,3.067852
39.912361,-0.564389,SHELL,0,1,0,0,0.0,0,0,0,0.0,0.088347
40.13325,0.141111,ENI,0,1,0,0,0.0,0,0,0,0.0,2.062693
38.789861,0.063417,GALP,0,1,0,0,0.0,0,0,0,0.0,0.964471
38.736056,-0.661167,BP,0,1,0,0,0.0,0,0,0,0.0,2.806056
38.885667,-0.58,LIBRE,0,1,0,0,0.0,0,0,0,0.0,11.917012
38.88525,-0.576583,REPSOL,0,1,0,0,0.0,0,0,0,0.0,12.572359
39.555611,-0.486917,GALP,0,1,0,0,0.0,0,0,0,0.0,50.635205
39.525889,-1.437167,GALP,0,1,0,0,0.0,0,0,0,0.0,5.774598
38.936,-0.148778,Q8,0,1,0,0,0.0,0,0,0,0.0,1.125729
39.031444,-0.65575,"HNOS. FRIGOLS LILA, S.L.",0,1,0,0,0.0,0,0,0,0.0,1.87595
39.203167,-0.391306,STARMA,0,1,0,0,0.0,0,0,0,0.0,1.345062
39.572167,-0.624333,REPSOL,0,1,0,0,0.0,0,0,0,0.0,8.577252
38.889333,-0.20875,E.S. VILLALONGA,0,1,0,0,0.0,0,0,0,0.0,1.177493
39.021444,-0.426361,BP,0,1,0,0,0.0,0,0,0,0.0,3.315614
38.974333,-0.592528,REPSOL,0,1,0,0,0.0,0,0,0,0.0,11.401302
39.375417,-0.563167,REPSOL,0,1,0,0,0.0,0,0,0,0.0,3.590479
38.90225,-0.419972,CEPSA-MOEVE,0,1,0,0,0.0,0,0,0,0.0,1.050916
38.934278,-0.211583,REPSOL,0,1,0,0,0.0,0,0,0,0.0,1.218814
39.289361,-0.514444,BAR / E.S. ALTAMAR J.A.,0,1,0,0,0.0,0,0,0,0.0,4.808584
38.929444,-0.662611,REPSOL,0,1,0,0,0.0,0,0,0,0.0,9.600946
40.127028,-1.249028,REPSOL,0,1,0,0,0.0,0,0,0,0.0,0.710753
38.900611,-0.688111,PETRONOR,0,1,0,0,0.0,0,0,0,0.0,10.075692
39.673722,-0.559417,PETROMAX,0,1,0,0,0.0,0,0,0,0.0,12.605705
39.366972,-0.434,CEPSA,0,1,0,0,0.0,0,0,0,0.0,9.98554
39.536889,-0.309556,REPSOL,0,1,0,0,0.0,0,0,0,0.0,27.231887
39.394194,-0.782861,REPSOL,0,1,0,0,0.0,0,0,0,0.0,1.056021
39.430472,-0.777972,REPSOL,0,1,0,0,0.0,0,0,0,0.0,1.365499
39.444778,-0.754528,REPSOL,0,1,0,0,0.0,0,0,0,0.0,10.67203
39.585194,-0.286944,GASPUIG,0,1,0,0,0.0,0,0,0,0.0,23.397185
39.366917,-0.434,CEPSA,0,1,0,0,0.0,0,0,0,0.0,9.985288
38.922667,-0.269444,REPSOL,0,1,0,0,0.0,0,0,0,0.0,10.931447
39.38925,-0.696694,AS TURÍS,0,1,0,0,0.0,0,0,0,0.0,2.397606
39.076389,-0.508222,REPSOL,0,1,0,0,0.0,0,0,0,0.0,7.746242
39.723833,-1.236806,MANCEBO,0,1,0,0,0.0,0,0,0,0.0,1.050622
39.587389,-0.299083,BP EL PUIG,0,1,0,0,0.0,0,0,0,0.0,21.478883
38.938806,-0.151194,REPSOL,0,1,0,0,0.0,0,0,0,0.0,1.1131
39.101361,-0.695528,ROS,0,1,0,0,0.0,0,0,0,0.0,4.02002
39.530194,-0.313083,REPSOL,0,1,0,0,0.0,0,0,0,0.0,37.119008
39.588778,-0.328778,BP RAFELBUNYOL GRUPO MAICAS,0,1,0,0,0.0,0,0,0,0.0,2.751344
39.563972,-0.334139,REPSOL,0,1,0,0,0.0,0,0,0,0.0,10.772397
38.878611,-0.754167,REPSOL,0,1,0,0,0.0,1,2,250,24.3825,10.013512
39.678972,-0.216972,AVIA,0,1,0,0,0.0,0,0,0,0.0,2.401294
39.358556,-0.594389,BP CHASAN CAMPOS MONTSERRAT,0,1,0,0,0.0,0,0,0,0.0,3.22363
39.425028,-0.680722,GALP,0,1,0,0,0.0,0,0,0,0.0,8.415874
38.934083,-0.183389,BENIARJO,0,1,0,0,0.0,0,0,0,0.0,1.190738
38.909667,-0.302778,BP,0,1,0,0,0.0,0,0,0,0.0,12.371422
39.539472,-0.306528,SHELL,0,1,0,0,0.0,0,0,0,0.0,26.91702
39.558389,-0.338083,BALLENOIL,0,1,0,0,0.0,0,0,0,0.0,4.586923
39.679778,-0.207611,REPSOL,0,1,0,0,0.0,0,0,0,0.0,1.922277
39.528806,-1.433389,GALP,0,1,0,0,0.0,1,1,250,20.0064,3.958126
38.919306,-0.167611,GALP,0,1,0,0,0.0,0,0,0,0.0,1.448516
39.013556,-0.646083,ANNA,0,1,0,0,0.0,0,0,0,0.0,2.018223
39.559972,-0.495917,BP  MARIOLA,0,1,0,0,0.0,0,0,0,0.0,47.09657
39.059722,-1.053306,REPSOL,0,1,0,0,0.0,0,0,0,0.0,1.525069
38.982,-0.687639,REPSOL,0,1,0,0,0.0,0,0,0,0.0,1.579085
39.409944,-0.380306,BP CARY II,0,1,0,0,0.0,0,0,0,0.0,60.490115
39.545417,-0.387889,BP HOFIRA,0,1,0,0,0.0,0,0,0,0.0,4.905674
39.601583,-0.725278,REPSOL,0,1,0,0,0.0,0,0,0,0.0,43.056681
39.732722,-0.821778,"ESTACION DE SERVICIO PORTER, S.L.",0,1,0,0,0.0,0,0,0,0.0,0.079953
39.490972,-0.677222,CHESTE AGRARIA,0,1,0,0,0.0,0,0,0,0.0,3.440557
39.651556,-1.404056,REPSOL,0,1,0,0,0.0,0,0,0,0.0,0.552276
39.017167,-0.542056,AZEROIL LLOSA ,0,1,0,0,0.0,0,0,0,0.0,5.630524
39.562889,-0.335333,REPSOL FENOLLOSA,0,1,0,0,0.0,0,0,0,0.0,10.792518
39.749694,-0.992167,E.S.CHELVA,0,1,0,0,0.0,0,0,0,0.0,0.236264
38.970556,-0.157222,E.S. DAIMUS,0,1,0,0,0.0,0,0,0,0.0,0.720134
38.874139,-0.376333, BP BENICADELL,0,1,0,0,0.0,0,0,0,0.0,1.167393
39.566389,-0.618111,VILAMARXANT,0,1,0,0,0.0,0,0,0,0.0,3.863399
38.947778,-0.404528,REPSOL,0,1,0,0,0.0,0,0,0,0.0,3.297832
38.952,-0.439556,CAMPSA EXPRESS,0,1,0,0,0.0,0,0,0,0.0,1.902485
38.915667,-0.556944,REPSOL,0,1,0,0,0.0,0,0,0,0.0,3.55328
38.953389,-0.193139,BP,0,1,0,0,0.0,0,0,0,0.0,1.048835
39.378389,-0.414056,REPSOL,0,1,0,0,0.0,0,0,0,0.0,38.505814
39.585111,-0.324111,PETRONOR,0,1,0,0,0.0,0,0,0,0.0,2.751344
39.567028,-0.493333,PETROMAX,0,1,0,0,0.0,0,0,0,0.0,6.31558
39.539694,-1.311667,REPSOL,0,1,0,0,0.0,0,0,0,0.0,0.541036
39.456,-0.904528,REPSOL,0,1,0,0,0.0,0,0,0,0.0,1.189778
39.153972,-0.527806,REPSOL,0,1,0,0,0.0,0,0,0,0.0,24.195488
39.154583,-0.529361,REPSOL,0,1,0,0,0.0,0,0,0,0.0,24.206261
39.046917,-0.225639,CEPSA,0,1,0,0,0.0,0,0,0,0.0,5.552394
39.039056,-0.226417,BP AP7 LA SAFOR VALENCIA,0,1,0,0,0.0,0,0,0,0.0,9.38064
39.040833,-0.228139,BP AP7 LA SAFOR ALICANTE,0,1,0,0,0.0,0,0,0,0.0,12.291974
39.18775,-0.485028,SERVICOOP +,0,1,0,0,0.0,0,0,0,0.0,32.606168
38.949389,-0.165,REPSOL,0,1,0,0,0.0,0,0,0,0.0,8.607331
39.532389,-0.366778,GALP,0,1,0,0,0.0,0,0,0,0.0,5.532855
39.587417,-0.323722,REPSOL,0,1,0,0,0.0,0,0,0,0.0,2.751896
38.175778,-1.049806,LOS CALZONES,0,1,0,0,0.0,0,0,0,0.0,8.270395
38.203556,-1.04225,FTH,0,1,0,0,0.0,0,0,0,0.0,2.511624
37.985472,-1.513306,SUMINISTROS PLIEGO S.L,0,1,0,0,0.0,0,0,0,0.0,17.777618
37.767583,-1.069333,REPSOL,0,1,0,0,0.0,0,0,0,0.0,12.486247
37.769,-1.068806,REPSOL,0,1,0,0,0.0,0,0,0,0.0,12.938339
38.177917,-1.352694,REPSOL,0,1,0,0,0.0,0,0,0,0.0,1.982644
38.176306,-1.123667,MOEVE,0,1,0,0,0.0,0,0,0,0.0,2.809516
42.514083,-2.742111,BEROIL,0,1,0,0,0.0,0,0,0,0.0,1.202999
42.533944,-2.919194,REPSOL,0,1,0,0,0.0,0,0,0,0.0,0.610716
42.049917,-1.956722,E.S. RIO LINARES,0,1,0,0,0.0,0,0,0,0.0,0.698879
40.223333,-3.334778,GALP,0,1,0,0,0.0,0,0,0,0.0,6.742246
40.780722,-3.774528,REPSOL,0,1,0,0,0.0,0,0,0,0.0,1.106967
40.721833,-4.020472,MOEVE,0,1,0,0,0.0,0,0,0,0.0,2.39827
40.72125,-4.019528,MOEVE,0,1,0,0,0.0,0,0,0,0.0,2.405684
38.771194,-2.450028,CANOIL,0,1,0,0,0.0,0,0,0,0.0,4.878046
39.211417,-1.539167,Nº 10.935,0,1,0,0,0.0,0,0,0,0.0,0.785773
39.990806,-4.794472,AVIA ,0,1,0,0,0.0,0,0,0,0.0,1.565643
40.242611,-4.379833,NUBOIL,0,1,0,0,0.0,0,0,0,0.0,1.229305
39.817556,-4.021194,HNOS. NAVAMUEL ESPERANZA,0,1,0,0,0.0,0,0,0,0.0,17.897966
39.692639,-4.38225,SIS CARBURANTES,0,1,0,0,0.0,0,0,0,0.0,1.380263
39.792056,-4.160167,BERMUDEZ,0,1,0,0,0.0,0,0,0,0.0,1.831145
40.798111,-3.345389,(SIN RÓTULO),0,1,0,0,0.0,0,0,0,0.0,0.56258
39.100792,-1.560857,GASOLINERAS DEL REY,0,1,0,0,0.0,0,0,0,0.0,1.55993
38.331361,-1.981861,"NAVARRO Y VALERO, S.L",0,1,0,0,0.0,0,0,0,0.0,0.660313
38.356556,-2.111056,E.S. LETUR,0,1,0,0,0.0,0,0,0,0.0,0.287617
39.704944,-4.271778,BERMUDEZ,0,1,0,0,0.0,0,0,0,0.0,1.583436
38.878028,-2.150639,E.S. BALAZOTE S.L.,0,1,0,0,0.0,0,0,0,0.0,7.692918
39.043139,-2.195139,E.S. BARRAX S.L.,0,1,0,0,0.0,0,0,0,0.0,3.238625
39.946667,-4.017222,REPSOL,0,1,0,0,0.0,0,0,0,0.0,1.137916
39.250333,-3.430306,MOEVE-TARAY,0,1,0,0,0.0,0,0,0,0.0,7.874986
39.269972,-1.548639,ES SAN ANTONIOABAD. FUENTEALBILLA,0,1,0,0,0.0,0,0,0,0.0,0.695248
38.786833,-4.82125,HGOIL,0,1,0,0,0.0,0,0,0,0.0,0.374676
37.777778,-5.201611,REPSOL,0,1,0,0,0.0,0,0,0,0.0,1.23296
40.972278,-2.615972,AREA 117,0,1,0,0,0.0,1,2,200,22.9538,7.652353
38.804722,-2.098778,INLOCOR S.L.,0,1,0,0,0.0,0,0,0,0.0,3.399063
40.761639,-2.882694,ALAMEDA,0,1,0,0,0.0,0,0,0,0.0,1.381456
39.793556,-4.869972,BP ALCAUDETE DE LA JARA,0,1,0,0,0.0,0,0,0,0.0,1.005427
39.538444,-1.899472,REPSOL,0,1,0,0,0.0,0,0,0,0.0,0.843524
40.078722,-4.379694,CARBUNOR,0,1,0,0,0.0,0,0,0,0.0,2.359524
38.689833,-1.433306,Nº 7374,0,1,0,0,0.0,0,0,0,0.0,1.231219
39.288222,-3.454194,GALP,0,1,0,0,0.0,0,0,0,0.0,9.556301
39.287556,-3.456833,GALP,0,1,0,0,0.0,0,0,0,0.0,9.599747
40.206528,-3.861778,CEPSA,0,1,0,0,0.0,0,0,0,0.0,4.417359
40.605028,-3.904333,CEPSA,0,1,0,0,0.0,0,0,0,0.0,80.153215
40.261278,-3.849306,CEPSA,0,1,0,0,0.0,0,0,0,0.0,2.513607
40.279472,-4.301667,GALP,0,1,0,0,0.0,0,0,0,0.0,0.183537
40.728,-3.859194,SHELL,0,1,0,0,0.0,0,0,0,0.0,5.253361
41.134917,-3.580806,MOEVE,0,1,0,0,0.0,0,0,0,0.0,2.475227
40.300639,-4.444139,REPSOL,0,1,0,0,0.0,0,0,0,0.0,0.306961
40.3575,-4.379472,REPSOL,0,1,0,0,0.0,0,0,0,0.0,0.432264
40.229722,-3.347528,REPSOL,0,1,0,0,0.0,0,0,0,0.0,21.443979
40.11225,-3.391,REPSOL,0,1,0,0,0.0,0,0,0,0.0,4.932229
40.120278,-3.152778,REPSOL,0,1,0,0,0.0,0,0,0,0.0,22.514714
40.364778,-3.243611,REPSOL,0,1,0,0,0.0,0,0,0,0.0,2.717503
40.733111,-4.067528,REPSOL,0,1,0,0,0.0,0,0,0,0.0,2.872982
40.385278,-3.407778,REPSOL,0,1,0,0,0.0,0,0,0,0.0,7.33626
40.382444,-4.170167,REPSOL,0,1,0,0,0.0,0,0,0,0.0,26.068321
40.381917,-4.170417,REPSOL,0,1,0,0,0.0,0,0,0,0.0,25.969603
40.987,-3.638056,REPSOL,0,1,0,0,0.0,0,0,0,0.0,8.516429
40.5405,-3.451917,REPSOL,0,1,0,0,0.0,0,0,0,0.0,3.952412
40.641667,-3.509694,REPSOL,0,1,0,0,0.0,0,0,0,0.0,1.542061
40.167722,-3.285472,MOEVE,0,1,0,0,0.0,0,0,0,0.0,13.303151
40.394472,-3.990639,MOEVE,0,1,0,0,0.0,0,0,0,0.0,13.185691
40.345333,-3.449028,REPSOL,0,1,0,0,0.0,0,0,0,0.0,27.754112
40.34625,-3.450889,REPSOL,0,1,0,0,0.0,0,0,0,0.0,3.70657
40.207361,-3.318806,MOEVE,0,1,0,0,0.0,0,0,0,0.0,18.111332
40.338556,-4.019111,GALP,0,1,0,0,0.0,0,0,0,0.0,6.346414
40.338972,-4.018306,GALP,0,1,0,0,0.0,0,0,0,0.0,6.34206
40.906667,-3.610167,SHELL,0,1,0,0,0.0,0,0,0,0.0,15.327676
40.7075,-3.974972,MEROIL,0,1,0,0,0.0,0,0,0,0.0,2.325277
40.498667,-4.239417,BALLENOIL,0,1,0,0,0.0,0,0,0,0.0,0.238224
40.378722,-4.093167,GALP,0,1,0,0,0.0,0,0,0,0.0,35.57879
40.379556,-4.092583,GALP,0,1,0,0,0.0,0,0,0,0.0,35.810818
40.856861,-3.612889,SHELL,0,1,0,0,0.0,0,0,0,0.0,3.00658
40.712972,-3.577917,REPSOL,0,1,0,0,0.0,0,0,0,0.0,12.245376
40.997889,-3.637528,MOEVE,0,1,0,0,0.0,0,0,0,0.0,15.874538
42.135111,-5.832583,ALIJA ENERGIA,0,1,0,0,0.0,0,0,0,0.0,5.468616
42.920389,-3.581222,AVIA,0,1,0,0,0.0,0,0,0,0.0,0.315512
41.206194,-5.019917,AVIA,0,1,0,0,0.0,0,0,0,0.0,1.6723
42.341167,-4.616639,RÍO NUBIS,0,1,0,0,0.0,0,0,0,0.0,0.064111
40.894167,-5.58675,EL TREBOL,0,1,0,0,0.0,0,0,0,0.0,1.045502
42.862389,-4.499194,J.L.SARDINA S.L.,0,1,0,0,0.0,0,0,0,0.0,0.707419
40.969556,-4.102722,BALLENOIL,0,1,0,0,0.0,0,0,0,0.0,1.138249
42.660667,-5.623778,JOVINO ESTHER E HIJOS S.L.,0,1,0,0,0.0,0,0,0,0.0,2.761119
40.766778,-5.419694,LIBRE,0,1,0,0,0.0,0,0,0,0.0,0.369636
40.777472,-5.877528,EL TREBOL,0,1,0,0,0.0,0,0,0,0.0,0.761355
41.549917,-5.70475,CEPSA,0,1,0,0,0.0,0,0,0,0.0,1.346925
42.379861,-3.928167,E.S.SAIZ,0,1,0,0,0.0,0,0,0,0.0,0.050589
42.417,-4.35075,PETROCORNER LOS CHOPOS,0,1,0,0,0.0,0,0,0,0.0,0.542644
41.332306,-3.468861,CEPSA,0,1,0,0,0.0,0,0,0,0.0,1.627206
42.533611,-5.592944,REPSOL,0,1,0,0,0.0,0,0,0,0.0,0.963245
38.794139,-4.856972,HGOIL,0,1,0,0,0.0,0,0,0,0.0,0.140146
40.036083,-4.522417,SAN ROQUE ( LOW COST ),0,1,0,0,0.0,0,0,0,0.0,20.70565
39.770444,-2.166139,MEROIL,0,1,0,0,0.0,0,0,0,0.0,0.320191
39.238111,-1.635111,MOEVE,0,1,0,0,0.0,0,0,0,0.0,1.326908
38.828806,-1.553694,GASOLEOS TURBULA ,0,1,0,0,0.0,0,0,0,0.0,0.783985
38.493528,-2.411444,CEPSA,0,1,0,0,0.0,0,0,0,0.0,0.470495
38.646833,-1.978917,CEPSA,0,1,0,0,0.0,0,0,0,0.0,1.77307
38.368667,-2.314667,CEPSA,0,1,0,0,0.0,0,0,0,0.0,0.278492
38.898306,-1.502806,CEPSA,0,1,0,0,0.0,0,0,0,0.0,7.551626
39.931472,-3.010528,E.S. VIRGEN DE LA SOLEDAD,0,1,0,0,0.0,0,0,0,0.0,3.700953
40.426806,-2.223111,R4 SAN MILLAN,0,1,0,0,0.0,0,0,0,0.0,0.231417
39.455389,-2.681611,PEDROGAS S.L. (JULIO CHARCO),0,1,0,0,0.0,0,0,0,0.0,0.713738
39.460306,-4.408333,J.UTRILLA,0,1,0,0,0.0,0,0,0,0.0,0.548452
38.590194,-3.472944,MOEVE,0,1,0,0,0.0,0,0,0,0.0,11.455308
39.361667,-2.200972,REPSOL,0,1,0,0,0.0,0,0,0,0.0,0.381036
41.048,-2.204917,MAR.OIL,0,1,0,0,0.0,0,0,0,0.0,1.903529
38.946306,-4.608472,REPSOL,0,1,0,0,0.0,0,0,0,0.0,0.575221
39.131944,-3.079389,REPSOL E.S.MILA HERMANOS REDONDO S.L.,0,1,0,0,0.0,0,0,0,0.0,2.917877
40.761528,-3.009417,REPSOL,0,1,0,0,0.0,0,0,0,0.0,9.999458
39.442944,-2.671694,CEPSA,0,1,0,0,0.0,0,0,0,0.0,2.126861
40.630611,-3.233833,REPSOL,0,1,0,0,0.0,0,0,0,0.0,1.320809
38.824611,-3.567944,REPSOL ,0,1,0,0,0.0,0,0,0,0.0,3.002928
38.671333,-4.262556,GALP LA JUNQUERA,0,1,0,0,0.0,0,0,0,0.0,1.189993
38.62325,-3.908611,E.S. VADILLO,0,1,0,0,0.0,0,0,0,0.0,7.4859
39.846556,-1.272889,REPSOL,0,1,0,0,0.0,0,0,0,0.0,1.58098
39.086278,-1.963944,REPSOL,0,1,0,0,0.0,0,0,0,0.0,14.543558
39.864361,-2.577083,REPSOL,0,1,0,0,0.0,0,0,0,0.0,10.007969
38.957472,-3.383194,MOEVE,0,1,0,0,0.0,0,0,0,0.0,13.950734
38.921833,-1.583389,REPSOL,0,1,0,0,0.0,0,0,0,0.0,12.617185
39.392028,-2.438556,REPSOL,0,1,0,0,0.0,0,0,0,0.0,0.811038
39.9135,-2.744389,REPSOL,0,1,0,0,0.0,0,0,0,0.0,8.994892
39.912,-2.743472,REPSOL,0,1,0,0,0.0,0,0,0,0.0,9.180273
38.718028,-4.071306,REPSOL,0,1,0,0,0.0,0,0,0,0.0,0.668365
40.927722,-2.714167,REPSOL,0,1,0,0,0.0,0,0,0,0.0,8.16101
40.064639,-3.083056,REPSOL,0,1,0,0,0.0,0,0,0,0.0,24.708031
41.034056,-2.481194,REPSOL,0,1,0,0,0.0,0,0,0,0.0,8.998928
39.872806,-2.60975,REPSOL,0,1,0,0,0.0,0,0,0,0.0,14.016422
39.63825,-2.330556,MOEVE,0,1,0,0,0.0,1,2,250,15.1761,9.228208
39.638556,-2.328028,MOEVE,0,1,0,0,0.0,0,0,0,0.0,11.848553
39.596361,-2.28075,REPSOL,0,1,0,0,0.0,0,0,0,0.0,0.967634
39.53775,-2.253889,REPSOL,0,1,0,0,0.0,0,0,0,0.0,8.191791
39.484444,-2.158278,REPSOL,0,1,0,0,0.0,1,2,200,18.5395,7.348588
39.519389,-1.752472,REPSOL,0,1,0,0,0.0,0,0,0,0.0,7.901097
41.193722,-2.868583,REPSOL,0,1,0,0,0.0,0,0,0,0.0,1.850833
41.065646,-2.647839,REPSOL,0,1,0,0,0.0,0,0,0,0.0,0.713059
40.92225,-2.928389,CEPSA,0,1,0,0,0.0,0,0,0,0.0,2.745149
40.728722,-3.048972,MOEVE,0,1,0,0,0.0,0,0,0,0.0,10.090419
40.829972,-3.149889,CEPSA,0,1,0,0,0.0,0,0,0,0.0,1.709348
40.896417,-2.759917,CEPSA,0,1,0,0,0.0,0,0,0,0.0,7.884951
40.898444,-2.760472,MOEVE,0,1,0,0,0.0,0,0,0,0.0,7.776479
40.579694,-3.288111, FUENTECILLA I,0,1,0,0,0.0,0,0,0,0.0,2.881577
39.903833,-2.714278,BP SEGÓBRIGA,0,1,0,0,0.0,0,0,0,0.0,9.896156
38.581722,-2.626222,REPSOL,0,1,0,0,0.0,0,0,0,0.0,1.825421
39.302389,-2.067639,E.S EL GORRION,0,1,0,0,0.0,1,1,250,10.3629,3.01738
39.217889,-4.285806,REPSOL,0,1,0,0,0.0,0,0,0,0.0,0.644119
40.345861,-2.891528,ANAYA SL,0,1,0,0,0.0,0,0,0,0.0,0.385028
39.735806,-2.924444,E.S. VALENCIANO MEDINA,0,1,0,0,0.0,0,0,0,0.0,0.522135
39.520639,-2.487694,REPSOL,0,1,0,0,0.0,0,0,0,0.0,0.3251
39.439667,-1.942417,PETRONOR,0,1,0,0,0.0,0,0,0,0.0,1.903853
40.854417,-4.972861,HERMANOS CRUZ (REPOSTAR),0,1,0,0,0.0,0,0,0,0.0,0.342946
40.450944,-4.582111,MOEVE ,0,1,0,0,0.0,0,0,0,0.0,1.085531
42.37675,-3.590833,"BEROIL, S.L.",0,1,0,0,0.0,0,0,0,0.0,1.385174
42.080417,-4.778028,S.E. SAN AGUSTIN S.L.,0,1,0,0,0.0,0,0,0,0.0,0.298872
42.86225,-5.673722,SERVIGORDON,0,1,0,0,0.0,0,0,0,0.0,0.819594
42.534083,-5.584028,VALCARCE,0,1,0,0,0.0,0,0,0,0.0,2.254651
41.734083,-6.468389,LA CHUCA,0,1,0,0,0.0,0,0,0,0.0,0.026576
40.35975,-5.133889,E.S GREDOS,0,1,0,0,0.0,0,0,0,0.0,0.116447
41.415667,-5.873611,REPOSTAR--ALFA,0,1,0,0,0.0,0,0,0,0.0,1.351616
41.597806,-5.121806,SIS CARBURANTES,0,1,0,0,0.0,0,0,0,0.0,0.046936
42.191833,-4.287056,LA MOTA - BIESA,0,1,0,0,0.0,0,0,0,0.0,0.424941
42.426861,-3.681639,CEPSA,0,1,0,0,0.0,0,0,0,0.0,1.290113
40.3585,-5.516528,BELLAVISTA S.L.,0,1,0,0,0.0,0,0,0,0.0,0.705639
42.734833,-3.414722,AVIA,0,1,0,0,0.0,0,0,0,0.0,0.594229
41.444944,-5.733611,REPOSTAR - ANSELMO MONTERO BRAGADO,0,1,0,0,0.0,0,0,0,0.0,0.987672
41.012083,-5.970083,"EUMOGAS, SL",0,1,0,0,0.0,0,0,0,0.0,0.989004
41.042333,-4.849111,"LAS CORREHUELAS, S.L",0,1,0,0,0.0,0,0,0,0.0,5.20826
41.345139,-4.59875,E.S.PEDRAJAS,0,1,0,0,0.0,0,0,0,0.0,0.920868
42.660389,-5.624444,JOVINO ESTHER E HIJOS S.L.,0,1,0,0,0.0,0,0,0,0.0,2.76043
41.687417,-4.683056,SERVATRA,0,1,0,0,0.0,0,0,0,0.0,1.669918
41.903806,-2.463972,E.S. EL VALLE,0,1,0,0,0.0,0,0,0,0.0,0.89896
42.940389,-3.570556,E.S. RIVERA,0,1,0,0,0.0,0,0,0,0.0,0.317515
40.182917,-5.044083,FERNANDEZ BERMEJO,0,1,0,0,0.0,0,0,0,0.0,2.813689
42.646333,-6.876556,E.S. TRABADELO,0,1,0,0,0.0,0,0,0,0.0,0.219116
42.599222,-6.230444,EASYGAS,0,1,0,0,0.0,0,0,0,0.0,0.318058
42.637028,-3.623861,E.S. LAS BRUJAS - CERNEGULA,0,1,0,0,0.0,0,0,0,0.0,0.690638
40.209,-5.079611,FERNANDEZ BERMEJO,0,1,0,0,0.0,0,0,0,0.0,0.40136
42.970556,-3.849417,AVIA,0,1,0,0,0.0,0,0,0,0.0,0.457526
41.636417,-5.798417,LOSADA - MONTAMARTA,0,1,0,0,0.0,0,0,0,0.0,0.268268
42.733694,-2.750194,GASOLINERA TREVIÑO,0,1,0,0,0.0,0,0,0,0.0,1.890988
42.801861,-3.768667,E.S. EBRO,0,1,0,0,0.0,0,0,0,0.0,1.068345
41.495833,-2.87075,REPSOL,0,1,0,0,0.0,0,0,0,0.0,0.952621
42.784111,-5.787083,E.S.CARGOSA,0,1,0,0,0.0,0,0,0,0.0,3.359086
40.949639,-4.414056,AGROCOMERCIAL HIGUERA ,0,1,0,0,0.0,0,0,0,0.0,1.35051
42.894639,-4.287667,LOS LINARES,0,1,0,0,0.0,0,0,0,0.0,0.201559
42.081417,-6.64025,"REPOSTAR,  ANTONIO  DEL ESTAL LÓPEZ S.L.",0,1,0,0,0.0,0,0,0,0.0,0.221942
41.0305,-6.222444,"ESTACION DE SERVICIO PRIETO, S.L.",0,1,0,0,0.0,0,0,0,0.0,0.778852
40.907306,-5.664583,LAS TORRES,0,1,0,0,0.0,0,0,0,0.0,0.781297
40.697972,-6.416278,SHELL,0,1,0,0,0.0,0,0,0,0.0,0.146114
43.04575,-3.68825,AVIA,0,1,0,0,0.0,0,0,0,0.0,0.080809
41.347444,-4.119111,REPOSTAR,0,1,0,0,0.0,0,0,0,0.0,0.590551
42.384277,-5.985685,COMPOSTRA OIL,0,1,0,0,0.0,0,0,0,0.0,0.756072
41.406111,-4.960806,LOS CEAS,0,1,0,0,0.0,0,0,0,0.0,17.046662
42.278444,-3.89175,BEROIL,0,1,0,0,0.0,0,0,0,0.0,0.824659
40.409667,-4.493583,Q8,0,1,0,0,0.0,0,0,0,0.0,1.011991
42.525194,-5.756778,GALP,0,1,0,0,0.0,0,0,0,0.0,3.921186
40.955639,-4.614111,CEPSA,0,1,0,0,0.0,0,0,0,0.0,6.291974
40.955111,-4.614556,CEPSA,0,1,0,0,0.0,0,0,0,0.0,6.707269
42.651972,-3.068028,MOEVE,0,1,0,0,0.0,0,0,0,0.0,10.544504
42.650611,-3.069667,MOEVE,0,1,0,0,0.0,0,0,0,0.0,10.544504
40.154556,-5.245833,CEPSA,0,1,0,0,0.0,0,0,0,0.0,0.411414
42.526028,-3.334111,MOEVE,0,1,0,0,0.0,0,0,0,0.0,1.155101
40.635333,-4.758444,MOEVE,0,1,0,0,0.0,0,0,0,0.0,7.406867
42.528861,-3.332083,MOEVE,0,1,0,0,0.0,0,0,0,0.0,1.155104
42.597833,-6.504278,MOEVE,0,1,0,0,0.0,0,0,0,0.0,9.498777
42.458556,-5.882444,CEPSA,0,1,0,0,0.0,0,0,0,0.0,4.108684
40.58525,-4.410556,CEPSA,0,1,0,0,0.0,0,0,0,0.0,0.848323
42.132361,-3.716806,CEPSA,0,1,0,0,0.0,0,0,0,0.0,12.064795
42.973944,-4.96225,MOEVE,0,1,0,0,0.0,0,0,0,0.0,0.584546
42.369111,-5.024222,CEPSA,0,1,0,0,0.0,0,0,0,0.0,0.012174
41.573639,-3.7055,CEPSA,0,1,0,0,0.0,0,0,0,0.0,6.456815
40.451778,-4.467778,CEPSA,0,1,0,0,0.0,0,0,0,0.0,0.374617
40.301472,-4.639861,LA ADRADA,0,1,0,0,0.0,0,0,0,0.0,0.741168
42.705389,-6.515639,CEPSA,0,1,0,0,0.0,0,0,0,0.0,1.904511
