lat,lon,name,is_city,is_feasible_location,is_existing_charger,n_chargers,mean_power_kw,x_built,c_built,p_built_kw,wq_minutes,lambda_k
37.11906,-3.584,Zubia,1,0,0,0,0.0,0,0,0,0.0,0.0
38.42539,-6.41734,Zafra,1,0,0,0,0.0,0,0,0,0.0,0.0
38.61365,-1.11468,Yecla,1,0,0,0,0.0,0,0,0,0.0,0.0
38.6373,-0.86568,Villena,1,0,0,0,0.0,0,0,0,0.0,0.0
39.22085,-3.60802,Villarrubia de los Ojos,1,0,0,0,0.0,0,0,0,0.0,0.0
39.26992,-2.60119,Villarrobledo,1,0,0,0,0.0,0,0,0,0.0,0.0
39.9383,-0.10087,Vila-real,1,0,0,0,0.0,0,0,0,0.0,0.0
38.97655,-5.7974,Villanueva de la Serena,1,0,0,0,0.0,0,0,0,0.0,0.0
38.32277,-4.62873,Villanueva de Córdoba,1,0,0,0,0.0,0,0,0,0.0,0.0
36.85979,-5.64485,Villamartín,1,0,0,0,0.0,0,0,0,0.0,0.0
38.50754,-0.23346,Villajoyosa,1,0,0,0,0.0,0,0,0,0.0,0.0
38.1156,-3.0848,Villacarrillo,1,0,0,0,0.0,0,0,0,0.0,0.0
39.62367,-3.33813,Villacañas,1,0,0,0,0.0,0,0,0,0.0,0.0
36.83155,-2.64273,Vícar,1,0,0,0,0.0,0,0,0,0.0,0.0
37.24345,-1.85905,Vera,1,0,0,0,0.0,0,0,0,0.0,0.0
36.78107,-4.10266,Vélez-Málaga,1,0,0,0,0.0,0,0,0,0.0,0.0
36.25213,-5.96717,Vejer de la Frontera,1,0,0,0,0.0,0,0,0,0.0,0.0
37.57511,-6.75432,Valverde del Camino,1,0,0,0,0.0,0,0,0,0.0,0.0
39.47391,-0.37966,Valencia,1,0,0,0,0.0,0,0,0,0.0,0.0
38.76211,-3.38483,Valdepeñas,1,0,0,0,0.0,0,0,0,0.0,0.0
37.18516,-5.78093,Utrera,1,0,0,0,0.0,0,0,0,0.0,0.0
39.56667,-1.2,Utiel,1,0,0,0,0.0,0,0,0,0.0,0.0
36.67777,-5.446,Ubrique,1,0,0,0,0.0,0,0,0,0.0,0.0
38.01328,-3.3705,Úbeda,1,0,0,0,0.0,0,0,0,0.0,0.0
37.7688,-1.50229,Totana,1,0,0,0,0.0,0,0,0,0.0,0.0
39.98195,-4.28349,Torrijos,1,0,0,0,0.0,0,0,0,0.0,0.0
37.97872,-0.68222,Torrevieja,1,0,0,0,0.0,0,0,0,0.0,0.0
37.74293,-0.95396,Torre-Pacheco,1,0,0,0,0.0,0,0,0,0.0,0.0
36.62035,-4.49976,Torremolinos,1,0,0,0,0.0,0,0,0,0.0,0.0
37.76748,-3.95776,Torredonjimeno,1,0,0,0,0.0,0,0,0,0.0,0.0
39.15759,-3.02156,Tomelloso,1,0,0,0,0.0,0,0,0,0.0,0.0
37.37281,-6.04589,Tomares,1,0,0,0,0.0,0,0,0,0.0,0.0
39.8581,-4.02263,Toledo,1,0,0,0,0.0,0,0,0,0.0,0.0
38.7294,0.10383,Teulada,1,0,0,0,0.0,0,0,0,0.0,0.0
36.01393,-5.60695,Tarifa,1,0,0,0,0.0,0,0,0,0.0,0.0
39.96348,-4.83076,Talavera de la Reina,1,0,0,0,0.0,0,0,0,0.0,0.0
39.07195,-0.26623,Tavernes de la Valldigna,1,0,0,0,0.0,0,0,0,0.0,0.0
39.67747,-3.97448,Sonseca,1,0,0,0,0.0,0,0,0,0.0,0.0
38.3964,-0.5255,San Vicent del Raspeig,1,0,0,0,0.0,0,0,0,0.0,0.0
38.06147,-1.04877,Santomera,1,0,0,0,0.0,0,0,0,0.0,0.0
38.19165,-0.5658,Santa Pola,1,0,0,0,0.0,0,0,0,0.0,0.0
36.20983,-5.38452,San Roque,1,0,0,0,0.0,0,0,0,0.0,0.0
36.48839,-4.99123,San Pedro Alcántara,1,0,0,0,0.0,0,0,0,0.0,0.0
36.77808,-6.3515,Sanlúcar de Barrameda,1,0,0,0,0.0,0,0,0,0.0,0.0
36.4759,-6.19817,San Fernando,1,0,0,0,0.0,0,0,0,0.0,0.0
36.74277,-3.58717,Salobreña,1,0,0,0,0.0,0,0,0,0.0,0.0
39.68333,-0.26667,Sagunto,1,0,0,0,0.0,0,0,0,0.0,0.0
37.3269,-4.36827,Rute,1,0,0,0,0.0,0,0,0,0.0,0.0
36.74231,-5.16709,Ronda,1,0,0,0,0.0,0,0,0,0.0,0.0
39.59369,-3.04165,Quintanar de la Orden,1,0,0,0,0.0,0,0,0,0.0,0.0
38.68712,-4.10734,Puertollano,1,0,0,0,0.0,0,0,0,0.0,0.0
37.38943,-4.76686,Puente-Genil,1,0,0,0,0.0,0,0,0,0.0,0.0
39.59747,-0.55468,La Pobla de Vallbona,1,0,0,0,0.0,0,0,0,0.0,0.0
38.37906,-4.84827,Pozoblanco,1,0,0,0,0.0,0,0,0,0.0,0.0
37.25109,-3.74967,Pinos Puente,1,0,0,0,0.0,0,0,0,0.0,0.0
37.30337,-6.30097,Pilas,1,0,0,0,0.0,0,0,0,0.0,0.0
38.3,-5.26667,Peñarroya-Pueblonuevo,1,0,0,0,0.0,0,0,0,0.0,0.0
37.23457,-6.89471,Palos de la Frontera,1,0,0,0,0.0,0,0,0,0.0,0.0
37.70024,-5.28121,Palma del Río,1,0,0,0,0.0,0,0,0,0.0,0.0
37.2376,-5.10311,Osuna,1,0,0,0,0.0,0,0,0,0.0,0.0
38.82191,-0.60603,Ontinyent,1,0,0,0,0.0,0,0,0,0.0,0.0
38.91971,-0.11935,Oliva,1,0,0,0,0.0,0,0,0,0.0,0.0
38.38479,-0.76773,Novelda,1,0,0,0,0.0,0,0,0,0.0,0.0
36.96655,-2.20595,Níjar,1,0,0,0,0.0,0,0,0,0.0,0.0
36.75278,-3.8744,Nerja,1,0,0,0,0.0,0,0,0,0.0,0.0
39.89158,-5.54064,Navalmoral de la Mata,1,0,0,0,0.0,0,0,0,0.0,0.0
38.04095,-1.49014,Mula,1,0,0,0,0.0,0,0,0,0.0,0.0
37.12084,-5.45403,Morón de la Frontera,1,0,0,0,0.0,0,0,0,0.0,0.0
37.58627,-4.63805,Montilla,1,0,0,0,0.0,0,0,0,0.0,0.0
38.90839,-6.61785,Montijo,1,0,0,0,0.0,0,0,0,0.0,0.0
38.96442,-3.89047,Miguelturra,1,0,0,0,0.0,0,0,0,0.0,0.0
39.15127,-5.90841,Miajadas,1,0,0,0,0.0,0,0,0,0.0,0.0
38.91802,-6.34292,Mérida,1,0,0,0,0.0,0,0,0,0.0,0.0
36.45695,-5.92717,Medina Sidonia,1,0,0,0,0.0,0,0,0,0.0,0.0
37.5992,-1.31493,Mazarrón,1,0,0,0,0.0,0,0,0,0.0,0.0
37.329,-5.41681,Marchena,1,0,0,0,0.0,0,0,0,0.0,0.0
38.99915,-3.36991,Manzanares,1,0,0,0,0.0,0,0,0,0.0,0.0
36.37645,-5.25026,Manilva,1,0,0,0,0.0,0,0,0,0.0,0.0
37.78627,-3.61226,Mancha Real,1,0,0,0,0.0,0,0,0,0.0,0.0
37.37301,-5.74951,Mairena del Alcor,1,0,0,0,0.0,0,0,0,0.0,0.0
39.46823,-3.53196,Madridejos,1,0,0,0,0.0,0,0,0,0.0,0.0
37.56329,-1.80974,Puerto Lumbreras,1,0,0,0,0.0,0,0,0,0.0,0.0
37.65896,-5.52751,Lora del Río,1,0,0,0,0.0,0,0,0,0.0,0.0
37.16887,-4.15129,Loja,1,0,0,0,0.0,0,0,0,0.0,0.0
38.09519,-3.63602,Linares,1,0,0,0,0.0,0,0,0,0.0,0.0
37.25482,-7.20433,Lepe,1,0,0,0,0.0,0,0,0,0.0,0.0
36.92077,-6.07529,Lebrija,1,0,0,0,0.0,0,0,0,0.0,0.0
39.20735,-2.15723,La Roda,1,0,0,0,0.0,0,0,0,0.0,0.0
37.38605,-6.55231,La Palma del Condado,1,0,0,0,0.0,0,0,0,0.0,0.0
38.27559,-3.61535,La Carolina,1,0,0,0,0.0,0,0,0,0.0,0.0
37.67359,-4.93122,La Carlota,1,0,0,0,0.0,0,0,0,0.0,0.0
38.47917,-1.325,Jumilla,1,0,0,0,0.0,0,0,0,0.0,0.0
38.32063,-6.7726,Jerez de los Caballeros,1,0,0,0,0.0,0,0,0,0.0,0.0
36.68645,-6.13606,Jerez de la Frontera,1,0,0,0,0.0,0,0,0,0.0,0.0
38.99042,-0.51852,Xàtiva,1,0,0,0,0.0,0,0,0,0.0,0.0
38.62533,-0.57225,Ibi,1,0,0,0,0.0,0,0,0,0.0,0.0
38.5106,-1.70096,Hellín,1,0,0,0,0.0,0,0,0,0.0,0.0
37.29932,-3.13922,Guadix,1,0,0,0,0.0,0,0,0,0.0,0.0
38.53089,-5.92513,El Casar,1,0,0,0,0.0,0,0,0,0.0,0.0
39.98406,-6.53603,Coria,1,0,0,0,0.0,0,0,0,0.0,0.0
37.89155,-4.77275,Córdoba,1,0,0,0,0.0,0,0,0,0.0,0.0
36.65947,-4.75639,Coín,1,0,0,0,0.0,0,0,0,0.0,0.0
38.23998,-1.41987,Cieza,1,0,0,0,0.0,0,0,0,0.0,0.0
39.46667,-0.71667,Chiva,1,0,0,0,0.0,0,0,0,0.0,0.0
38.09242,-1.7985,Cehegín,1,0,0,0,0.0,0,0,0,0.0,0.0
39.2266,-0.52142,Carlet,1,0,0,0,0.0,0,0,0,0.0,0.0
37.61032,-5.82472,Cantillana,1,0,0,0,0.0,0,0,0,0.0,0.0
39.40463,-3.12492,Campo de Criptana,1,0,0,0,0.0,0,0,0,0.0,0.0
39.47649,-6.37224,Cáceres,1,0,0,0,0.0,0,0,0,0.0,0.0
38.9069,-3.66345,Bolaños de Calatrava,1,0,0,0,0.0,0,0,0,0.0,0.0
36.84693,-2.94966,Berja,1,0,0,0,0.0,0,0,0,0.0,0.0
37.49073,-2.77259,Baza,1,0,0,0,0.0,0,0,0,0.0,0.0
37.6167,-4.32245,Baena,1,0,0,0,0.0,0,0,0,0.0,0.0
38.87789,-6.97061,Badajoz,1,0,0,0,0.0,0,0,0,0.0,0.0
37.59989,-0.80682,Atamaría,1,0,0,0,0.0,0,0,0,0.0,0.0
37.01938,-4.56123,Antequera,1,0,0,0,0.0,0,0,0,0.0,0.0
38.03922,-4.05077,Andújar,1,0,0,0,0.0,0,0,0,0.0,0.0
38.68316,-6.40747,Almendralejo,1,0,0,0,0.0,0,0,0,0.0,0.0
38.86917,-1.09713,Almansa,1,0,0,0,0.0,0,0,0,0.0,0.0
37.59091,-4.08237,Alcaudete,1,0,0,0,0.0,0,0,0,0.0,0.0
37.4614,-3.92301,Alcalá la Real,1,0,0,0,0.0,0,0,0,0.0,0.0
37.38856,-2.14949,Albox,1,0,0,0,0.0,0,0,0,0.0,0.0
38.17902,-0.87059,Albatera,1,0,0,0,0.0,0,0,0,0.0,0.0
38.99424,-1.85643,Albacete,1,0,0,0,0.0,0,0,0,0.0,0.0
37.4063,-1.58289,Águilas,1,0,0,0,0.0,0,0,0,0.0,0.0
43.28444,-2.16992,Zarautz,1,0,0,0,0.0,0,0,0,0.0,0.0
41.65606,-0.87734,Zaragoza,1,0,0,0,0.0,0,0,0,0.0,0.0
41.50633,-5.74456,Zamora,1,0,0,0,0.0,0,0,0,0.0,0.0
43.66228,-7.59344,Viveiro,1,0,0,0,0.0,0,0,0,0.0,0.0
42.84998,-2.67268,Gasteiz / Vitoria,1,0,0,0,0.0,0,0,0,0.0,0.0
40.47033,0.47559,Vinaròs,1,0,0,0,0.0,0,0,0,0.0,0.0
40.3581,-3.9043,Villaviciosa de Odón,1,0,0,0,0.0,0,0,0,0.0,0.0
43.48126,-5.43574,Villaviciosa,1,0,0,0,0.0,0,0,0,0.0,0.0
42.64685,-5.55835,Villaquilambre,1,0,0,0,0.0,0,0,0,0.0,0.0
41.22392,1.72511,Vilanova i la Geltrú,1,0,0,0,0.0,0,0,0,0.0,0.0
42.564,-8.82797,Vilanova de Arousa,1,0,0,0,0.0,0,0,0,0.0,0.0
43.29806,-7.6813,Vilalba,1,0,0,0,0.0,0,0,0,0.0,0.0
42.8323,-1.60735,Atarrabia,1,0,0,0,0.0,0,0,0,0.0,0.0
41.11118,1.14764,Vila-seca,1,0,0,0,0.0,0,0,0,0.0,0.0
42.06174,2.25528,Vilaseca,1,0,0,0,0.0,0,0,0,0.0,0.0
41.57165,1.63751,Vilanova del Camí,1,0,0,0,0.0,0,0,0,0.0,0.0
41.31405,2.01427,Viladecans,1,0,0,0,0.0,0,0,0,0.0,0.0
42.23282,-8.72264,Vigo,1,0,0,0,0.0,0,0,0,0.0,0.0
40.4,-3.6,Vicálvaro,1,0,0,0,0.0,0,0,0,0.0,0.0
41.94149,-7.43809,Verín,1,0,0,0,0.0,0,0,0,0.0,0.0
43.1151,-2.4175,Bergara,1,0,0,0,0.0,0,0,0,0.0,0.0
41.28612,1.24993,Valls,1,0,0,0,0.0,0,0,0,0.0,0.0
41.65541,-4.72353,Valladolid,1,0,0,0,0.0,0,0,0,0.0,0.0
40.19081,-3.67887,Valdemoro,1,0,0,0,0.0,0,0,0,0.0,0.0
40.50064,-4.0671,Valdemorillo,1,0,0,0,0.0,0,0,0,0.0,0.0
42.04713,-8.64435,Tui,1,0,0,0,0.0,0,0,0,0.0,0.0
42.06166,-1.60452,Tudela,1,0,0,0,0.0,0,0,0,0.0,0.0
40.81249,0.5216,Tortosa,1,0,0,0,0.0,0,0,0,0.0,0.0
42.04254,3.12703,Torroella de Montgrí,1,0,0,0,0.0,0,0,0,0.0,0.0
43.34943,-4.04785,Torrelavega,1,0,0,0,0.0,0,0,0,0.0,0.0
41.14505,1.39861,Torredembarra,1,0,0,0,0.0,0,0,0,0.0,0.0
41.69914,2.71888,Tordera,1,0,0,0,0.0,0,0,0,0.0,0.0
43.33765,-6.41452,Tineo,1,0,0,0,0.0,0,0,0,0.0,0.0
40.3456,-1.10646,Teruel,1,0,0,0,0.0,0,0,0,0.0,0.0
42.795,-8.548,Teo,1,0,0,0,0.0,0,0,0,0.0,0.0
41.64704,1.13957,Tàrrega,1,0,0,0,0.0,0,0,0,0.0,0.0
41.56667,2.01667,Terrassa,1,0,0,0,0.0,0,0,0,0.0,0.0
41.90475,-1.72678,Tarazona,1,0,0,0,0.0,0,0,0,0.0,0.0
40.00851,-3.00731,Tarancón,1,0,0,0,0.0,0,0,0,0.0,0.0
42.52687,-1.67446,Tafalla,1,0,0,0,0.0,0,0,0,0.0,0.0
41.76401,-2.46883,Soria,1,0,0,0,0.0,0,0,0,0.0,0.0
43.37891,-2.98313,Sopela,1,0,0,0,0.0,0,0,0,0.0,0.0
42.35877,1.46144,La Seu d'Urgell,1,0,0,0,0.0,0,0,0,0.0,0.0
40.94808,-4.11839,Segovia,1,0,0,0,0.0,0,0,0,0.0,0.0
42.78148,-7.41431,Sarria,1,0,0,0,0.0,0,0,0,0.0,0.0
43.44386,-3.45757,Santoña,1,0,0,0,0.0,0,0,0,0.0,0.0
41.74549,1.80476,Sant Joan de Vilatorrada,1,0,0,0,0.0,0,0,0,0.0,0.0
43.46589,-3.80493,Santander,1,0,0,0,0.0,0,0,0,0.0,0.0
40.95065,-5.62723,Santa Marta de Tormes,1,0,0,0,0.0,0,0,0,0.0,0.0
43.03306,-8.80925,Santa Comba,1,0,0,0,0.0,0,0,0,0.0,0.0
41.45152,2.2081,Santa Coloma de Gramenet,1,0,0,0,0.0,0,0,0,0.0,0.0
41.42555,1.78519,Sant Sadurní d'Anoia,1,0,0,0,0.0,0,0,0,0.0,0.0
41.78333,3.03333,Sant Feliu de Guíxols,1,0,0,0,0.0,0,0,0,0.0,0.0
41.56667,2.48333,Sant Andreu de Llavaneres,1,0,0,0,0.0,0,0,0,0.0,0.0
40.67882,-3.61639,San Agustín del Guadalix,1,0,0,0,0.0,0,0,0,0.0,0.0
43.29568,-5.68416,Sama,1,0,0,0,0.0,0,0,0,0.0,0.0
41.97489,2.79281,Salt,1,0,0,0,0.0,0,0,0,0.0,0.0
43.35619,-8.25796,Sada,1,0,0,0,0.0,0,0,0,0.0,0.0
42.51924,-0.36607,Sabiñánigo,1,0,0,0,0.0,0,0,0,0.0,0.0
42.26199,3.17689,Roses,1,0,0,0,0.0,0,0,0,0.0,0.0
43.31195,-1.90234,Errenteria,1,0,0,0,0.0,0,0,0,0.0,0.0
42.99959,-4.13801,Reinosa,1,0,0,0,0.0,0,0,0,0.0,0.0
43.45266,-7.85178,As Pontes de García Rodríguez,1,0,0,0,0.0,0,0,0,0.0,0.0
42.431,-8.64435,Pontevedra,1,0,0,0,0.0,0,0,0,0.0,0.0
42.54664,-6.59619,Ponferrada,1,0,0,0,0.0,0,0,0,0.0,0.0
40.03116,-6.08845,Plasencia,1,0,0,0,0.0,0,0,0,0.0,0.0
42.00955,-4.52406,Palencia,1,0,0,0,0.0,0,0,0,0.0,0.0
42.33669,-7.86407,Ourense,1,0,0,0,0.0,0,0,0,0.0,0.0
43.07654,-8.409,Ordes,1,0,0,0,0.0,0,0,0,0.0,0.0
42.18096,2.49012,Olot,1,0,0,0,0.0,0,0,0,0.0,0.0
40.67816,-3.9707,Moralzarzal,1,0,0,0,0.0,0,0,0,0.0,0.0
41.91084,0.19406,Monzón,1,0,0,0,0.0,0,0,0,0.0,0.0
42.52165,-7.51422,Monforte de Lemos,1,0,0,0,0.0,0,0,0,0.0,0.0
42.6865,-2.94695,Miranda de Ebro,1,0,0,0,0.0,0,0,0,0.0,0.0
41.31239,-4.91413,Medina del Campo,1,0,0,0,0.0,0,0,0,0.0,0.0
40.55274,-3.32894,Meco,1,0,0,0,0.0,0,0,0,0.0,0.0
43.00992,-7.55602,Lugo,1,0,0,0,0.0,0,0,0,0.0,0.0
43.61517,-5.79344,Luanco,1,0,0,0,0.0,0,0,0,0.0,0.0
42.46615,-2.45115,Logroño,1,0,0,0,0.0,0,0,0,0.0,0.0
43.14322,-2.96204,Laudio / Llodio,1,0,0,0,0.0,0,0,0,0.0,0.0
43.41982,-4.75485,Llanes,1,0,0,0,0.0,0,0,0,0.0,0.0
43.43963,-5.8508,Llanera,1,0,0,0,0.0,0,0,0,0.0,0.0
41.61674,0.62218,Lleida,1,0,0,0,0.0,0,0,0,0.0,0.0
43.25375,-8.58535,Laracha,1,0,0,0,0.0,0,0,0,0.0,0.0
42.66085,-8.11285,Lalín,1,0,0,0,0.0,0,0,0,0.0,0.0
41.68333,2.28333,la Garriga,1,0,0,0,0.0,0,0,0,0.0,0.0
42.30026,-5.89772,La Bañeza,1,0,0,0,0.0,0,0,0,0.0,0.0
42.13615,-0.4087,Huesca,1,0,0,0,0.0,0,0,0,0.0,0.0
43.31667,-2.68333,Gernika-Lumo,1,0,0,0,0.0,0,0,0,0.0,0.0
42.0635,-7.72459,Xinzo de Limia,1,0,0,0,0.0,0,0,0,0.0,0.0
42.35664,-3.67321,Gamonal,1,0,0,0,0.0,0,0,0,0.0,0.0
41.52294,0.34894,Fraga,1,0,0,0,0.0,0,0,0,0.0,0.0
42.67182,-2.03226,Estella-Lizarra,1,0,0,0,0.0,0,0,0,0.0,0.0
42.41642,-6.99005,O Barco de Valdeorras,1,0,0,0,0.0,0,0,0,0.0,0.0
42.12632,-1.13716,Ejea de los Caballeros,1,0,0,0,0.0,0,0,0,0.0,0.0
40.06667,-2.13333,Cuenca,1,0,0,0,0.0,0,0,0,0.0,0.0
40.6,-6.53333,Ciudad Rodrigo,1,0,0,0,0.0,0,0,0,0.0,0.0
42.43163,-8.07899,O Carballiño,1,0,0,0,0.0,0,0,0,0.0,0.0
43.18333,-6.55,Cangas del Narcea,1,0,0,0,0.0,0,0,0,0.0,0.0
41.35353,-1.64318,Calatayud,1,0,0,0,0.0,0,0,0,0.0,0.0
42.30506,-1.96521,Calahorra,1,0,0,0,0.0,0,0,0,0.0,0.0
42.10429,1.84628,Berga,1,0,0,0,0.0,0,0,0,0.0,0.0
42.00249,-5.67826,Benavente,1,0,0,0,0.0,0,0,0,0.0,0.0
40.38641,-5.76341,Béjar,1,0,0,0,0.0,0,0,0,0.0,0.0
41.79117,0.81094,Balaguer,1,0,0,0,0.0,0,0,0,0.0,0.0
40.65724,-4.69951,Ávila,1,0,0,0,0.0,0,0,0,0.0,0.0
42.45879,-6.05601,Astorga,1,0,0,0,0.0,0,0,0,0.0,0.0
41.67041,-3.6892,Aranda de Duero,1,0,0,0,0.0,0,0,0,0.0,0.0
41.05,-0.13333,Alcañiz,1,0,0,0,0.0,0,0,0,0.0,0.0
38.68269,-7.10046,Olivenza,1,0,0,0,0.0,0,0,0,0.0,0.0
42.892,-1.777806,SARASATE,0,1,0,0,0.0,0,0,0,0.0,0.613011
42.055861,-1.861722,REPSOL,0,1,0,0,0.0,0,0,0,0.0,0.397462
42.590333,-1.363972,AVIA,0,1,0,0,0.0,0,0,0,0.0,0.081452
42.024778,-1.580333,PLENERGY,0,1,0,0,0.0,0,0,0,0.0,2.757517
42.774333,-1.633278,GASOLINERA NOÁIN,0,1,0,0,0.0,0,0,0,0.0,0.089138
42.818278,-1.60325,REPSOL,0,1,0,0,0.0,0,0,0,0.0,0.034939
42.837667,-0.939306,PETRONOR,0,1,0,0,0.0,0,0,0,0.0,0.226917
42.731944,-1.618028,MOEVE,0,1,0,0,0.0,0,0,0,0.0,0.27274
42.724889,-1.615528,MOEVE,0,1,0,0,0.0,0,0,0,0.0,0.27274
42.200333,-1.676278,REPSOL,0,1,0,0,0.0,0,0,0,0.0,1.943055
42.200361,-1.674889,REPSOL,0,1,0,0,0.0,0,0,0,0.0,1.943055
42.012583,-1.600861,REPSOL,0,1,0,0,0.0,0,0,0,0.0,2.954
40.907139,-3.876222,CEPSA,0,1,0,0,0.0,0,0,0,0.0,0.158046
38.495972,-5.136278,OLIVARERA NTRA.SRA.DEL CARMEN,0,1,0,0,0.0,0,0,0,0.0,0.056721
39.5105,-3.241944,REPSOL,0,1,0,0,0.0,0,0,0,0.0,0.127966
41.863222,-5.716722,TEO,0,1,0,0,0.0,0,0,0,0.0,0.80307
41.207806,-1.394028,COOP. LANGA DEL CASTILLO,0,1,0,0,0.0,0,0,0,0.0,0.025242
42.140583,-5.598556,TEO,0,1,0,0,0.0,0,0,0,0.0,0.338131
39.768389,-2.268028,PASACONSOL S. COOP. DE C-LM,0,1,0,0,0.0,0,0,0,0.0,0.050517
43.535611,-6.705833,E.S.LA COLORADA,0,1,0,0,0.0,0,0,0,0.0,0.92075
42.251222,-5.566194,SUTECAL,0,1,0,0,0.0,0,0,0,0.0,0.3475
42.218889,-5.801917,SUTECAL,0,1,0,0,0.0,0,0,0,0.0,0.16875
43.323611,-1.879944,MERKAOIL,0,1,0,0,0.0,0,0,0,0.0,0.351504
41.191778,-1.309528,COOP. MAINAR,0,1,0,0,0.0,0,0,0,0.0,0.06475
37.590278,-5.747333,COOP.SAN LUIS,0,1,0,0,0.0,0,0,0,0.0,0.919135
39.030361,-3.821833,"MONTES NORTE ENERGETICOS, S.L.",0,1,0,0,0.0,0,0,0,0.0,2.327768
40.999,-1.512083,COOP GALLOCANTA,0,1,0,0,0.0,0,0,0,0.0,0.119354
41.691556,0.594194,"FRU-ROSE, SCCL",0,1,0,0,0.0,0,0,0,0.0,0.93375
42.389528,-1.972064,CARCAR,0,1,0,0,0.0,0,0,0,0.0,1.040329
39.363611,-7.133861,JOYMAR,0,1,0,0,0.0,0,0,0,0.0,0.154389
41.914,-1.259917,COOPERATIVA SAN MIGUEL,0,1,0,0,0.0,0,0,0,0.0,0.400554
42.522889,-1.837889,ENERGETICOS BERBINZANA,0,1,0,0,0.0,0,0,0,0.0,1.040329
42.171361,-1.588306,S.COOP. SAN ESTEBAN,0,1,0,0,0.0,0,0,0,0.0,0.580278
41.97325,-1.635194,AN ENERGETICOS,0,1,0,0,0.0,0,0,0,0.0,0.672559
39.274667,-3.520028,OLEOVINICOLA LABOREÑA SDAD COOP DE C-LM,0,1,0,0,0.0,0,0,0,0.0,0.695796
42.231,2.959417,AVANZA,0,1,0,0,0.0,0,0,0,0.0,0.482389
41.495472,-4.189472,EL PARAMO S.C.L.,0,1,0,0,0.0,0,0,0,0.0,0.242455
41.858028,1.874306,PETROBAGES S.L.,0,1,0,0,0.0,0,0,0,0.0,9.990161
41.741194,-4.385306,"AN ENERGETICOS, S.L. - ESGUEVILLAS DE ESGUEVA",0,1,0,0,0.0,0,0,0,0.0,0.85103
41.256528,-6.070167,AVIA,0,1,0,0,0.0,0,0,0,0.0,0.011636
40.309472,0.118278,COOPERATIVA AGRARIA SAN ISIDRO DE CUEVAS DE VINROMA,0,1,0,0,0.0,0,0,0,0.0,0.936613
38.662639,-3.069639,COOPERATIVA COZAR DE LA SIERRA,0,1,0,0,0.0,0,0,0,0.0,0.236702
41.864194,-1.925111,UNION COMARCAL AGREDANA.S.C.L,0,1,0,0,0.0,0,0,0,0.0,1.77625
42.60225,-1.644417,TALLERES ARRUBLA,0,1,0,0,0.0,0,0,0,0.0,0.669636
39.408694,-2.421139,COOPERATIVA DEL CAMPO NTRA SRA DE RUS,0,1,0,0,0.0,0,0,0,0.0,0.300531
40.751007,-3.163644,SUMINISTROS YUNQUERA SOCIEDAD COOPERATIVA DE CASTILLA LAMANCHA,0,1,0,0,0.0,0,0,0,0.0,1.480859
37.674528,-4.556306,COOP. OLIVARERA SAN ISIDRO,0,1,0,0,0.0,0,0,0,0.0,1.276
39.829778,-4.71575,AVIA,0,1,0,0,0.0,0,0,0,0.0,0.143598
42.922111,-2.0145,MOEVE,0,1,0,0,0.0,0,0,0,0.0,3.233454
42.350056,-1.371222,COOPERATIVA AGRICOLA SAN FRANCISCO JAVIER,0,1,0,0,0.0,0,0,0,0.0,0.580278
40.699617,-1.347402,CEREALES TERUEL,0,1,0,0,0.0,0,0,0,0.0,0.2
40.61525,-1.344639,CEREALES TERUEL,0,1,0,0,0.0,0,0,0,0.0,0.16675
40.812361,-1.482972,CEREALES TERUEL,0,1,0,0,0.0,0,0,0,0.0,0.472
40.588172,-0.987763,CEREALES TERUEL,0,1,0,0,0.0,0,0,0,0.0,0.554
39.281778,-1.719778,COOP SAN GREGORIO,0,1,0,0,0.0,0,0,0,0.0,0.130908
40.8922,-1.461152,CEREALES TERUEL,0,1,0,0,0.0,0,0,0,0.0,0.05012
41.060639,-1.235667,GASOLEOS TERUEL,0,1,0,0,0.0,0,0,0,0.0,2.017129
40.683278,-1.098417,CEREALES TERUEL,0,1,0,0,0.0,0,0,0,0.0,0.194031
39.131015,-4.947033,SI,0,1,0,0,0.0,0,0,0,0.0,0.4515
36.9067,-4.337866,S. COOP. AND. NTRA. SRA. DE LA CANDELARIA,0,1,0,0,0.0,0,0,0,0.0,1.191807
40.636194,-1.001639,CEREALES TERUEL,0,1,0,0,0.0,0,0,0,0.0,0.084325
37.19375,-3.776917,SHELL,0,1,0,0,0.0,0,0,0,0.0,2.918489
40.701472,-0.80425,CEREALES TERUEL,0,1,0,0,0.0,0,0,0,0.0,0.197515
43.170556,-2.597556,EUSKOIL-STAR PETROLEUM,0,1,0,0,0.0,0,0,0,0.0,2.658333
43.281972,-1.916778,ONROAD 24,0,1,0,0,0.0,0,0,0,0.0,0.33319
43.185778,-2.671556,SHELL,0,1,0,0,0.0,0,0,0,0.0,1.028
43.123361,-3.122528,AVIA ,0,1,0,0,0.0,0,0,0,0.0,0.939356
43.015361,-2.1765,AVIA,0,1,0,0,0.0,0,0,0,0.0,0.33319
43.241444,-2.259444,E.S. ZESTOA-AVIA,0,1,0,0,0.0,0,0,0,0.0,0.776756
42.8635,-2.320361,"ANDAMUR ""SAN ROMAN""",0,1,0,0,0.0,0,0,0,0.0,3.257728
43.186278,-2.671,SHELL,0,1,0,0,0.0,0,0,0,0.0,1.028
42.876861,-2.616361,REPSOL,0,1,0,0,0.0,0,0,0,0.0,2.600958
43.041944,-2.188333,AVIA,0,1,0,0,0.0,0,0,0,0.0,0.33319
42.755583,-3.04575,AVIA,0,1,0,0,0.0,0,0,0,0.0,0.486079
43.013833,-2.5345,PETRONOR,0,1,0,0,0.0,0,0,0,0.0,0.776756
42.704639,-2.917639,EROSKI,0,1,0,0,0.0,0,0,0,0.0,10.2915
43.276889,-2.022194,EROSKI,0,1,0,0,0.0,0,0,0,0.0,0.850056
43.035056,-2.2175,CARREFOUR,0,1,0,0,0.0,0,0,0,0.0,2.600958
43.314639,-1.876417,CARREFOUR,0,1,0,0,0.0,0,0,0,0.0,0.81945
42.941417,-2.639528,CEPSA,0,1,0,0,0.0,0,0,0,0.0,2.600958
42.635194,-2.849833,REPSOL,0,1,0,0,0.0,0,0,0,0.0,2.015073
43.296222,-1.871833,REPSOL,0,1,0,0,0.0,0,0,0,0.0,0.351504
43.177167,-2.055528,REPSOL,0,1,0,0,0.0,0,0,0,0.0,2.600958
43.065889,-2.163667,REPSOL,0,1,0,0,0.0,0,0,0,0.0,2.600958
42.848944,-2.394583,GALP,0,1,0,0,0.0,0,0,0,0.0,0.33319
43.293806,-2.341111,GALP,0,1,0,0,0.0,0,0,0,0.0,1.028
43.294167,-2.340833,GALP,0,1,0,0,0.0,0,0,0,0.0,1.028
43.284944,-2.328222,AVIA,0,1,0,0,0.0,0,0,0,0.0,3.088049
43.284528,-2.329861,AVIA,0,1,0,0,0.0,0,0,0,0.0,3.088049
43.326944,-1.870444,GALP,0,1,0,0,0.0,0,0,0,0.0,0.351504
43.026472,-2.219917,BP OLABERRIA,0,1,0,0,0.0,0,0,0,0.0,0.33319
43.087111,-2.312889,GALP,0,1,0,0,0.0,0,0,0,0.0,0.33319
43.284833,-2.029083,MOEVE,0,1,0,0,0.0,0,0,0,0.0,2.600958
43.286611,-2.031889,MOEVE,0,1,0,0,0.0,0,0,0,0.0,2.600958
42.547639,-2.578806,REPSOL,0,1,0,0,0.0,0,0,0,0.0,0.879332
43.277417,-2.073278,PETRONOR,0,1,0,0,0.0,0,0,0,0.0,0.850056
43.271361,-2.070472,REPSOL,0,1,0,0,0.0,0,0,0,0.0,0.850056
43.034694,-2.332194,CEPSA,0,1,0,0,0.0,0,0,0,0.0,0.33319
43.294833,-2.258083,CEPSA,0,1,0,0,0.0,0,0,0,0.0,1.781004
42.878556,-2.518167,REPSOL,0,1,0,0,0.0,0,0,0,0.0,2.600958
42.966111,-2.870083,PETRONOR,0,1,0,0,0.0,0,0,0,0.0,2.600958
42.966472,-2.873583,REPSOL,0,1,0,0,0.0,0,0,0,0.0,2.600958
42.743111,-2.913306,PETRONOR,0,1,0,0,0.0,0,0,0,0.0,4.158014
42.741361,-2.913222,PETRONOR,0,1,0,0,0.0,0,0,0,0.0,2.705509
42.670222,-2.357278,PETRONOR,0,1,0,0,0.0,0,0,0,0.0,1.920267
42.961583,-2.827722,CEPSA,0,1,0,0,0.0,0,0,0,0.0,2.600958
43.178611,-2.055778,REPSOL,0,1,0,0,0.0,0,0,0,0.0,2.600958
43.312222,-1.879444,REPSOL,0,1,0,0,0.0,0,0,0,0.0,0.81945
43.312139,-1.879528,REPSOL,0,1,0,0,0.0,0,0,0,0.0,0.81945
43.078861,-2.156194,REPSOL,0,1,0,0,0.0,0,0,0,0.0,2.600958
43.316611,-1.852222,MOEVE,0,1,0,0,0.0,0,0,0,0.0,2.716841
43.317611,-1.844528,MOEVE,0,1,0,0,0.0,0,0,0,0.0,0.27101
42.81125,-2.901944,E.S. TOCALU ,0,1,0,0,0.0,0,0,0,0.0,2.600958
43.411583,-2.814667,AVIA,0,1,0,0,0.0,0,0,0,0.0,0.402938
43.209889,-3.124889,EROSKI,0,1,0,0,0.0,0,0,0,0.0,0.939356
43.171889,-2.618111,EROSKI,0,1,0,0,0.0,0,0,0,0.0,1.762252
43.166722,-2.58525,MOEVE,0,1,0,0,0.0,0,0,0,0.0,0.868807
43.212361,-3.126639,MOEVE,0,1,0,0,0.0,0,0,0,0.0,0.939356
43.145611,-2.644972,URKIOIL,0,1,0,0,0.0,0,0,0,0.0,0.793891
43.193861,-2.519028,AVIA,0,1,0,0,0.0,0,0,0,0.0,0.34054
43.292806,-3.01775,BP VALLE DEL TRAPAGA,0,1,0,0,0.0,0,0,0,0.0,3.145424
43.120944,-2.912639,BP BENGOECHEA,0,1,0,0,0.0,0,0,0,0.0,0.402938
43.307861,-2.943556,PETRONOR,0,1,0,0,0.0,0,0,0,0.0,0.939356
43.412306,-2.702944,REPSOL,0,1,0,0,0.0,0,0,0,0.0,0.402938
43.366194,-2.930028,PETRONOR,0,1,0,0,0.0,0,0,0,0.0,0.402938
43.175167,-2.641389,REPSOL,0,1,0,0,0.0,0,0,0,0.0,1.781004
43.318583,-2.876444,PETRONOR,0,1,0,0,0.0,0,0,0,0.0,3.145424
43.259611,-2.523694,PETRONOR,0,1,0,0,0.0,0,0,0,0.0,0.939356
43.18975,-2.894444,PETRONOR,0,1,0,0,0.0,0,0,0,0.0,3.145424
43.190194,-2.897389,PETRONOR,0,1,0,0,0.0,0,0,0,0.0,3.145424
43.390333,-2.943917,REPSOL,0,1,0,0,0.0,0,0,0,0.0,0.402938
43.130583,-2.548889,MOEVE,0,1,0,0,0.0,0,0,0,0.0,2.600958
43.130278,-2.564722,GALP ,0,1,0,0,0.0,0,0,0,0.0,2.600958
43.238139,-3.355694,PETRONOR,0,1,0,0,0.0,0,0,0,0.0,0.312822
43.321861,-3.068056,REPSOL,0,1,0,0,0.0,0,0,0,0.0,3.145424
43.250806,-2.888444,REPSOL,0,1,0,0,0.0,0,0,0,0.0,1.028
43.250667,-2.889028,REPSOL,0,1,0,0,0.0,0,0,0,0.0,1.028
43.267,-3.152944,REPSOL,0,1,0,0,0.0,0,0,0,0.0,0.402938
43.204333,-3.047306,PETRONOR,0,1,0,0,0.0,0,0,0,0.0,0.402938
43.280111,-2.495722,PETRONOR,0,1,0,0,0.0,0,0,0,0.0,0.939356
43.29725,-3.0135,PETRONOR,0,1,0,0,0.0,0,0,0,0.0,3.145424
43.3285,-3.068806,PETRONOR,0,1,0,0,0.0,0,0,0,0.0,3.145424
43.327111,-3.067722,PETRONOR,0,1,0,0,0.0,0,0,0,0.0,11.61175
43.163778,-2.777556,AVIA,0,1,0,0,0.0,0,0,0,0.0,1.028
42.849722,-8.582556,GALP,0,1,0,0,0.0,0,0,0,0.0,6.2685
42.167972,-8.625944,FEGOBLAN SL-VALCARCE,0,1,0,0,0.0,0,0,0,0.0,2.07225
42.156917,-8.665083,SERTUY - SAN COSME - CELA - MOS,0,1,0,0,0.0,0,0,0,0.0,1.359182
43.261944,-8.81925,VALCARCE,0,1,0,0,0.0,0,0,0,0.0,0.663141
42.876194,-7.861972,ULTREYA,0,1,0,0,0.0,0,0,0,0.0,0.838438
42.649639,-7.95325,VALCARCE,0,1,0,0,0.0,0,0,0,0.0,0.032104
42.787361,-9.055806,SHELL,0,1,0,0,0.0,0,0,0,0.0,1.029322
42.728194,-8.301694,MOEVE,0,1,0,0,0.0,0,0,0,0.0,1.4175
43.172722,-7.766167,VALCARCE ,0,1,0,0,0.0,0,0,0,0.0,0.39875
43.193167,-8.728639,REPSOL,0,1,0,0,0.0,0,0,0,0.0,0.732833
43.281222,-8.237417,CARBUGAL CORTIÑAN,0,1,0,0,0.0,0,0,0,0.0,3.62025
42.406667,-7.846389,LATEQUIN,0,1,0,0,0.0,0,0,0,0.0,0.736864
42.185861,-8.611028,EL SOL,0,1,0,0,0.0,0,0,0,0.0,3.79125
42.761889,-7.563444,GALP,0,1,0,0,0.0,0,0,0,0.0,0.16548
42.397361,-7.735417,"ESTACION DE SERVICIO LUINTRA, S.L.",0,1,0,0,0.0,0,0,0,0.0,1.274
42.142028,-8.462111,LA PARADA - VALCARCE,0,1,0,0,0.0,0,0,0,0.0,4.965796
42.805139,-7.618056,CAMPA,0,1,0,0,0.0,0,0,0,0.0,0.180042
42.95725,-8.751222,CEPSA,0,1,0,0,0.0,0,0,0,0.0,2.12932
42.16675,-8.272528,E.S.VALEIXE,0,1,0,0,0.0,0,0,0,0.0,0.270923
43.253583,-8.363333,ESTACION DE SERVICIO TABEAIO,0,1,0,0,0.0,0,0,0,0.0,3.423
42.503028,-8.767139,E.S. PEIBAR BARRANTES,0,1,0,0,0.0,0,0,0,0.0,4.738503
42.344972,-7.812389,J.L E HIJOS,0,1,0,0,0.0,0,0,0,0.0,0.558994
42.318278,-7.118583,PETROL LENTELLAIS,0,1,0,0,0.0,0,0,0,0.0,0.408719
42.218333,-8.013389,ESTACIÓN DE SERVICIO OUTOMURO S.L.,0,1,0,0,0.0,0,0,0,0.0,0.93599
42.269806,-7.806028,OURENSANA DE PETROLEOS SL,0,1,0,0,0.0,0,0,0,0.0,1.705924
42.27225,-7.646778,EESS MACEDA,0,1,0,0,0.0,0,0,0,0.0,0.229665
43.406833,-8.168972,COMBUSTIBLES RIO EUME,0,1,0,0,0.0,0,0,0,0.0,3.58525
42.851111,-7.153056,E.S.RUTANCARES S.L.,0,1,0,0,0.0,0,0,0,0.0,0.50275
42.901972,-7.46475,LIBRE,0,1,0,0,0.0,0,0,0,0.0,0.50018
43.084222,-7.605972,Q8,0,1,0,0,0.0,0,0,0,0.0,1.62375
42.034389,-7.973083,REPSOL,0,1,0,0,0.0,0,0,0,0.0,0.266843
42.793361,-8.166444,REPSOL,0,1,0,0,0.0,0,0,0,0.0,0.265544
41.910778,-8.852611,REPSOL,0,1,0,0,0.0,0,0,0,0.0,1.132699
42.084444,-8.496806,MOEVE,0,1,0,0,0.0,0,0,0,0.0,1.030323
42.188778,-7.101333,REPSOL,0,1,0,0,0.0,0,0,0,0.0,0.310435
42.396056,-7.106472,PETROL A RUA,0,1,0,0,0.0,0,0,0,0.0,0.954
42.340417,-7.260361,REPSOL,0,1,0,0,0.0,0,0,0,0.0,0.297682
42.207083,-8.267611,REPSOL,0,1,0,0,0.0,0,0,0,0.0,1.179169
42.250722,-7.864556,REPSOL,0,1,0,0,0.0,0,0,0,0.0,5.039274
42.215667,-8.268056,REPSOL,0,1,0,0,0.0,0,0,0,0.0,0.23
42.251056,-7.864722,REPSOL,0,1,0,0,0.0,0,0,0,0.0,5.039274
42.058583,-7.665611,CEPSA,0,1,0,0,0.0,0,0,0,0.0,1.881207
42.358611,-8.628889,CEPSA,0,1,0,0,0.0,0,0,0,0.0,3.625
42.249944,-7.023444,FINA,0,1,0,0,0.0,0,0,0,0.0,0.408719
42.704444,-8.245722,REPSOL,0,1,0,0,0.0,0,0,0,0.0,0.341457
42.31775,-8.1235,GALP,0,1,0,0,0.0,0,0,0,0.0,0.833842
42.425806,-8.057944,MOEVE,0,1,0,0,0.0,0,0,0,0.0,0.402007
42.127306,-7.950611,GALP,0,1,0,0,0.0,0,0,0,0.0,0.251982
42.5625,-8.671833,REPSOL,0,1,0,0,0.0,0,0,0,0.0,4.219862
42.498528,-8.744972,GALP,0,1,0,0,0.0,0,0,0,0.0,4.557194
42.716389,-8.300833,GALP,0,1,0,0,0.0,0,0,0,0.0,1.512
42.318052,-7.877994,GALP,0,1,0,0,0.0,0,0,0,0.0,2.138012
42.318111,-7.877389,GALP,0,1,0,0,0.0,0,0,0,0.0,2.138012
42.137472,-8.186667,GALP,0,1,0,0,0.0,0,0,0,0.0,0.621583
43.541111,-6.534333,REPSOL,0,1,0,0,0.0,0,0,0,0.0,0.700492
43.412778,-6.157278,REPSOL,0,1,0,0,0.0,0,0,0,0.0,1.20875
43.536417,-6.724611,PETRONOR,0,1,0,0,0.0,0,0,0,0.0,0.92075
43.381722,-4.557444,PETRONOR,0,1,0,0,0.0,0,0,0,0.0,1.131992
43.345139,-5.360667,BP INFIESTO,0,1,0,0,0.0,0,0,0,0.0,0.748014
43.470806,-7.05125,PETRONOR,0,1,0,0,0.0,0,0,0,0.0,1.1905
43.484417,-5.260944,REPSOL,0,1,0,0,0.0,0,0,0,0.0,0.212821
41.433139,1.863806,E.S.GELIDA,0,1,0,0,0.0,0,0,0,0.0,15.173409
43.57125,-5.959278,REPSOL,0,1,0,0,0.0,0,0,0,0.0,2.46725
43.038139,-6.871306,CAMPSA,0,1,0,0,0.0,0,0,0,0.0,0.096129
43.431056,-6.815833,REPSOL,0,1,0,0,0.0,0,0,0,0.0,0.265888
40.900528,-5.203889,MONTE LA REINA,0,1,0,0,0.0,0,0,0,0.0,0.137837
43.514361,-5.819694,PETRONOR,0,1,0,0,0.0,0,0,0,0.0,13.002465
43.511278,-5.817333,PETRONOR,0,1,0,0,0.0,0,0,0,0.0,15.0805
43.288917,-5.633417,ALCAMPO,0,1,0,0,0.0,0,0,0,0.0,1.969925
43.5785,-5.7545,GALP,0,1,0,0,0.0,0,0,0,0.0,2.851555
42.940028,-4.123389,CEPSA,0,1,0,0,0.0,0,0,0,0.0,0.11575
43.398583,-3.365528,VALLE DE LIENDO,0,1,0,0,0.0,0,0,0,0.0,0.93325
43.084528,-7.606361,Q8,0,1,0,0,0.0,0,0,0,0.0,1.62375
43.540278,-7.060222,EROSKI,0,1,0,0,0.0,0,0,0,0.0,1.49925
42.804722,-8.636278,GALP,0,1,0,0,0.0,0,0,0,0.0,3.8285
42.837417,-8.443278,GASOLEOS SAN BENITO,0,1,0,0,0.0,0,0,0,0.0,2.50825
43.439417,-8.155056,CARBUGAL LARAXE,0,1,0,0,0.0,0,0,0,0.0,2.555
42.800056,-8.856056,BARCIA,0,1,0,0,0.0,0,0,0,0.0,1.219584
43.189611,-8.732278,CARBUGAL CORISTANCO,0,1,0,0,0.0,0,0,0,0.0,0.732833
43.050611,-8.01725,CEPSA,0,1,0,0,0.0,0,0,0,0.0,0.228489
42.5985,-8.942778,REPSOL,0,1,0,0,0.0,0,0,0,0.0,0.446526
43.296722,-7.336389,CEPSA,0,1,0,0,0.0,0,0,0,0.0,0.08039
42.990028,-8.697028,MYG GASOLEOS,0,1,0,0,0.0,0,0,0,0.0,1.720053
43.2135,-8.997389,PETRONOR,0,1,0,0,0.0,0,0,0,0.0,0.663141
42.917722,-9.265167,CAMPSA,0,1,0,0,0.0,0,0,0,0.0,1.219584
43.032611,-9.112972,REPSOL,0,1,0,0,0.0,0,0,0,0.0,1.36382
43.021667,-8.656194,REPSOL,0,1,0,0,0.0,0,0,0,0.0,0.964449
42.781972,-7.898806,REPSOL,0,1,0,0,0.0,0,0,0,0.0,0.878
42.541278,-7.8125,REPSOL,0,1,0,0,0.0,0,0,0,0.0,0.078396
43.104861,-8.917667,CEPSA,0,1,0,0,0.0,0,0,0,0.0,1.720053
43.010639,-8.430889,CEPSA,0,1,0,0,0.0,0,0,0,0.0,1.546123
43.226444,-8.191583,CEPSA,0,1,0,0,0.0,0,0,0,0.0,4.43725
43.490028,-8.161806,REPSOL,0,1,0,0,0.0,0,0,0,0.0,0.728717
42.960222,-8.646944,REPSOL,0,1,0,0,0.0,0,0,0,0.0,1.712848
43.188806,-8.17525,GALP,0,1,0,0,0.0,0,0,0,0.0,0.49058
42.771667,-9.049167,CEPSA,0,1,0,0,0.0,0,0,0,0.0,1.029322
42.837778,-8.900139,MOEVE,0,1,0,0,0.0,0,0,0,0.0,0.554077
42.838139,-8.900667,MOEVE,0,1,0,0,0.0,0,0,0,0.0,0.554077
43.030139,-7.326361,ESTACION DE SERVICIO LA FORTALEZA,0,1,0,0,0.0,0,0,0,0.0,0.624736
43.121639,-7.069833,REPSOL,0,1,0,0,0.0,0,0,0,0.0,0.303613
43.215694,-7.309028,MOEVE,0,1,0,0,0.0,0,0,0,0.0,1.1785
42.966056,-9.193611,REPSOL,0,1,0,0,0.0,0,0,0,0.0,1.36382
40.322167,-4.198056,GALP,0,1,0,0,0.0,0,0,0,0.0,3.041211
43.355389,-7.775,REPSOL,0,1,0,0,0.0,0,0,0,0.0,0.649315
43.113972,-8.147917,PETRONOR,0,1,0,0,0.0,0,0,0,0.0,1.2965
42.604167,-7.770333,"AMMNSA, S.L.",0,1,0,0,0.0,0,0,0,0.0,0.331934
43.029722,-7.78675,REPSOL,0,1,0,0,0.0,0,0,0,0.0,0.199318
43.243083,-8.894639,REPSOL,0,1,0,0,0.0,0,0,0,0.0,0.663141
42.811361,-9.106333,CEPSA,0,1,0,0,0.0,0,0,0,0.0,1.10144
42.793444,-8.646194,BALLENOIL,0,1,0,0,0.0,0,0,0,0.0,1.673329
42.793417,-8.645361,CEPSA,0,1,0,0,0.0,0,0,0,0.0,3.8285
43.028056,-8.593028,EESSBENZA,0,1,0,0,0.0,0,0,0,0.0,1.269707
43.436167,-8.065056,REPSOL,0,1,0,0,0.0,0,0,0,0.0,1.068578
42.732583,-7.325722,REPSOL,0,1,0,0,0.0,0,0,0,0.0,0.077663
43.490083,-7.284139,GALP,0,1,0,0,0.0,0,0,0,0.0,0.79675
42.731806,-8.985083,MOEVE,0,1,0,0,0.0,0,0,0,0.0,1.040971
43.227806,-8.288444,PETROPRIX,0,1,0,0,0.0,0,0,0,0.0,1.614837
42.712389,-7.765444,VALCARCE,0,1,0,0,0.0,0,0,0,0.0,0.70175
42.910528,-8.955222,CEPSA,0,1,0,0,0.0,0,0,0,0.0,0.585012
43.681694,-7.49325,REPSOL,0,1,0,0,0.0,0,0,0,0.0,0.736806
43.576306,-7.269056,CAMPSA,0,1,0,0,0.0,0,0,0,0.0,2.415
43.028083,-8.237417,REPSOL,0,1,0,0,0.0,0,0,0,0.0,0.371093
43.001139,-7.234194,CEPSA,0,1,0,0,0.0,0,0,0,0.0,0.613158
42.612528,-7.766,REPSOL,0,1,0,0,0.0,0,0,0,0.0,0.331934
43.538333,-7.05425,REPSOL,0,1,0,0,0.0,0,0,0,0.0,1.49925
43.225778,-8.356222,REPSOL,0,1,0,0,0.0,0,0,0,0.0,3.423
42.912222,-8.006167,REPSOL,0,1,0,0,0.0,0,0,0,0.0,2.044
42.930167,-8.144667,REPSOL,0,1,0,0,0.0,0,0,0,0.0,0.243723
43.508861,-8.122528,PETRONOR,0,1,0,0,0.0,0,0,0,0.0,1.698835
43.43325,-7.361861,REPSOL,0,1,0,0,0.0,0,0,0,0.0,0.126392
42.893083,-7.254306,CEPSA-E.S. ROCA,0,1,0,0,0.0,0,0,0,0.0,0.50275
43.351389,-7.191639,REPSOL,0,1,0,0,0.0,0,0,0,0.0,0.36
43.122306,-7.621028,REPSOL,0,1,0,0,0.0,0,0,0,0.0,0.348479
43.158861,-8.803028,DIGANA,0,1,0,0,0.0,0,0,0,0.0,0.781013
42.777528,-8.406444,PONTEULLA,0,1,0,0,0.0,0,0,0,0.0,1.40725
42.776944,-8.406611,PONTEULLA,0,1,0,0,0.0,0,0,0,0.0,1.40725
42.910083,-8.3585,CEPSA,0,1,0,0,0.0,0,0,0,0.0,0.597
42.527806,-7.397833,REPSOL,0,1,0,0,0.0,0,0,0,0.0,0.365927
43.179167,-7.879917,REPSOL,0,1,0,0,0.0,0,0,0,0.0,0.32175
42.860889,-8.201306,REPSOL,0,1,0,0,0.0,0,0,0,0.0,0.201817
43.253583,-7.432972,REPSOL,0,1,0,0,0.0,0,0,0,0.0,0.156082
42.91,-8.730667,REPSOL,0,1,0,0,0.0,0,0,0,0.0,0.913374
43.1405,-9.112722,REPSOL,0,1,0,0,0.0,0,0,0,0.0,0.838806
42.995944,-8.911611,REPSOL,0,1,0,0,0.0,0,0,0,0.0,1.95548
43.112,-9.02875,REPSOL,0,1,0,0,0.0,0,0,0,0.0,2.54714
43.539972,-7.241778,REPSOL,0,1,0,0,0.0,0,0,0,0.0,1.934586
42.584889,-7.640694,REPSOL,0,1,0,0,0.0,0,0,0,0.0,0.090437
43.130278,-8.533417,REPSOL,0,1,0,0,0.0,0,0,0,0.0,0.284308
43.341389,-8.203694,REPSOL,0,1,0,0,0.0,0,0,0,0.0,3.2565
43.651333,-7.353889,ENI,0,1,0,0,0.0,0,0,0,0.0,1.859
42.504861,-7.628056,PETRONOR,0,1,0,0,0.0,0,0,0,0.0,0.31425
42.774028,-8.65125,REPSOL,0,1,0,0,0.0,0,0,0,0.0,3.8285
42.607778,-8.963778,REPSOL,0,1,0,0,0.0,0,0,0,0.0,3.485678
43.157694,-8.00375,REPSOL,0,1,0,0,0.0,0,0,0,0.0,0.506154
43.373222,-8.187972,REPSOL,0,1,0,0,0.0,0,0,0,0.0,4.21225
43.188222,-7.929917,GALP,0,1,0,0,0.0,0,0,0,0.0,2.6173
42.940306,-7.393611,REPSOL,0,1,0,0,0.0,0,0,0,0.0,1.674848
43.18125,-7.967889,DISA_SHELL,0,1,0,0,0.0,0,0,0,0.0,1.1295
42.714833,-8.695889,GALP,0,1,0,0,0.0,0,0,0,0.0,0.515333
43.527139,-8.085083,GALP,0,1,0,0,0.0,0,0,0,0.0,1.698835
43.655528,-7.911556,GALP,0,1,0,0,0.0,0,0,0,0.0,1.776529
43.386833,-8.169194,CC OIL,0,1,0,0,0.0,0,0,0,0.0,1.369679
42.787556,-8.880333,MOEVE,0,1,0,0,0.0,0,0,0,0.0,0.523142
42.289722,-7.816611,STAROIL SAN CIBRAO,0,1,0,0,0.0,0,0,0,0.0,1.721242
42.536194,-8.543778,CEPSA,0,1,0,0,0.0,0,0,0,0.0,1.0245
42.566222,-8.046056,PETRONOR,0,1,0,0,0.0,0,0,0,0.0,0.4865
42.513028,-8.017417,CEPSA,0,1,0,0,0.0,0,0,0,0.0,0.4865
41.911528,-8.0945,REPSOL,0,1,0,0,0.0,0,0,0,0.0,0.744019
42.273139,-8.199083,MOEVE,0,1,0,0,0.0,0,0,0,0.0,0.38386
42.408222,-7.073194,VALCARCE,0,1,0,0,0.0,0,0,0,0.0,2.0415
41.917194,-8.879639,PETRONOR,0,1,0,0,0.0,0,0,0,0.0,1.132699
42.374361,-8.246028,REPSOL,0,1,0,0,0.0,0,0,0,0.0,3.80625
42.038694,-7.009194,CEPSA,0,1,0,0,0.0,0,0,0,0.0,0.5125
42.371167,-7.423694,REPSOL,0,1,0,0,0.0,0,0,0,0.0,0.339112
42.532278,-8.405361,REPSOL,0,1,0,0,0.0,0,0,0,0.0,0.98975
42.532444,-8.40525,REPSOL,0,1,0,0,0.0,0,0,0,0.0,0.98975
42.311667,-7.676111,E.S. ALTO DO COUSO,0,1,0,0,0.0,0,0,0,0.0,0.207165
42.383694,-7.85175,CEPSA,0,1,0,0,0.0,0,0,0,0.0,1.86375
42.762389,-8.024778,REPSOL,0,1,0,0,0.0,0,0,0,0.0,0.98725
42.517833,-8.273944,REPSOL,0,1,0,0,0.0,0,0,0,0.0,0.509
42.467583,-7.98825,REPSOL,0,1,0,0,0.0,0,0,0,0.0,0.63425
41.988722,-7.603278,PETRONOR,0,1,0,0,0.0,1,1,100,35.0505,1.38511
42.670111,-8.711667,REPSOL,0,1,0,0,0.0,0,0,0,0.0,0.911179
42.031944,-8.883583,REPSOL,0,1,0,0,0.0,0,0,0,0.0,1.132699
42.501889,-8.656444,REPSOL,0,1,0,0,0.0,0,0,0,0.0,1.048808
42.5015,-8.656806,REPSOL,0,1,0,0,0.0,0,0,0,0.0,1.048808
42.632167,-8.563444,REPSOL,0,1,0,0,0.0,0,0,0,0.0,1.4125
42.223889,-8.473917,REPSOL,0,1,0,0,0.0,0,0,0,0.0,0.58578
42.102639,-8.569083,PETRONOR,0,1,0,0,0.0,0,0,0,0.0,3.246612
42.203444,-8.392167,ESTACION DE SERVICIO PARAÑOS,0,1,0,0,0.0,0,0,0,0.0,0.99625
42.019583,-7.608472,REPSOL,0,1,0,0,0.0,0,0,0,0.0,0.1475
42.105444,-8.322472,REPSOL,0,1,0,0,0.0,0,0,0,0.0,0.339303
42.322889,-7.790167,REPSOL,0,1,0,0,0.0,0,0,0,0.0,0.574098
41.951694,-8.029389,REPSOL,0,1,0,0,0.0,0,0,0,0.0,0.744019
42.3185,-8.662806,MOEVE,0,1,0,0,0.0,0,0,0,0.0,7.358845
42.317667,-8.662222,MOEVE,0,1,0,0,0.0,0,0,0,0.0,7.358845
42.193667,-7.794806,GALP,0,1,0,0,0.0,0,0,0,0.0,1.02625
42.187444,-8.044833,MOEVE,0,1,0,0,0.0,0,0,0,0.0,0.62242
42.228556,-7.925861,CEPSA,0,1,0,0,0.0,0,0,0,0.0,1.50494
42.313028,-7.865111,REPSOL,0,1,0,0,0.0,0,0,0,0.0,5.14125
41.98325,-7.541972,GALP,0,1,0,0,0.0,0,0,0,0.0,0.780526
42.193444,-8.651722,MOEVE,0,1,0,0,0.0,0,0,0,0.0,11.694769
42.193861,-8.651694,MOEVE,0,1,0,0,0.0,0,0,0,0.0,13.56035
42.31325,-7.866361,REPSOL,0,1,0,0,0.0,0,0,0,0.0,5.14125
42.712417,-8.651139,ENI,0,1,0,0,0.0,0,0,0,0.0,1.95625
42.59075,-8.588611,REPSOL,0,1,0,0,0.0,0,0,0,0.0,0.274682
42.158778,-7.949639,REPSOL,0,1,0,0,0.0,0,0,0,0.0,1.161073
42.304083,-8.130722,PETRONOR,0,1,0,0,0.0,0,0,0,0.0,1.7265
42.417111,-7.873556,REPSOL,0,1,0,0,0.0,0,0,0,0.0,0.98225
42.057028,-7.148694,REPSOL,0,1,0,0,0.0,0,0,0,0.0,0.09125
43.297944,-4.795833,ESC-PETROLEOS,0,1,0,0,0.0,0,0,0,0.0,0.220528
43.350889,-5.119889,REPSOL,0,1,0,0,0.0,0,0,0,0.0,0.580777
43.277417,-5.617611,REPSOL,0,1,0,0,0.0,0,0,0,0.0,1.080886
43.455917,-5.061389,REPSOL,0,1,0,0,0.0,0,0,0,0.0,1.512
43.545083,-6.721167,EROSKI,0,1,0,0,0.0,0,0,0,0.0,0.92075
41.939056,-4.5005,IDS,0,1,0,0,0.0,0,0,0,0.0,4.793314
43.546944,-6.217694,REPSOL,0,1,0,0,0.0,0,0,0,0.0,0.03725
43.557583,-6.283778,REPSOL,0,1,0,0,0.0,0,0,0,0.0,0.771151
43.3885,-5.18275,GALP ARRIONDAS,0,1,0,0,0.0,0,0,0,0.0,0.737663
43.544278,-6.783639,REPSOL,0,1,0,0,0.0,0,0,0,0.0,2.73125
43.555028,-6.845083,REPSOL,0,1,0,0,0.0,0,0,0,0.0,0.92075
43.327472,-4.583,REPSOL,0,1,0,0,0.0,0,0,0,0.0,0.98625
43.376639,-6.151944,PETRONOR,0,1,0,0,0.0,0,0,0,0.0,0.529943
43.488611,-6.426667,PANDORA BIOENERGY SL,0,1,0,0,0.0,0,0,0,0.0,0.49325
43.56825,-6.944278,REPSOL,0,1,0,0,0.0,0,0,0,0.0,0.8315
43.365861,-5.271472,REPSOL,0,1,0,0,0.0,0,0,0,0.0,1.631
43.546333,-6.138361,SOLRAS,0,1,0,0,0.0,0,0,0,0.0,0.8405
43.557306,-5.981028,A. G. ,0,1,0,0,0.0,0,0,0,0.0,2.46725
43.38725,-6.074333,REPSOL,0,1,0,0,0.0,0,0,0,0.0,0.55125
43.543083,-6.412361,CEPSA,0,1,0,0,0.0,0,0,0,0.0,0.0865
43.542694,-6.982472,GALP ,0,1,0,0,0.0,0,0,0,0.0,0.8315
43.543361,-6.982722,CHIQUÍN II,0,1,0,0,0.0,0,0,0,0.0,0.8315
43.542667,-6.023917,BP - CARCEDO - SOTO BARCO,0,1,0,0,0.0,0,0,0,0.0,7.01575
43.271667,-6.614222,PETRONOR,0,1,0,0,0.0,0,0,0,0.0,0.03649
43.412944,-7.148583,PETRONOR,0,1,0,0,0.0,0,0,0,0.0,0.65
43.249194,-5.568944,CEPSA,0,1,0,0,0.0,0,0,0,0.0,0.95585
43.554528,-6.166056,AVIA,0,1,0,0,0.0,0,0,0,0.0,0.8405
43.358222,-5.497333,GALP,0,1,0,0,0.0,0,0,0,0.0,0.37716
43.533611,-6.570333,GALP,0,1,0,0,0.0,0,0,0,0.0,1.83175
43.171833,-5.742972,GALP,0,1,0,0,0.0,0,0,0,0.0,1.13033
43.408667,-6.258917,GALP,0,1,0,0,0.0,0,0,0,0.0,0.1215
43.373056,-5.546583,GALP,0,1,0,0,0.0,0,0,0,0.0,2.89825
43.393417,-6.063667,CEPSA,0,1,0,0,0.0,0,0,0,0.0,0.55125
43.554833,-5.767861,CEPSA,0,1,0,0,0.0,0,0,0,0.0,4.019325
43.498278,-6.078194,GALP,0,1,0,0,0.0,0,0,0,0.0,0.959555
43.219472,-6.879361,EL SALVADOR,0,1,0,0,0.0,0,0,0,0.0,0.149331
43.541,-6.101111,GALP,0,1,0,0,0.0,0,0,0,0.0,0.8405
43.535,-6.518917,GALP,0,1,0,0,0.0,0,0,0,0.0,0.19225
43.487833,-6.110667,GALP,0,1,0,0,0.0,0,0,0,0.0,0.580599
43.456778,-3.709361,REPSOL,0,1,0,0,0.0,0,0,0,0.0,1.670319
43.396583,-3.787222,CEPSA,0,1,0,0,0.0,0,0,0,0.0,1.287
43.314472,-4.069278,MEROIL,0,1,0,0,0.0,0,0,0,0.0,0.86925
43.328167,-3.967583,MEROIL,0,1,0,0,0.0,0,0,0,0.0,2.636
43.320694,-3.867861,REPSOL,0,1,0,0,0.0,0,0,0,0.0,1.4335
43.353889,-4.093056,CEPSA,0,1,0,0,0.0,0,0,0,0.0,1.775033
43.319556,-4.309,E.S. TRECEÑO S.L.,0,1,0,0,0.0,0,0,0,0.0,0.59375
43.37482,-4.496616,COMBUSCAN,0,1,0,0,0.0,0,0,0,0.0,1.991901
43.414194,-3.578556,REPSOL,0,1,0,0,0.0,0,0,0,0.0,2.37375
43.209722,-3.472361,(SIN RÓTULO),0,1,0,0,0.0,0,0,0,0.0,0.10665
43.269333,-4.249639,CEPSA,0,1,0,0,0.0,0,0,0,0.0,0.804845
43.356,-4.094167,CEPSA,0,1,0,0,0.0,0,0,0,0.0,1.775033
43.167083,-4.606194,ESTACION DE SERVICIO LIEBANA S.L,0,1,0,0,0.0,0,0,0,0.0,1.4555
43.426083,-3.522444,REPSOL,0,1,0,0,0.0,0,0,0,0.0,1.331546
43.378278,-4.05975,REPSOL,0,1,0,0,0.0,0,0,0,0.0,2.900501
43.181972,-4.052444,PETRONOR,0,1,0,0,0.0,0,0,0,0.0,0.23
43.447306,-3.562611,REPSOL,0,1,0,0,0.0,0,0,0,0.0,1.331546
43.395944,-4.155194,CEPSA,0,1,0,0,0.0,0,0,0,0.0,1.071197
43.254194,-4.405361,PETRONOR,0,1,0,0,0.0,0,0,0,0.0,0.805575
43.368611,-4.089444,PETRONOR,0,1,0,0,0.0,0,0,0,0.0,2.439488
43.425833,-3.769333,REPSOL,0,1,0,0,0.0,0,0,0,0.0,2.892913
43.131389,-4.049,PETRONOR,0,1,0,0,0.0,0,0,0,0.0,0.331348
43.388583,-3.687083,REPSOL,0,1,0,0,0.0,0,0,0,0.0,3.74959
43.341889,-3.418167,REPSOL,0,1,0,0,0.0,0,0,0,0.0,0.225
43.383472,-3.73775,BALLENOIL,0,1,0,0,0.0,0,0,0,0.0,1.598
43.358278,-3.924083,GALP,0,1,0,0,0.0,0,0,0,0.0,1.6425
43.408472,-3.945806,BALLENOIL,0,1,0,0,0.0,0,0,0,0.0,2.1185
43.394806,-3.458722,PETRONOR,0,1,0,0,0.0,0,0,0,0.0,1.750615
43.388417,-3.685028,REPSOL,0,1,0,0,0.0,0,0,0,0.0,1.225456
43.218333,-3.943222,REPSOL,0,1,0,0,0.0,0,0,0,0.0,0.6485
43.229528,-3.814194,REPSOL,0,1,0,0,0.0,0,0,0,0.0,0.596932
43.469778,-3.56225,CAMPSA,0,1,0,0,0.0,0,0,0,0.0,1.331546
43.387639,-4.279472,REPSOL,0,1,0,0,0.0,0,0,0,0.0,0.550604
43.391056,-3.665,CEPSA,0,1,0,0,0.0,0,0,0,0.0,2.37375
43.397806,-4.049056,REPSOL,0,1,0,0,0.0,0,0,0,0.0,2.480329
43.411417,-3.542028,REPSOL,0,1,0,0,0.0,0,0,0,0.0,4.458666
43.389806,-3.6835,REPSOL,0,1,0,0,0.0,0,0,0,0.0,1.225456
43.331556,-4.0655,REPSOL,0,1,0,0,0.0,0,0,0,0.0,0.86925
43.333972,-4.329278,REPSOL,0,1,0,0,0.0,0,0,0,0.0,5.86425
43.334083,-4.330611,REPSOL,0,1,0,0,0.0,0,0,0,0.0,5.86425
43.327028,-4.191639,REPSOL,0,1,0,0,0.0,0,0,0,0.0,5.86425
43.388361,-4.407833,E.S.SOLBAS,0,1,0,0,0.0,0,0,0,0.0,1.23
43.420056,-4.039,BALLENOIL,0,1,0,0,0.0,0,0,0,0.0,2.480329
43.391056,-3.665,MOEVE,0,1,0,0,0.0,0,0,0,0.0,2.37375
43.459083,-3.549028,E.S. CARBURANTES DE ARNUERO S.L.,0,1,0,0,0.0,0,0,0,0.0,0.845597
42.380306,-1.552944,AVIA,0,1,0,0,0.0,0,0,0,0.0,0.667625
42.734444,-1.633556,MOEVE,0,1,0,0,0.0,0,0,0,0.0,0.089138
42.581139,-1.285639,AVIA,0,1,0,0,0.0,0,0,0,0.0,0.081452
42.84325,-1.681528,ESTACION DE SERVICIO ARALAR,0,1,0,0,0.0,0,0,0,0.0,0.089138
42.586528,-1.76475,ADELFAS OIL,0,1,0,0,0.0,0,0,0,0.0,1.040329
42.736,-1.633139,BALLENOIL,0,1,0,0,0.0,0,0,0,0.0,0.089138
42.784389,-1.372472,"ESTACION DE SERVICIO AOIZ, S.L.",0,1,0,0,0.0,0,0,0,0.0,0.081452
42.666917,-2.252397,AVIA,0,1,0,0,0.0,0,0,0,0.0,1.359332
42.568333,-2.191722,AVIA,0,1,0,0,0.0,0,0,0,0.0,0.941387
43.136083,-1.680583,AVIA,0,1,0,0,0.0,0,0,0,0.0,0.081452
42.571139,-2.022194,HNOS. FERNANDEZ URABAIN S.L.,0,1,0,0,0.0,0,0,0,0.0,1.041149
42.607389,-2.016806,AVANZA OIL,0,1,0,0,0.0,0,0,0,0.0,1.097593
42.036472,-1.631,Q8,0,1,0,0,0.0,0,0,0,0.0,0.979893
42.9155,-2.183833,IDS,0,1,0,0,0.0,0,0,0,0.0,4.551707
42.734722,-1.633889,IDS,0,1,0,0,0.0,0,0,0,0.0,0.089138
42.891,-2.16075,REPSOL,0,1,0,0,0.0,0,0,0,0.0,4.551707
42.350639,-1.937639,REPSOL,0,1,0,0,0.0,0,0,0,0.0,0.97058
42.136917,-1.699944,REPSOL,0,1,0,0,0.0,0,0,0,0.0,2.394561
43.278278,-1.710056,REPSOL,0,1,0,0,0.0,0,0,0,0.0,0.089138
43.278111,-1.708583,REPSOL,0,1,0,0,0.0,0,0,0,0.0,0.089138
42.167611,-1.593083,E.S.LA RECTA,0,1,0,0,0.0,0,0,0,0.0,0.580278
42.861639,-1.743917,REPSOL,0,1,0,0,0.0,0,0,0,0.0,1.035433
42.983333,-1.630528,CEPSA,0,1,0,0,0.0,0,0,0,0.0,0.089138
42.945722,-1.265667,PETRONOR,0,1,0,0,0.0,0,0,0,0.0,0.081452
42.868083,-1.096694,AVIA,0,1,0,0,0.0,0,0,0,0.0,0.129792
42.771222,-2.130472,PETRONOR,0,1,0,0,0.0,0,0,0,0.0,0.983992
42.350722,-1.650389,MOEVE,0,1,0,0,0.0,0,0,0,0.0,0.666887
42.076944,-1.79675,MOEVE,0,1,0,0,0.0,0,0,0,0.0,0.886288
43.137472,-1.611139,ZONA AUTO MUGAIRE AVIA,0,1,0,0,0.0,0,0,0,0.0,0.089138
43.148639,-1.512361,CAMPSA,0,1,0,0,0.0,0,0,0,0.0,0.089138
42.614194,-1.27825,REPSOL,0,1,0,0,0.0,0,0,0,0.0,0.081452
42.775972,-1.635278,REPSOL,0,1,0,0,0.0,0,0,0,0.0,0.089138
42.776111,-1.634722,REPSOL,0,1,0,0,0.0,0,0,0,0.0,0.27274
43.270833,-1.687167,PETRONOR,0,1,0,0,0.0,0,0,0,0.0,0.089138
42.856083,-1.618917,ARALAR,0,1,0,0,0.0,0,0,0,0.0,0.089138
43.058806,-1.955944,CEPSA,0,1,0,0,0.0,0,0,0,0.0,3.233454
43.059111,-1.957306,CEPSA,0,1,0,0,0.0,0,0,0,0.0,3.233454
42.201611,-1.642861,REPSOL,0,1,0,0,0.0,0,0,0,0.0,0.580278
42.818417,-1.718111,PETRONOR,0,1,0,0,0.0,0,0,0,0.0,0.309224
42.756667,-1.624167,REPSOL,0,1,0,0,0.0,0,0,0,0.0,0.27274
42.89,-2.169028,IZELAI FUEL,0,1,0,0,0.0,0,0,0,0.0,4.551707
42.917667,-2.195389,GALP,0,1,0,0,0.0,0,0,0,0.0,4.959117
42.915306,-2.197889,GALP,0,1,0,0,0.0,0,0,0,0.0,4.959117
41.993278,-1.676361,REPSOL,0,1,0,0,0.0,0,0,0,0.0,0.805828
43.287444,-1.505667,CEPSA,0,1,0,0,0.0,0,0,0,0.0,0.089138
43.033417,-1.983694,REPSOL,0,1,0,0,0.0,0,0,0,0.0,3.233454
42.512583,-2.374028,REPSOL,0,1,0,0,0.0,0,0,0,0.0,5.244125
41.975444,-1.44,EURONOR ENERGY ,0,1,0,0,0.0,0,0,0,0.0,0.758054
42.416556,-2.076861,CEPSA,0,1,0,0,0.0,0,0,0,0.0,0.978613
42.449611,-2.212222,REPSOL,0,1,0,0,0.0,0,0,0,0.0,0.913779
42.173278,-1.699139,ATUGAS,0,1,0,0,0.0,0,0,0,0.0,0.635037
42.400583,-1.964639,COMBUSTIBLES PIUDO,0,1,0,0,0.0,0,0,0,0.0,1.040329
43.109083,-1.283028,ZONA AUTO LUAIDE AVIA,0,1,0,0,0.0,0,0,0,0.0,0.081452
42.831361,-1.585417,BP HUARTE,0,1,0,0,0.0,0,0,0,0.0,0.089138
42.937167,-1.503167,JOSENEA ZUBIRI AVIA,0,1,0,0,0.0,0,0,0,0.0,0.081452
42.029556,-1.516056,PETRONOR,0,1,0,0,0.0,0,0,0,0.0,0.851083
42.9125,-1.863028,REPSOL,0,1,0,0,0.0,0,0,0,0.0,3.563271
42.8355,-1.653361,REPSOL,0,1,0,0,0.0,0,0,0,0.0,0.089138
43.084972,-1.922278,CAMPSA,0,1,0,0,0.0,0,0,0,0.0,0.965646
43.155889,-1.670167,E.S. KONTXA S.L.,0,1,0,0,0.0,0,0,0,0.0,0.089138
41.227694,-0.029944,"GANAR, S. COOP.",0,1,0,0,0.0,0,0,0,0.0,0.3225
40.529083,-1.025306,E.S DE ALFAMBRA,0,1,0,0,0.0,0,0,0,0.0,0.54325
41.58575,-1.099611,SHELL,0,1,0,0,0.0,0,0,0,0.0,6.223
41.605944,0.269639,CEPSA,0,1,0,0,0.0,0,0,0,0.0,0.19232
41.624333,0.194139,CEPSA,0,1,0,0,0.0,0,0,0,0.0,0.544709
42.254083,0.731861,ESTACION SERVICIO BONET SL,0,1,0,0,0.0,0,0,0,0.0,0.701
41.414806,-1.516972,MLC ALUENDA,0,1,0,0,0.0,0,0,0,0.0,1.712528
41.475944,-0.153111,BONAREA,0,1,0,0,0.0,0,0,0,0.0,0.227243
42.274861,-0.685917,"LABOIL, S.L.",0,1,0,0,0.0,0,0,0,0.0,0.37835
41.863667,0.419222,ESC,0,1,0,0,0.0,0,0,0,0.0,0.229411
42.446444,0.132528,ESTACION DE SERVICIO RV,0,1,0,0,0.0,0,0,0,0.0,0.202605
41.477278,-1.379333,COSANSE,0,1,0,0,0.0,0,0,0,0.0,2.22683
41.59475,-1.274806,E.S.EPILA,0,1,0,0,0.0,0,0,0,0.0,2.142767
41.579444,-1.113083,E.S.LA MUELA,0,1,0,0,0.0,0,0,0,0.0,6.643447
42.142972,-0.325167,GALP,0,1,0,0,0.0,0,0,0,0.0,3.128665
42.773972,-0.367806,REPSOL,0,1,0,0,0.0,0,0,0,0.0,0.067862
41.672583,0.188167,REPSOL-E.S.JAIME I,0,1,0,0,0.0,0,0,0,0.0,0.10445
41.827972,0.311167,REPSOL,0,1,0,0,0.0,0,0,0,0.0,0.20625
42.188222,0.337861,"LABOIL, S.L.",0,1,0,0,0.0,0,0,0,0.0,0.147425
41.413417,0.332806,REPSOL,0,1,0,0,0.0,0,0,0,0.0,0.8275
42.630222,-0.326889,REPSOL,0,1,0,0,0.0,0,0,0,0.0,0.337
42.584167,0.212917,REPSOL,0,1,0,0,0.0,0,0,0,0.0,0.239653
42.315778,0.56475,REPSOL,0,1,0,0,0.0,0,0,0,0.0,0.103319
41.978278,0.490083,MOEVE (ANTERIORMENTE CEPSA) PENDIENTE DE CANVIAR TODA LA IMAGEN,0,1,0,0,0.0,0,0,0,0.0,0.90175
42.740833,-0.748278,MOEVE,0,1,0,0,0.0,0,0,0,0.0,0.197315
42.723056,-0.524528,MOEVE,0,1,0,0,0.0,0,0,0,0.0,1.02975
42.606472,-0.123389,REPSOL,0,1,0,0,0.0,0,0,0,0.0,0.4615
42.66125,0.2095,REPSOL,0,1,0,0,0.0,0,0,0,0.0,0.242805
42.123722,-0.271806,REPSOL,0,1,0,0,0.0,0,0,0,0.0,0.2625
42.716,-0.308444,REPSOL,0,1,0,0,0.0,0,0,0,0.0,0.187341
42.4155,0.141028,CEPSA,0,1,0,0,0.0,0,0,0,0.0,0.18118
41.7145,-0.049111,CEPSA,0,1,0,0,0.0,0,0,0,0.0,0.472109
42.556611,-0.786556,CEPSA,0,1,0,0,0.0,0,0,0,0.0,0.59825
41.939611,-0.369333,REPSOL,0,1,0,0,0.0,0,0,0,0.0,0.284767
41.845722,0.295694,REPSOL,0,1,0,0,0.0,0,0,0,0.0,0.20625
41.721833,0.146667,REPSOL,0,1,0,0,0.0,0,0,0,0.0,0.093853
41.792333,-0.153222,REPSOL,0,1,0,0,0.0,0,0,0,0.0,0.648051
42.052139,-0.015222,REPSOL,0,1,0,0,0.0,0,0,0,0.0,2.33
41.769472,-0.327639,REPSOL,0,1,0,0,0.0,0,0,0,0.0,0.900599
42.055083,0.239861,REPSOL  ,0,1,0,0,0.0,0,0,0,0.0,0.532846
42.677667,-0.538194,REPSOL,0,1,0,0,0.0,0,0,0,0.0,0.306769
42.402417,0.396917,REPSOL,0,1,0,0,0.0,0,0,0,0.0,0.509
41.992,-0.667444,REPSOL,0,1,0,0,0.0,0,0,0,0.0,2.039316
42.036194,-0.575528,REPSOL,0,1,0,0,0.0,0,0,0,0.0,0.273069
42.140611,0.225944,REPSOL,0,1,0,0,0.0,0,0,0,0.0,0.288224
41.950139,0.153611,MOEVE-E.S.JAIME I,0,1,0,0,0.0,0,0,0,0.0,0.724194
41.518139,0.042028,GALP,0,1,0,0,0.0,0,0,0,0.0,5.4285
41.518222,0.039361,GALP,0,1,0,0,0.0,0,0,0,0.0,5.4285
41.170611,-0.442194,Q8,0,1,0,0,0.0,0,0,0,0.0,0.9595
41.028194,-0.806722,GASOLEOS TERUEL,0,1,0,0,0.0,0,0,0,0.0,0.069643
41.738667,-0.844917,IDS,0,1,0,0,0.0,0,0,0,0.0,8.52875
40.482583,-1.251333,MOEVE,0,1,0,0,0.0,0,0,0,0.0,0.29375
40.802472,-0.837611,REPSOL,0,1,0,0,0.0,0,0,0,0.0,0.4405
41.249056,-0.067917,REPSOL,0,1,0,0,0.0,0,0,0,0.0,0.094403
41.736972,-1.066694,E.S. LA JOYOSA,0,1,0,0,0.0,0,0,0,0.0,9.799428
41.450694,-1.346556,AREA-220,0,1,0,0,0.0,0,0,0,0.0,2.034812
41.840056,-1.419444,REPSOL,0,1,0,0,0.0,0,0,0,0.0,1.922
41.524333,-1.273361,REPSOL,0,1,0,0,0.0,0,0,0,0.0,5.846
41.5165,-1.288111,REPSOL,0,1,0,0,0.0,0,0,0,0.0,5.846
41.305917,-1.964361,AVIA,0,1,0,0,0.0,0,0,0,0.0,2.887535
41.681361,-0.780861,REPSOL,0,1,0,0,0.0,0,0,0,0.0,2.978141
41.521917,-1.599833,REPSOL,0,1,0,0,0.0,0,0,0,0.0,0.68688
40.946639,-0.230444,CEPSA,0,1,0,0,0.0,0,0,0,0.0,1.261
40.788111,-0.035556,REPSOL,0,1,0,0,0.0,0,0,0,0.0,0.12125
41.466056,-1.787278,PETRONOR,0,1,0,0,0.0,0,0,0,0.0,0.408
40.547639,-1.651944,E.S.ORIHUELA DEL TREMEDAL,0,1,0,0,0.0,0,0,0,0.0,0.061206
40.824694,-0.201611,E.S. AGUAVIVA,0,1,0,0,0.0,0,0,0,0.0,0.213185
41.212833,-1.788167,MONTEPIEDRA,0,1,0,0,0.0,0,0,0,0.0,0.607156
41.483222,-1.371528,REPSOL,0,1,0,0,0.0,0,0,0,0.0,0.872835
40.19075,-0.655917,REPSOL,0,1,0,0,0.0,0,0,0,0.0,0.447512
40.149639,-0.823556,REPSOL,0,1,0,0,0.0,0,0,0,0.0,0.195414
41.640722,-0.754611,REPSOL,0,1,0,0,0.0,0,0,0,0.0,7.840568
41.640639,-0.754694,REPSOL,0,1,0,0,0.0,0,0,0,0.0,7.840568
40.438083,-0.848861,CEPSA,0,1,0,0,0.0,0,0,0,0.0,0.388948
41.834472,-1.32,REPSOL,0,1,0,0,0.0,0,0,0,0.0,3.4165
41.832972,-1.319722,REPSOL,0,1,0,0,0.0,0,0,0,0.0,3.4165
41.730583,-1.031417,PETRONOR,0,1,0,0,0.0,0,0,0,0.0,3.91875
41.731639,-1.029833,REPSOL,0,1,0,0,0.0,0,0,0,0.0,3.91875
41.128361,-0.510583,MOEVE,0,1,0,0,0.0,0,0,0,0.0,0.332023
40.913361,-1.298306,REPSOL,0,1,0,0,0.0,0,0,0,0.0,0.297198
42.283333,-1.272111,COOP SAN JOSE - SÁDABA,0,1,0,0,0.0,0,0,0,0.0,0.464094
41.766806,-1.1265,REPSOL,0,1,0,0,0.0,0,0,0,0.0,2.479171
40.831417,-0.798167,REPSOL,0,1,0,0,0.0,0,0,0,0.0,0.4775
41.514972,-0.63675,REPSOL,0,1,0,0,0.0,0,0,0,0.0,0.204032
41.432722,-0.504083,REPSOL,0,1,0,0,0.0,0,0,0,0.0,1.58425
40.627667,-1.000472,GASOLEOS TERUEL,0,1,0,0,0.0,0,0,0,0.0,0.554
40.750583,-1.333361,REPSOL,0,1,0,0,0.0,0,0,0,0.0,2.68225
41.761639,-1.149528,REPSOL,0,1,0,0,0.0,0,0,0,0.0,7.155707
41.761111,-1.149389,REPSOL,0,1,0,0,0.0,0,0,0,0.0,7.155707
40.365861,-0.706083,GALP,0,1,0,0,0.0,0,0,0,0.0,0.891105
40.78275,-1.346972,REPSOL,0,1,0,0,0.0,0,0,0,0.0,0.2
41.925278,-1.254972,REPSOL,0,1,0,0,0.0,0,0,0,0.0,0.400554
41.219833,-0.469806,REPSOL,0,1,0,0,0.0,0,0,0,0.0,0.91375
41.117167,-1.406028,REPSOL,0,1,0,0,0.0,0,0,0,0.0,0.33975
41.761472,-0.831278,REPSOL,0,1,0,0,0.0,0,0,0,0.0,6.816228
41.857,-0.794,REPSOL,0,1,0,0,0.0,0,0,0,0.0,0.335
40.831472,-0.24025,CAMPSA,0,1,0,0,0.0,0,0,0,0.0,0.253706
41.523639,-1.348194,CALATORAO ES,0,1,0,0,0.0,0,0,0,0.0,0.872835
41.259111,-0.869,CEPSA,0,1,0,0,0.0,0,0,0,0.0,0.096359
41.335639,-1.219639,MOEVE,0,1,0,0,0.0,0,0,0,0.0,0.286853
41.350472,-1.038972,CEPSA,0,1,0,0,0.0,0,0,0,0.0,0.461886
41.322528,-0.343889,CEPSA,0,1,0,0,0.0,0,0,0,0.0,0.325504
41.846111,-1.355389,AVIA,0,1,0,0,0.0,0,0,0,0.0,3.191683
42.260639,-1.194694,MOEVE,0,1,0,0,0.0,0,0,0,0.0,0.6763
41.540417,-1.233833,MOEVE,0,1,0,0,0.0,0,0,0,0.0,5.846
41.235944,-0.04375,CEPSA,0,1,0,0,0.0,0,0,0,0.0,0.220078
41.74825,-0.639972,SIN ROTULO,0,1,0,0,0.0,0,0,0,0.0,2.151049
41.483056,-1.379361,MOEVE,0,1,0,0,0.0,0,0,0,0.0,2.034812
41.311611,-2.002722,MOEVE,0,1,0,0,0.0,0,0,0,0.0,3.88225
41.312611,-2.001333,MOEVE,0,1,0,0,0.0,0,0,0,0.0,2.887535
41.531944,-1.618056,CEPSA,0,1,0,0,0.0,0,0,0,0.0,0.409096
41.50175,-1.32125,BP,0,1,0,0,0.0,0,0,0,0.0,0.872835
41.605778,-1.077278,MOEVE,0,1,0,0,0.0,0,0,0,0.0,9.243
40.894278,-0.377333,REPSOL,0,1,0,0,0.0,0,0,0,0.0,0.255114
41.016083,0.192972,REPSOL,0,1,0,0,0.0,0,0,0,0.0,0.4455
40.872528,0.150917,CEPSA,0,1,0,0,0.0,0,0,0,0.0,0.14844
40.982278,-0.447833,REPSOL,0,1,0,0,0.0,0,0,0,0.0,0.233116
40.564778,-1.2855,REPSOL,0,1,0,0,0.0,0,0,0,0.0,0.16675
41.309667,-0.742333,REPSOL,0,1,0,0,0.0,0,0,0,0.0,0.364707
41.208861,-0.710861,ES NTRA SRA OLIVAR,0,1,0,0,0.0,0,0,0,0.0,0.141023
41.539889,-0.996556,REPSOL,0,1,0,0,0.0,0,0,0,0.0,1.110316
41.836167,-1.177194,REPSOL,0,1,0,0,0.0,0,0,0,0.0,1.120979
42.490944,-1.215111,"AN ENERGETICOS S,L - SOS DEL REY CATOLICO",0,1,0,0,0.0,0,0,0,0.0,0.081452
41.302944,-1.945833,REPSOL,0,1,0,0,0.0,0,0,0,0.0,3.88225
41.303611,-1.946278,REPSOL,0,1,0,0,0.0,0,0,0,0.0,3.88225
40.680528,-0.696056,REPSOL,0,1,0,0,0.0,0,0,0,0.0,0.057386
41.492778,-0.520222,REPSOL,0,1,0,0,0.0,0,0,0,0.0,0.308329
41.665806,-1.239167,REPSOL,0,1,0,0,0.0,0,0,0,0.0,1.550627
41.436444,-1.24025,PETRONOR,0,1,0,0,0.0,0,0,0,0.0,0.554421
41.637972,-0.419389,REPSOL,0,1,0,0,0.0,0,0,0,0.0,0.401326
40.508333,-0.407417,PETRONOR,0,1,0,0,0.0,0,0,0,0.0,0.241291
41.762833,-1.475639,REPSOL,0,1,0,0,0.0,0,0,0,0.0,0.622367
41.583361,-0.774694,REPSOL,0,1,0,0,0.0,0,0,0,0.0,3.60125
41.984528,1.556083,PETROLIS DE BARCELONA,0,1,0,0,0.0,0,0,0,0.0,2.06014
42.406889,2.8785,TORTUGA,0,1,0,0,0.0,0,0,0,0.0,5.213606
41.655,1.421944,E.S. SANT GUIM,0,1,0,0,0.0,0,0,0,0.0,0.786332
41.564333,0.78825,GALP,0,1,0,0,0.0,0,0,0,0.0,2.0055
42.364444,1.681139,BENZINERA MARTINET,0,1,0,0,0.0,0,0,0,0.0,0.50905
42.14725,0.893667,BONAREA,0,1,0,0,0.0,0,0,0,0.0,0.235271
42.032056,2.362917,PETROVOLTREGÀ - ÀREA DEL COLLSACABRA,0,1,0,0,0.0,0,0,0,0.0,0.613011
41.807833,1.403056,BONAREA,0,1,0,0,0.0,0,0,0,0.0,0.924101
41.612111,1.129444,BONAREA,0,1,0,0,0.0,0,0,0,0.0,1.824157
42.700222,0.862583,MOEVE,0,1,0,0,0.0,0,0,0,0.0,0.376248
41.853611,2.360056,SIN ROTULO,0,1,0,0,0.0,0,0,0,0.0,3.224047
41.793,0.573111,E.S. SEGRIÀ,0,1,0,0,0.0,0,0,0,0.0,0.93375
41.810694,1.40225,E.S.MAS,0,1,0,0,0.0,0,0,0,0.0,0.924101
41.583806,2.255972,EASYGAS,0,1,0,0,0.0,0,0,0,0.0,10.669805
41.8895,1.050194,FARRE OIL,0,1,0,0,0.0,0,0,0,0.0,1.824157
41.687917,0.633,PONENT ENERGIA,0,1,0,0,0.0,0,0,0,0.0,0.903587
42.160306,1.85775,PETROMIRALLES,0,1,0,0,0.0,0,0,0,0.0,0.248897
42.020124,2.823503,PETREM,0,1,0,0,0.0,0,0,0,0.0,2.092966
42.380333,2.890583,SHELL,0,1,0,0,0.0,0,0,0,0.0,1.44846
41.358,1.752167,SHELL,0,1,0,0,0.0,0,0,0,0.0,5.36
42.096722,2.222861,NADA ,0,1,0,0,0.0,0,0,0,0.0,2.157346
41.781917,1.278167,BONAREA,0,1,0,0,0.0,0,0,0,0.0,2.312314
41.67125,2.217222,ESTACIO SERVEI BIGUES I RIELLS,0,1,0,0,0.0,0,0,0,0.0,4.349774
41.808722,2.106667,BONAREA,0,1,0,0,0.0,0,0,0,0.0,2.867202
42.402972,2.878639,"ANDAMUR ""LA JONQUERA""",0,1,0,0,0.0,0,0,0,0.0,1.557003
41.883528,2.283806,"AREA DE SERVEIS TARADELL,SL",0,1,0,0,0.0,0,0,0,0.0,3.65996
41.490972,1.513444,PETROMIRALLES,0,1,0,0,0.0,0,0,0,0.0,1.185007
42.204306,2.5385,PANAWAY ROAD,0,1,0,0,0.0,0,0,0,0.0,4.08025
41.622444,2.574889,CARBURANTS SANT ISCLE,0,1,0,0,0.0,0,0,0,0.0,19.897837
41.716028,0.762639,E.S.TERMENS,0,1,0,0,0.0,0,0,0,0.0,2.590404
42.370278,1.78,ANEU OIL ,0,1,0,0,0.0,0,0,0,0.0,1.205
42.577139,1.139194,MOEVE,0,1,0,0,0.0,0,0,0,0.0,0.22437
41.532889,0.842694,BONAREA,0,1,0,0,0.0,0,0,0,0.0,2.0055
41.563944,0.788028,GALP,0,1,0,0,0.0,0,0,0,0.0,2.0055
41.795,1.946806,MEROIL,0,1,0,0,0.0,0,0,0,0.0,1.115137
41.853056,2.435917,ZONA DIESEL ,0,1,0,0,0.0,0,0,0,0.0,19.432814
41.3655,1.985083,BONAREA,0,1,0,0,0.0,0,0,0,0.0,5.317207
41.538639,1.393167,COPERAL,0,1,0,0,0.0,0,0,0,0.0,0.800941
42.381222,2.889167,SHELL,0,1,0,0,0.0,0,0,0,0.0,1.44846
41.356889,1.752694,SHELL,0,1,0,0,0.0,0,0,0,0.0,5.36
42.423056,1.922,MEROIL,0,1,0,0,0.0,0,0,0,0.0,2.0945
42.004194,2.242389,GALP,0,1,0,0,0.0,0,0,0,0.0,0.724974
41.814361,0.635944,ES ALGERRI,0,1,0,0,0.0,0,0,0,0.0,0.442863
41.757139,2.120167,PORBOL,0,1,0,0,0.0,0,0,0,0.0,3.060065
41.632889,2.704111,BENZINERA SANTA SUSANNA,0,1,0,0,0.0,0,0,0,0.0,4.529016
42.410333,2.876306,GALP,0,1,0,0,0.0,0,0,0,0.0,1.557003
41.74475,1.858,E.S. ROSALEDA  -ST. FRUITOS DE BAGES-     GASOILS ROVIRA,0,1,0,0,0.0,0,0,0,0.0,1.279769
41.568722,0.5365,Q8,0,1,0,0,0.0,0,0,0,0.0,1.352742
42.033722,2.899889,Q8,0,1,0,0,0.0,0,0,0,0.0,1.515164
42.053028,2.544889,Q8,0,1,0,0,0.0,0,0,0,0.0,1.229932
41.984556,2.310056,FEIXAS AULET,0,1,0,0,0.0,0,0,0,0.0,2.252056
41.984528,2.310028,FEIXAS AULET ,0,1,0,0,0.0,0,0,0,0.0,2.252056
41.322694,1.718667,PETROCAT DIRECTE,0,1,0,0,0.0,0,0,0,0.0,12.819127
41.323389,1.718806,PETROCAT DIRECTE,0,1,0,0,0.0,0,0,0,0.0,12.819127
41.83475,2.273111,BLANCA,0,1,0,0,0.0,0,0,0,0.0,3.65996
41.882028,2.243583,ESCLATOIL,0,1,0,0,0.0,0,0,0,0.0,3.65996
41.758611,2.396361,BLANCA,0,1,0,0,0.0,0,0,0,0.0,3.224047
41.354889,1.739167,CARREFOUR,0,1,0,0,0.0,0,0,0,0.0,5.36
41.750556,1.862139,CARREFOUR,0,1,0,0,0.0,0,0,0,0.0,2.983484
41.6125,1.888889,CEPSA,0,1,0,0,0.0,0,0,0,0.0,10.096441
41.611139,1.891361,CEPSA,0,1,0,0,0.0,0,0,0,0.0,10.096441
41.327611,1.945472,BP BEGUES,0,1,0,0,0.0,0,0,0,0.0,1.326107
41.332667,1.683139,Q8,0,1,0,0,0.0,0,0,0,0.0,7.63775
41.958167,2.634361,SHELL,0,1,0,0,0.0,0,0,0,0.0,1.647035
42.030917,2.88675,SHELL,0,1,0,0,0.0,0,0,0,0.0,1.565303
41.788139,0.82675,GADCAR,0,1,0,0,0.0,0,0,0,0.0,2.744864
42.221,2.82375,CEPSA,0,1,0,0,0.0,0,0,0,0.0,1.76725
41.967528,3.031222,CONDIS,0,1,0,0,0.0,0,0,0,0.0,1.555703
41.650833,0.898806,IDS,0,1,0,0,0.0,0,0,0,0.0,7.874919
41.967583,3.031139,Q8,0,1,0,0,0.0,0,0,0,0.0,1.555703
42.155417,2.465361,Q8,0,1,0,0,0.0,0,0,0,0.0,1.055825
41.628333,0.908972,PETROLIS INDEPENDENTS - PETRO7 ,0,1,0,0,0.0,0,0,0,0.0,7.946372
41.853028,0.95675,SEROIL ENERGY,0,1,0,0,0.0,0,0,0,0.0,2.70641
41.313861,1.652389,PINS OIL,0,1,0,0,0.0,0,0,0,0.0,4.407
42.028972,3.065417,REPSOL,0,1,0,0,0.0,0,0,0,0.0,0.506066
41.754333,0.915694,REPSOL,0,1,0,0,0.0,0,0,0,0.0,2.761055
42.165083,2.745139,REPSOL,0,1,0,0,0.0,0,0,0,0.0,0.803001
42.310111,3.1265,REPSOL,0,1,0,0,0.0,0,0,0,0.0,0.292651
41.880222,0.878778,SEGRE OIL,0,1,0,0,0.0,0,0,0,0.0,1.386209
41.719972,2.148694,U.S. SANT QUIRZE SAFAJA  -GASOILS ROVIRA AUTOSERVEI-,0,1,0,0,0.0,0,0,0,0.0,3.641968
42.0045,3.145944,PETROCAT,0,1,0,0,0.0,0,0,0,0.0,1.250379
41.576194,2.222583,REPSOL,0,1,0,0,0.0,0,0,0,0.0,4.349774
41.511278,2.361389,REPSOL,0,1,0,0,0.0,0,0,0,0.0,32.340389
41.378417,1.730361,REPSOL,0,1,0,0,0.0,0,0,0,0.0,1.844649
41.377889,1.730583,REPSOL,0,1,0,0,0.0,0,0,0,0.0,1.844649
41.661917,1.201,DST,0,1,0,0,0.0,0,0,0,0.0,7.2165
41.990167,2.768306,PETRONOR,0,1,0,0,0.0,0,0,0,0.0,1.987483
41.664778,2.269667,PETROCAT,0,1,0,0,0.0,0,0,0,0.0,9.789712
42.025389,2.865167,REPSOL,0,1,0,0,0.0,0,0,0,0.0,1.565303
41.785639,2.761694,GALP,0,1,0,0,0.0,0,0,0,0.0,11.228255
42.259583,3.048472,GALP,0,1,0,0,0.0,0,0,0,0.0,1.428604
41.6425,0.894917,REPSOL,0,1,0,0,0.0,0,0,0,0.0,9.815769
41.666028,1.211083,REPSOL,0,1,0,0,0.0,0,0,0,0.0,8.203426
41.536889,1.679778,PETRONOR,0,1,0,0,0.0,0,0,0,0.0,3.657831
41.841611,2.698528,PETROSELVA,0,1,0,0,0.0,0,0,0,0.0,3.138194
41.844361,2.694944,PETROSELVA,0,1,0,0,0.0,0,0,0,0.0,3.138194
41.815806,2.89925,REPSOL,0,1,0,0,0.0,0,0,0,0.0,9.773126
41.66825,2.716333,CEPSA,0,1,0,0,0.0,0,0,0,0.0,15.165358
42.215194,2.947806,AOIL,0,1,0,0,0.0,0,0,0,0.0,0.85908
42.212111,1.33025,PETRONOR,0,1,0,0,0.0,0,0,0,0.0,0.684404
41.907389,2.661139,REPSOL,0,1,0,0,0.0,0,0,0,0.0,2.01823
41.615528,2.137083,REPSOL,0,1,0,0,0.0,0,0,0,0.0,5.325232
41.401694,1.704667,MEROIL,0,1,0,0,0.0,0,0,0,0.0,4.706181
42.417083,2.872,GALP,0,1,0,0,0.0,0,0,0,0.0,1.549789
41.531,2.420278,REPSOL,0,1,0,0,0.0,0,0,0,0.0,9.232816
41.809889,1.899389,"SALLENT DE SERVEIS, S.L.",0,1,0,0,0.0,0,0,0,0.0,8.651869
41.283306,1.723917,MOEVE,0,1,0,0,0.0,0,0,0,0.0,12.819127
41.928861,2.298444,REPSOL,0,1,0,0,0.0,0,0,0,0.0,10.00692
41.796528,1.999861,ES CALDERS,0,1,0,0,0.0,0,0,0,0.0,1.115137
42.2265,1.745389,REPSOL,0,1,0,0,0.0,0,0,0,0.0,0.166343
41.748833,2.262694,PETROCAT,0,1,0,0,0.0,0,0,0,0.0,9.789712
39.2115,-0.529944,CANSO CARBUANTES BENIMODO,0,1,0,0,0.0,0,0,0,0.0,5.619823
39.726,-0.833944,(SIN RÓTULO),0,1,0,0,0.0,0,0,0,0.0,0.05313
39.583417,-1.363111,(SIN RÓTULO),0,1,0,0,0.0,0,0,0,0.0,0.348807
39.420778,-0.37375,EXOIL PISTA DE SILLA,0,1,0,0,0.0,0,0,0,0.0,4.248564
38.462861,-0.782611,E.S. PETRER-ELDA,0,1,0,0,0.0,0,0,0,0.0,10.836
38.131278,-0.775194,MAYAYO,0,1,0,0,0.0,0,0,0,0.0,1.195459
38.779222,-0.801361,GRUPO CIRUGEDA COLOM SL ,0,1,0,0,0.0,0,0,0,0.0,0.598635
39.279111,-0.567194,ESTACIO DE SERVICI EL REGAIXO,0,1,0,0,0.0,0,0,0,0.0,2.703938
39.348278,-0.611194,BON SERVICI,0,1,0,0,0.0,0,0,0,0.0,2.405542
39.162806,-0.518806,RIBERCOST,0,1,0,0,0.0,0,0,0,0.0,17.259484
39.659861,-0.516833,   ES J NUÑEZ ,0,1,0,0,0.0,0,0,0,0.0,3.627665
38.518611,-0.909722,MEROIL,0,1,0,0,0.0,0,0,0,0.0,1.543494
38.701889,-0.76775,COOPERATIVA DIVINA AURORA,0,1,0,0,0.0,0,0,0,0.0,1.722329
39.697528,-0.863833,GASOLINERA GALMAR,0,1,0,0,0.0,0,0,0,0.0,1.702255
38.277611,-0.920417,SANTA CRUZ,0,1,0,0,0.0,0,0,0,0.0,1.464295
38.167583,-0.803306,BRIOGAS,0,1,0,0,0.0,0,0,0,0.0,8.774909
39.706611,-0.348028,SEL,0,1,0,0,0.0,0,0,0,0.0,4.0939
39.055556,-1.056167,LA AYORENSE CARBURANTES,0,1,0,0,0.0,0,0,0,0.0,1.01325
39.609083,-0.773389,(SIN RÓTULO),0,1,0,0,0.0,0,0,0,0.0,0.818773
39.273778,-0.374694,"E.S. MIDES, S.L.",0,1,0,0,0.0,0,0,0,0.0,1.50511
39.510472,-0.359528,S2,0,1,0,0,0.0,0,0,0,0.0,3.975975
39.427556,-0.682944,(SIN RÓTULO),0,1,0,0,0.0,0,0,0,0.0,4.713881
38.9405,-0.360389,CARBURANTS+DEL+CAMP+DE+LLUTXENT,0,1,0,0,0.0,0,0,0,0.0,0.792391
39.60875,-0.575583,COOPERATIVA DE BENISANO,0,1,0,0,0.0,0,0,0,0.0,3.83904
39.410444,-0.388,COOP.+SAN+PEDRO,0,1,0,0,0.0,0,0,0,0.0,37.269148
38.156,-0.889806,GALP,0,1,0,0,0.0,0,0,0,0.0,0.89775
38.48825,-0.773306,CARREFOUR,0,1,0,0,0.0,0,0,0,0.0,13.080356
38.537389,-0.175167,CARREFOUR,0,1,0,0,0.0,0,0,0,0.0,1.565025
39.8155,-0.230278,VCC LA VALL,0,1,0,0,0.0,0,0,0,0.0,1.013171
40.361139,0.397111,REPSOL,0,1,0,0,0.0,0,0,0,0.0,0.44606
41.802611,-1.256278,REPSOL,0,1,0,0,0.0,0,0,0,0.0,1.881
41.606417,-0.691639,REPSOL,0,1,0,0,0.0,0,0,0,0.0,1.37
41.606806,-0.691167,REPSOL,0,1,0,0,0.0,0,0,0,0.0,1.37
41.738306,-1.076389,REPSOL,0,1,0,0,0.0,0,0,0,0.0,9.45275
41.6155,-1.058833,GALP,0,1,0,0,0.0,0,0,0,0.0,10.52407
40.1115,-0.740056,GALP,0,1,0,0,0.0,0,0,0,0.0,0.05475
41.525889,-0.397806,CEPSA,0,1,0,0,0.0,0,0,0,0.0,5.82825
41.52425,-0.395306,CEPSA,0,1,0,0,0.0,0,0,0,0.0,5.82825
41.733111,1.526806,BONAREA,0,1,0,0,0.0,0,0,0,0.0,8.175036
41.810611,2.531722,BONAREA,0,1,0,0,0.0,0,0,0,0.0,2.159312
41.906833,1.193528,BONAREA,0,1,0,0,0.0,0,0,0,0.0,2.449889
41.673139,1.263944,BONAREA,0,1,0,0,0.0,0,0,0,0.0,0.946991
41.729722,1.513667,(SIN RÓTULO),0,1,0,0,0.0,0,0,0,0.0,0.771724
42.299833,2.9405,PETROMIRALLES,0,1,0,0,0.0,0,0,0,0.0,1.189553
41.67525,1.26975,PETROLIS INDEPENDENTS,0,1,0,0,0.0,0,0,0,0.0,0.946991
41.76,1.197528,BONAREA,0,1,0,0,0.0,0,0,0,0.0,1.050883
41.656861,1.079,BONAREA,0,1,0,0,0.0,0,0,0,0.0,1.824157
41.782056,1.104639,BONAREA,0,1,0,0,0.0,0,0,0,0.0,0.775323
41.679861,0.985389,COOP. IVARS,0,1,0,0,0.0,0,0,0,0.0,7.521845
41.797222,2.229722,PETROLIS INDEPENDENTS,0,1,0,0,0.0,0,0,0,0.0,29.95408
42.064333,1.312917,ESTACIO SERVEI OLIANA,0,1,0,0,0.0,0,0,0,0.0,0.468494
41.536694,1.387667,COPERAL,0,1,0,0,0.0,0,0,0,0.0,0.800941
41.640194,2.404694,ESTACIO SERVEI LLINARS,0,1,0,0,0.0,0,0,0,0.0,9.337512
42.009639,2.817361,SYM SARRIA,0,1,0,0,0.0,0,0,0,0.0,2.189558
41.749833,0.658056,COOPERATIVA SANT ROC,0,1,0,0,0.0,0,0,0,0.0,0.465916
41.789361,1.287806,BONAREA,0,1,0,0,0.0,0,0,0,0.0,2.312314
41.845083,2.23225,CEPSA,0,1,0,0,0.0,0,0,0,0.0,28.570461
41.619722,2.317722,GALP ,0,1,0,0,0.0,0,0,0,0.0,3.837206
41.906917,2.853861,REPSOL,0,1,0,0,0.0,0,0,0,0.0,2.159403
41.906194,2.853139,REPSOL,0,1,0,0,0.0,0,0,0,0.0,2.159403
42.022694,2.591833,REPSOL,0,1,0,0,0.0,0,0,0,0.0,5.226476
41.813444,2.738083,REPSOL,0,1,0,0,0.0,0,0,0,0.0,3.138194
41.643611,2.518028,CEPSA,0,1,0,0,0.0,0,0,0,0.0,25.167625
41.826639,2.94775,REPSOL,0,1,0,0,0.0,0,0,0,0.0,10.658382
41.827389,2.946889,REPSOL,0,1,0,0,0.0,0,0,0,0.0,10.658382
41.66775,2.7555,GALP,0,1,0,0,0.0,0,0,0,0.0,1.637783
41.824,0.568806,PETRONOR,0,1,0,0,0.0,0,0,0,0.0,1.68925
41.484778,1.854667,REPSOL,0,1,0,0,0.0,0,0,0,0.0,5.793877
41.548806,0.823722,REPSOL,0,1,0,0,0.0,0,0,0,0.0,2.0055
42.385833,2.751833,PETROCAT,0,1,0,0,0.0,0,0,0,0.0,0.664784
42.462861,1.982889,PETROCAT,0,1,0,0,0.0,0,0,0,0.0,2.06975
42.259306,3.046833,GALP,0,1,0,0,0.0,0,0,0,0.0,1.428604
41.597778,2.5425,REPSOL,0,1,0,0,0.0,0,0,0,0.0,25.167625
41.733222,0.591306,REPSOL,0,1,0,0,0.0,0,0,0,0.0,0.93375
37.723667,-1.164889,MOEVE,0,1,0,0,0.0,0,0,0,0.0,1.942585
38.098639,-1.237778,REPSOL,0,1,0,0,0.0,0,0,0,0.0,1.159275
38.173222,-1.313167,CEPSA,0,1,0,0,0.0,0,0,0,0.0,9.54425
38.193944,-1.333444,MOEVE,0,1,0,0,0.0,0,0,0,0.0,1.503786
37.74675,-1.123556,EL MARINO,0,1,0,0,0.0,0,0,0,0.0,2.477729
38.122417,-1.107611,CEPSA,0,1,0,0,0.0,0,0,0,0.0,4.796954
37.885556,-1.360389,BP,0,1,0,0,0.0,0,0,0,0.0,13.581821
41.700722,1.793306,REPSOL,0,1,0,0,0.0,0,0,0,0.0,3.685042
41.657444,2.450278,REPSOL,0,1,0,0,0.0,0,0,0,0.0,8.532347
42.701917,0.793222,REPSOL,0,1,0,0,0.0,0,0,0,0.0,0.32625
41.491917,2.333944,REPSOL,0,1,0,0,0.0,0,0,0,0.0,32.313193
42.245111,1.9785,REPSOL,0,1,0,0,0.0,0,0,0,0.0,0.090277
41.772833,2.739972,REPSOL,0,1,0,0,0.0,0,0,0,0.0,10.457033
42.260889,2.950056,PETRONOR,0,1,0,0,0.0,0,0,0,0.0,2.7225
41.694667,0.738083,REPSOL,0,1,0,0,0.0,0,0,0,0.0,7.669636
42.432667,1.936194,REPSOL,0,1,0,0,0.0,0,0,0,0.0,1.64525
41.758083,1.840028,REPSOL,0,1,0,0,0.0,0,0,0,0.0,1.444401
41.802306,2.761889,BP HOSTAL DE LA SELVA,0,1,0,0,0.0,0,0,0,0.0,10.069185
41.906,2.772139,GALP,0,1,0,0,0.0,0,0,0,0.0,6.758018
41.906833,2.773556,GALP,0,1,0,0,0.0,0,0,0,0.0,12.10625
42.424306,2.869167,BP,0,1,0,0,0.0,0,0,0,0.0,8.52925
42.428333,2.866278,GALP,0,1,0,0,0.0,0,0,0,0.0,1.361505
42.711111,0.797083,REPSOL,0,1,0,0,0.0,0,0,0,0.0,1.274
41.643444,0.931306,MOEVE,0,1,0,0,0.0,0,0,0,0.0,7.7035
41.670278,0.814167,SHELL - E.S. BELLVIS,0,1,0,0,0.0,0,0,0,0.0,8.446
42.171361,0.895,REPSOL,0,1,0,0,0.0,0,0,0,0.0,0.205953
42.005889,1.294306,REPSOL,0,1,0,0,0.0,0,0,0,0.0,1.858533
41.578361,1.636806,PETRONOR,0,1,0,0,0.0,0,0,0,0.0,3.054213
42.427278,3.158528,CEPSA,0,1,0,0,0.0,0,0,0,0.0,0.289649
41.633333,0.823056,REPSOL,0,1,0,0,0.0,0,0,0,0.0,8.541472
42.405722,2.874361,GALP,0,1,0,0,0.0,0,0,0,0.0,9.446
41.773139,1.881472,REPSOL,0,1,0,0,0.0,0,0,0,0.0,9.990161
42.5045,0.80275,PETRONOR,0,1,0,0,0.0,0,0,0,0.0,0.118462
42.136056,1.591778,REPSOL,0,1,0,0,0.0,0,0,0,0.0,0.299031
41.671361,0.604722,PETROCAT,0,1,0,0,0.0,0,0,0,0.0,0.864202
41.892056,2.731972,BP,0,1,0,0,0.0,0,0,0,0.0,1.802587
41.517667,0.619667,REPSOL,0,1,0,0,0.0,0,0,0,0.0,1.435565
42.405278,2.87225,REPSOL,0,1,0,0,0.0,0,0,0,0.0,5.213606
41.414028,1.962917,REPSOL,0,1,0,0,0.0,0,0,0,0.0,1.56028
42.173417,2.930083,REPSOL,0,1,0,0,0.0,0,0,0,0.0,11.32675
41.562278,1.967583,REPSOL,0,1,0,0,0.0,0,0,0,0.0,10.709733
42.346167,1.833806,REPSOL,0,1,0,0,0.0,0,0,0,0.0,0.362224
42.346556,1.832806,REPSOL,0,1,0,0,0.0,0,0,0,0.0,0.362224
42.325472,-2.050417,REPSOL,0,1,0,0,0.0,0,0,0,0.0,0.370498
42.552444,-2.965306,PETRONOR ,0,1,0,0,0.0,0,0,0,0.0,0.267511
42.332556,-3.013222,GALP,0,1,0,0,0.0,0,0,0,0.0,0.332005
42.166556,-2.650028,REPSOL,0,1,0,0,0.0,0,0,0,0.0,0.5245
42.1785,-1.756417,REPSOL SA,0,1,0,0,0.0,0,0,0,0.0,0.226686
42.173639,-2.885722,REPSOL,0,1,0,0,0.0,0,0,0,0.0,0.248897
42.571028,-2.761583,PETRONOR,0,1,0,0,0.0,0,0,0,0.0,0.66734
42.350472,-2.497278,NALDA,0,1,0,0,0.0,0,0,0,0.0,1.853
42.513222,-2.752889,PETRONOR,0,1,0,0,0.0,0,0,0,0.0,0.268546
42.511667,-2.754389,PETRONOR,0,1,0,0,0.0,0,0,0,0.0,0.268546
42.439639,-2.935083,CEPSA,0,1,0,0,0.0,0,0,0,0.0,0.94875
42.431389,-2.280028,REPSOL,0,1,0,0,0.0,0,0,0,0.0,1.030222
42.449778,-2.34325,AVIA,0,1,0,0,0.0,0,0,0,0.0,2.8875
42.182778,-1.762083,REPSOL SA,0,1,0,0,0.0,0,0,0,0.0,0.288105
42.328528,-2.76075,REPSOL,0,1,0,0,0.0,0,0,0,0.0,0.135972
42.213722,-1.990472,REPSOL,0,1,0,0,0.0,0,0,0,0.0,0.33481
42.399528,-2.334028,REPSOL,0,1,0,0,0.0,0,0,0,0.0,0.413657
42.017139,-1.946889,REPSOL,0,1,0,0,0.0,0,0,0,0.0,0.397462
42.483194,-2.652472,PETRONOR,0,1,0,0,0.0,0,0,0,0.0,0.704429
42.463111,-2.570389,AVIA,0,1,0,0,0.0,0,0,0,0.0,2.579
42.439667,-2.531139,CEPSA,0,1,0,0,0.0,0,0,0,0.0,5.303724
42.135306,3.071111,FLUID,0,1,0,0,0.0,0,0,0,0.0,0.522645
42.437111,1.130556,PETROLIS,0,1,0,0,0.0,0,0,0,0.0,0.22437
41.907278,1.698917,VILALTA,0,1,0,0,0.0,0,0,0,0.0,3.345857
42.3345,3.1995,LA TRAMUNTANA,0,1,0,0,0.0,0,0,0,0.0,0.292651
41.781139,2.740917,GALP,0,1,0,0,0.0,0,0,0,0.0,3.122912
41.782,1.094528,CEPSA,0,1,0,0,0.0,0,0,0,0.0,1.824157
42.433694,3.165944,CEPSA,0,1,0,0,0.0,0,0,0,0.0,0.289649
41.721806,2.928333,E.S. TOSSA DE MAR,0,1,0,0,0.0,0,0,0,0.0,1.339577
41.636833,1.850222,REPSOL,0,1,0,0,0.0,0,0,0,0.0,3.70241
41.647111,1.103222,REPSOL,0,1,0,0,0.0,0,0,0,0.0,7.564686
42.365444,3.15075,REPSOL,0,1,0,0,0.0,0,0,0,0.0,0.476135
41.811417,2.998861,RIU D'OR,0,1,0,0,0.0,0,0,0,0.0,9.773126
41.670972,1.261056,REPSOL,0,1,0,0,0.0,0,0,0,0.0,0.946991
41.628667,0.77475,REPSOL,0,1,0,0,0.0,0,0,0,0.0,9.8415
41.727667,0.44175,REPSOL,0,1,0,0,0.0,0,0,0,0.0,0.135996
41.903861,1.878111,PETROCAT,0,1,0,0,0.0,0,0,0,0.0,9.93702
41.99425,1.528528,REPSOL,0,1,0,0,0.0,0,0,0,0.0,1.708097
41.817639,2.52,REPSOL,0,1,0,0,0.0,0,0,0,0.0,2.159312
41.552611,1.676111,CAMPSA,0,1,0,0,0.0,0,0,0,0.0,11.203563
41.92075,1.191222,ONDINA DEL SEGRE,0,1,0,0,0.0,0,0,0,0.0,2.449889
41.649944,2.297667,REPSOL,0,1,0,0,0.0,0,0,0,0.0,10.177763
42.431667,1.930389,REPSOL,0,1,0,0,0.0,0,0,0,0.0,2.65125
41.828833,2.896528,REPSOL,0,1,0,0,0.0,0,0,0,0.0,1.402372
42.7495,0.700722,REPSOL,0,1,0,0,0.0,0,0,0,0.0,1.274
41.558861,0.511667,REPSOL,0,1,0,0,0.0,0,0,0,0.0,1.376128
41.800639,1.898056,PETRONOR,0,1,0,0,0.0,0,0,0,0.0,8.651869
41.553694,2.250167,CAMPSA EXPRESS,0,1,0,0,0.0,0,0,0,0.0,23.01725
42.234417,2.290778,REPSOL,0,1,0,0,0.0,0,0,0,0.0,1.7595
41.789278,1.287583,REPSOL,0,1,0,0,0.0,0,0,0,0.0,2.312314
42.316444,3.063806,PETRONOR,0,1,0,0,0.0,0,0,0,0.0,3.03875
41.891611,2.868111,RABELL,0,1,0,0,0.0,0,0,0,0.0,2.864888
41.652611,0.393,REPSOL,0,1,0,0,0.0,0,0,0,0.0,0.405971
42.4525,0.70925,CAMPSA,0,1,0,0,0.0,0,0,0,0.0,0.36975
42.045306,3.117222,REPSOL,0,1,0,0,0.0,0,0,0,0.0,1.22596
41.785583,0.829917,CAMPSA EXPRESS,0,1,0,0,0.0,0,0,0,0.0,2.744864
41.933361,2.84375,REPSOL,0,1,0,0,0.0,0,0,0,0.0,3.433133
41.576111,0.610333,PETRONOR,0,1,0,0,0.0,0,0,0,0.0,3.528977
41.551778,2.285083,REPSOL,0,1,0,0,0.0,0,0,0,0.0,4.18217
42.304222,2.359167,REPSOL,0,1,0,0,0.0,0,0,0,0.0,0.671384
42.832111,0.72975,REPSOL,0,1,0,0,0.0,0,0,0,0.0,1.18475
41.668694,1.854167,PETRONOR,0,1,0,0,0.0,0,0,0,0.0,3.70241
41.738111,2.266944,REPSOL,0,1,0,0,0.0,0,0,0,0.0,9.789712
42.202083,2.691889,REPSOL,0,1,0,0,0.0,0,0,0,0.0,3.31475
42.290083,3.276167,REPSOL,0,1,0,0,0.0,0,0,0,0.0,0.989923
41.745944,2.627472,REPSOL,0,1,0,0,0.0,0,0,0,0.0,4.529016
41.617056,1.399639,LA PANADELLA,0,1,0,0,0.0,0,0,0,0.0,0.800941
41.61775,1.399361,LA PANADELLA,0,1,0,0,0.0,0,0,0,0.0,0.800941
41.468806,0.421056,SEROIL ENERGY,0,1,0,0,0.0,0,0,0,0.0,0.432712
41.966806,2.62525,REPSOL,0,1,0,0,0.0,0,0,0,0.0,3.839679
41.878333,2.505806,BP,0,1,0,0,0.0,0,0,0,0.0,2.191928
41.566139,2.519556,REPSOL,0,1,0,0,0.0,0,0,0,0.0,8.532347
41.544528,0.475611,REPSOL,0,1,0,0,0.0,0,0,0,0.0,1.231143
41.632389,1.007167,REPSOL,0,1,0,0,0.0,0,0,0,0.0,0.96357
41.827361,1.756083,REPSOL,0,1,0,0,0.0,0,0,0,0.0,1.433735
41.984917,2.09725,PETRONOR,0,1,0,0,0.0,0,0,0,0.0,0.644275
41.587917,2.179667,REPSOL,0,1,0,0,0.0,0,0,0,0.0,11.456219
42.025278,2.983472,REPSOL,0,1,0,0,0.0,0,0,0,0.0,1.297829
41.645,2.231306,BP SANTA EULALIA DE RONÇANA,0,1,0,0,0.0,0,0,0,0.0,4.18217
42.016639,1.884444,REPSOL,0,1,0,0,0.0,0,0,0,0.0,1.552822
42.086583,2.888639,REPSOL,0,1,0,0,0.0,0,0,0,0.0,1.179775
42.286806,2.160667,REPSOL,0,1,0,0,0.0,0,0,0,0.0,0.16475
42.368306,1.845528,REPSOL,0,1,0,0,0.0,0,0,0,0.0,0.134728
41.917028,2.791306,REPSOL,0,1,0,0,0.0,0,0,0,0.0,11.93025
41.845,2.233278,CEPSA,0,1,0,0,0.0,0,0,0,0.0,28.570461
41.669083,2.715556,CEPSA,0,1,0,0,0.0,0,0,0,0.0,15.165358
41.514889,2.413139,REPSOL,0,1,0,0,0.0,0,0,0,0.0,9.874669
42.399056,2.8805,REPSOL,0,1,0,0,0.0,0,0,0,0.0,1.097932
41.661556,1.198583,REPSOL,0,1,0,0,0.0,0,0,0,0.0,7.2165
41.478917,1.883722,REPSOL,0,1,0,0,0.0,0,0,0,0.0,6.974311
41.745028,1.578861,REPSOL,0,1,0,0,0.0,0,0,0,0.0,9.250429
41.745833,1.580083,REPSOL,0,1,0,0,0.0,0,0,0,0.0,9.250429
42.398417,2.882667,REPSOL,0,1,0,0,0.0,0,0,0,0.0,1.097932
42.820447,0.714372,ESTACION BOYA,0,1,0,0,0.0,0,0,0,0.0,1.18475
41.638722,0.87425,REPSOL,0,1,0,0,0.0,0,0,0,0.0,8.516781
41.618806,1.509722,REPSOL,0,1,0,0,0.0,0,0,0,0.0,5.27
41.933278,2.193306,MOEVE,0,1,0,0,0.0,0,0,0,0.0,2.157346
41.93425,2.194306,MOEVE,0,1,0,0,0.0,0,0,0,0.0,2.157346
42.172722,1.320417,ES COLL DE NARGÓ,0,1,0,0,0.0,0,0,0,0.0,0.483438
42.427056,2.866833,MOEVE,0,1,0,0,0.0,0,0,0,0.0,1.361505
42.404278,0.742583,CEPSA,0,1,0,0,0.0,0,0,0,0.0,0.7435
41.867472,1.972389,E.S.  AVINYÓ   -CEPSA-,0,1,0,0,0.0,0,0,0,0.0,8.651869
41.809306,2.102139,MOEVE,0,1,0,0,0.0,0,0,0,0.0,2.867202
42.071,3.093861,FULL  ENERGY BELLCAIRE D'EMPORDA,0,1,0,0,0.0,0,0,0,0.0,0.545688
41.893444,3.144028,PETROLIS INDEPENDENTS,0,1,0,0,0.0,0,0,0,0.0,3.169459
42.064694,3.049528,CEPSA,0,1,0,0,0.0,0,0,0,0.0,1.22596
42.223528,1.872722,"ESTACIÓ SERRA CADI, S.L.",0,1,0,0,0.0,0,0,0,0.0,0.248897
40.81,-3.7705,EDV,0,1,0,0,0.0,0,0,0,0.0,0.631473
40.242639,-3.319472,TIELMES S.L.,0,1,0,0,0.0,0,0,0,0.0,3.479888
40.40725,-3.36975,SHELL,0,1,0,0,0.0,0,0,0,0.0,4.760276
40.302222,-4.088111,BP VILLAMANTA,0,1,0,0,0.0,0,0,0,0.0,4.198882
41.493028,2.333917,REPSOL,0,1,0,0,0.0,0,0,0,0.0,32.313193
42.238306,0.965278,MOEVE,0,1,0,0,0.0,0,0,0,0.0,0.205953
42.60875,1.126333,MOEVE,0,1,0,0,0.0,0,0,0,0.0,0.257624
41.732306,2.600333,CEPSA,0,1,0,0,0.0,0,0,0,0.0,4.529016
41.725667,2.672917,MOEVE,0,1,0,0,0.0,0,0,0,0.0,17.01925
41.95825,2.649083,CEPSA,0,1,0,0,0.0,0,0,0,0.0,3.839679
41.852806,2.77375,ZONA DIESEL,0,1,0,0,0.0,0,0,0,0.0,10.947225
41.647972,2.425611,GALP,0,1,0,0,0.0,0,0,0,0.0,28.570461
41.646806,2.425667,GALP,0,1,0,0,0.0,0,0,0,0.0,28.570461
41.686028,2.443667,MOEVE,0,1,0,0,0.0,0,0,0,0.0,3.224047
41.567917,1.801722,GALP,0,1,0,0,0.0,0,0,0,0.0,9.58625
42.126444,2.922361,MLC,0,1,0,0,0.0,0,0,0,0.0,0.550234
41.861222,2.884944,PLENERGY,0,1,0,0,0.0,0,0,0,0.0,3.366598
41.757583,2.756778,LOW COST FUEL,0,1,0,0,0.0,0,0,0,0.0,3.122912
41.757222,2.75725,LOW COST FUEL,0,1,0,0,0.0,0,0,0,0.0,3.122912
42.397861,2.880528,GALP,0,1,0,0,0.0,0,0,0,0.0,1.097932
41.774389,2.738889,CEPSA,0,1,0,0,0.0,0,0,0,0.0,17.01925
41.896889,2.810833,TAMOIL,0,1,0,0,0.0,0,0,0,0.0,2.005691
41.607944,2.604917,GALP,0,1,0,0,0.0,0,0,0,0.0,17.742101
42.173833,2.931806,CEPSA,0,1,0,0,0.0,0,0,0,0.0,11.32675
41.487417,0.8655,GALP,0,1,0,0,0.0,0,0,0,0.0,4.53875
41.489389,0.8655,GALP,0,1,0,0,0.0,0,0,0,0.0,4.53875
41.543361,0.637222,VALCARCE,0,1,0,0,0.0,0,0,0,0.0,4.8265
41.541306,0.639222,VALCARCE,0,1,0,0,0.0,0,0,0,0.0,4.8265
41.079389,1.062528,ESCLATOIL,0,1,0,0,0.0,0,0,0,0.0,8.085694
40.239056,-3.995528,BP DUALEZ 365,0,1,0,0,0.0,0,0,0,0.0,3.338715
40.383167,-4.240833,GALP,0,1,0,0,0.0,0,0,0,0.0,0.225332
40.084139,-3.112889,SHELL,0,1,0,0,0.0,0,0,0,0.0,7.85011
40.189444,-3.112278,BLANCA,0,1,0,0,0.0,0,0,0,0.0,2.895745
40.955389,-3.784111,REPSOL,0,1,0,0,0.0,0,0,0,0.0,0.688117
40.955028,-3.783861,REPSOL,0,1,0,0,0.0,0,0,0,0.0,0.688117
40.526722,-3.481556,REPSOL,0,1,0,0,0.0,0,0,0,0.0,2.846995
40.528028,-3.480944,REPSOL,0,1,0,0,0.0,0,0,0,0.0,2.846995
40.717528,-3.791778,BP SOTO I,0,1,0,0,0.0,0,0,0,0.0,2.47212
40.904694,-3.608389,REPSOL,0,1,0,0,0.0,0,0,0,0.0,8.992242
40.446528,-3.36175,GALP,0,1,0,0,0.0,0,0,0,0.0,4.19227
40.439139,-3.316472,BP VILLALBILLA,0,1,0,0,0.0,0,0,0,0.0,3.732382
40.578306,-3.508083,ENI,0,1,0,0,0.0,0,0,0,0.0,1.226264
40.166778,-3.286111,MOEVE,0,1,0,0,0.0,0,0,0,0.0,8.629
40.814278,-3.760639,MOEVE,0,1,0,0,0.0,0,0,0,0.0,0.631473
40.188056,-3.764389,GALP,0,1,0,0,0.0,0,0,0,0.0,5.494253
40.182444,-3.725222,MOEVE,0,1,0,0,0.0,0,0,0,0.0,5.084145
40.331278,-3.403472,REPSOL,0,1,0,0,0.0,0,0,0,0.0,2.660046
40.245167,-3.480556,PETRONOR,0,1,0,0,0.0,0,0,0,0.0,3.279937
40.170889,-3.82175,REPSOL,0,1,0,0,0.0,0,0,0,0.0,21.734671
40.365083,-4.314778,REPSOL ,0,1,0,0,0.0,0,0,0,0.0,0.225332
40.249833,-3.350278,BP A3 PERALES DE TAJUNA,0,1,0,0,0.0,0,0,0,0.0,11.652364
40.147111,-3.428417,CEPSA,0,1,0,0,0.0,0,0,0,0.0,3.479888
40.822111,-3.537556,REPSOL,0,1,0,0,0.0,0,0,0,0.0,0.183167
40.282778,-3.20725,REPSOL,0,1,0,0,0.0,0,0,0,0.0,1.467115
40.405056,-3.141111,REPSOL,0,1,0,0,0.0,0,0,0,0.0,1.655309
40.10075,-3.490083,REPSOL,0,1,0,0,0.0,0,0,0,0.0,3.81713
40.203472,-3.798917,MOEVE,0,1,0,0,0.0,0,0,0,0.0,5.494253
40.203083,-3.798556,MOEVE,0,1,0,0,0.0,0,0,0,0.0,5.494253
41.246278,1.58575,GM FUEL STATIONS,0,1,0,0,0.0,0,0,0,0.0,1.552978
41.012444,0.611083,REPSOL,0,1,0,0,0.0,0,0,0,0.0,0.462295
41.263889,0.904917,REPSOL,0,1,0,0,0.0,0,0,0,0.0,0.257697
41.047806,0.729667,REPSOL,0,1,0,0,0.0,0,0,0,0.0,0.525098
41.192278,1.000139,REPSOL,0,1,0,0,0.0,0,0,0,0.0,0.434546
41.279028,1.496139,REPSOL,0,1,0,0,0.0,0,0,0,0.0,1.411525
41.180833,0.593444,PETRONOR,0,1,0,0,0.0,0,0,0,0.0,0.263146
41.186194,1.219806,REPSOL,0,1,0,0,0.0,0,0,0,0.0,0.63349
41.970861,3.030917,GALP,0,1,0,0,0.0,0,0,0,0.0,1.555703
41.173583,1.238722,FRANCAS ENERGY,0,1,0,0,0.0,0,0,0,0.0,2.84375
41.192972,1.20175,PETRONOR,0,1,0,0,0.0,0,0,0,0.0,4.94516
41.235389,1.56575,REPSOL,0,1,0,0,0.0,0,0,0,0.0,1.451239
41.0795,0.661917,REPSOL,0,1,0,0,0.0,0,0,0,0.0,0.353913
41.313083,0.986667,PETRONOR,0,1,0,0,0.0,0,0,0,0.0,0.259859
41.177944,1.490806,REPSOL,0,1,0,0,0.0,0,0,0,0.0,2.441999
41.020139,0.82725,ALAS,0,1,0,0,0.0,0,0,0,0.0,1.164617
40.587778,0.44275,PETRONOR,0,1,0,0,0.0,0,0,0,0.0,0.368099
41.165361,1.030028,REPSOL,0,1,0,0,0.0,0,0,0,0.0,1.095099
41.361694,1.299389,REPSOL,0,1,0,0,0.0,0,0,0,0.0,0.984562
40.547806,0.478056,PETRONOR,0,1,0,0,0.0,0,0,0,0.0,0.221643
40.887472,0.798917,CEPSA,0,1,0,0,0.0,0,0,0,0.0,3.229936
40.905389,0.484917,REPSOL,0,1,0,0,0.0,0,0,0,0.0,0.278161
41.109722,0.535528,PETRONOR,0,1,0,0,0.0,0,0,0,0.0,0.85675
40.896611,0.747833,REPSOL,0,1,0,0,0.0,0,0,0,0.0,1.13275
41.289444,1.589944,REPSOL,0,1,0,0,0.0,0,0,0,0.0,17.80325
41.053694,0.43625,REPSOL,0,1,0,0,0.0,0,0,0,0.0,0.119317
41.262361,1.494167,SHELL,0,1,0,0,0.0,0,0,0,0.0,2.186013
41.148194,1.214861,CEPSA,0,1,0,0,0.0,0,0,0,0.0,1.314326
41.143472,0.816222,REPSOL,0,1,0,0,0.0,0,0,0,0.0,0.259898
41.374361,1.164611,REPSOL,0,1,0,0,0.0,0,0,0,0.0,0.614336
40.949722,0.855917,REPSOL,0,1,0,0,0.0,0,0,0,0.0,3.15598
41.22175,0.547722,REPSOL,0,1,0,0,0.0,0,0,0,0.0,0.292962
41.189361,1.242806,REPSOL,0,1,0,0,0.0,0,0,0,0.0,2.792
41.093722,0.647917,REPSOL,0,1,0,0,0.0,0,0,0,0.0,0.353913
40.634667,0.284361,PETRONOR,0,1,0,0,0.0,0,0,0,0.0,0.222071
41.457917,1.178556,REPSOL,0,1,0,0,0.0,0,0,0,0.0,0.928776
41.289778,1.351222,CAMPSA,0,1,0,0,0.0,0,0,0,0.0,1.379975
40.787444,0.671,PETROCAT DIRECTE,0,1,0,0,0.0,0,0,0,0.0,3.7625
41.203556,1.145528,CEPSA,0,1,0,0,0.0,0,0,0,0.0,6.705116
40.744194,0.61475,CEPSA,0,1,0,0,0.0,0,0,0,0.0,1.316387
41.236278,1.544361,MOEVE,0,1,0,0,0.0,0,0,0,0.0,2.025016
41.285889,1.618583,MOEVE,0,1,0,0,0.0,0,0,0,0.0,1.346312
40.700972,0.716667,CEPSA,0,1,0,0,0.0,0,0,0,0.0,0.60694
40.837611,0.7115,GALP,0,1,0,0,0.0,0,0,0,0.0,0.98225
41.256167,1.169056,ICOR ENERGIA,0,1,0,0,0.0,0,0,0,0.0,4.447454
40.959333,0.498556,TAMOIL,0,1,0,0,0.0,0,0,0,0.0,0.281919
41.275472,1.592806,TAMOIL,0,1,0,0,0.0,0,0,0,0.0,2.700443
40.539583,0.471889,TAMOIL,0,1,0,0,0.0,0,0,0,0.0,0.20239
41.287889,1.411861,GALP,0,1,0,0,0.0,0,0,0,0.0,4.89525
41.387222,1.191306,CEPSA,0,1,0,0,0.0,0,0,0,0.0,4.016
41.388056,1.187806,CEPSA,0,1,0,0,0.0,0,0,0,0.0,4.016
41.286361,1.414278,GALP,0,1,0,0,0.0,0,0,0,0.0,4.89525
40.765028,0.626222,ENI,0,1,0,0,0.0,0,0,0,0.0,9.05675
40.764778,0.628861,ENI,0,1,0,0,0.0,0,0,0,0.0,9.05675
41.205778,1.207444,ICOR ENERGIA,0,1,0,0,0.0,0,0,0,0.0,6.1505
40.762278,0.64125,REPSOL,0,1,0,0,0.0,0,0,0,0.0,3.7625
41.17025,1.318528,PETROLIS DE BARCELONA S.A,0,1,0,0,0.0,0,0,0,0.0,1.084248
40.985472,0.897139,ENI,0,1,0,0,0.0,0,0,0,0.0,9.11
40.985694,0.893722,ENI,0,1,0,0,0.0,0,0,0,0.0,9.11
39.390528,-0.698972,LA BARONIA DE TURIS COOP V,0,1,0,0,0.0,0,0,0,0.0,1.546138
39.045972,-0.310944,GASOPOTENZ,0,1,0,0,0.0,0,0,0,0.0,1.421512
38.715917,-0.664056,REPSOL,0,1,0,0,0.0,0,0,0,0.0,0.786707
38.493361,-0.780417,CEPSA,0,1,0,0,0.0,0,0,0,0.0,10.2735
38.339222,-0.998222,CEPSA,0,1,0,0,0.0,0,0,0,0.0,0.313509
38.369306,-0.704611,MOEVE,0,1,0,0,0.0,0,0,0,0.0,13.4615
38.369833,-0.704556,MOEVE,0,1,0,0,0.0,0,0,0,0.0,13.4615
38.534028,-0.505083,CEPSA,0,1,0,0,0.0,0,0,0,0.0,0.787945
38.474472,-0.771,CEPSA,0,1,0,0,0.0,0,0,0,0.0,10.836
38.140889,-0.748556,CEPSA,0,1,0,0,0.0,0,0,0,0.0,1.195459
38.059194,-0.885222,REPSOL,0,1,0,0,0.0,0,0,0,0.0,1.343676
38.800111,0.038889,REPSOL,0,1,0,0,0.0,0,0,0,0.0,1.755411
38.630583,-0.786556,REPSOL,0,1,0,0,0.0,0,0,0,0.0,1.397001
38.626278,-0.6815,EL CANARI ONIL,0,1,0,0,0.0,0,0,0,0.0,0.808336
38.029472,-0.730944,REPSOL,0,1,0,0,0.0,0,0,0,0.0,0.732843
40.604417,0.348917,REPSOL,0,1,0,0,0.0,0,0,0,0.0,0.916718
39.758889,-0.227583,E.S. ALMENARA,0,1,0,0,0.0,0,0,0,0.0,7.50275
40.091611,0.13175,GALP,0,1,0,0,0.0,0,0,0,0.0,2.12775
37.990083,-0.799444,GLOBAL OIL,0,1,0,0,0.0,0,0,0,0.0,1.323353
40.064833,-0.528583,CARLA,0,1,0,0,0.0,0,0,0,0.0,0.266293
40.014278,-0.125833,GALP,0,1,0,0,0.0,0,0,0,0.0,2.085183
40.041778,-0.073722,REPSOL,0,1,0,0,0.0,0,0,0,0.0,5.398375
39.923194,-0.184611,GALP,0,1,0,0,0.0,0,0,0,0.0,0.918401
39.910833,-0.7035,GRUPO MAICAS PEIRO,0,1,0,0,0.0,0,0,0,0.0,0.262274
39.810333,-0.1525,BP MONCOFAR,0,1,0,0,0.0,0,0,0,0.0,5.592925
39.847806,-0.493972,GALP,0,1,0,0,0.0,0,0,0,0.0,0.710564
39.795694,-0.181361,AMERICAN PETROL,0,1,0,0,0.0,0,0,0,0.0,0.8235
39.778583,-0.180722,GALP,0,1,0,0,0.0,0,0,0,0.0,0.8235
40.016528,-0.696306,CEPSA,0,1,0,0,0.0,0,0,0,0.0,0.5615
39.8245,-0.212722,RANDERO,0,1,0,0,0.0,0,0,0,0.0,8.85025
38.139722,-0.774889,REPSOL,0,1,0,0,0.0,0,0,0,0.0,1.195459
39.891083,-0.251139,SIN ROTULO,0,1,0,0,0.0,0,0,0,0.0,0.893517
39.84175,-0.475833,PETRONOR,0,1,0,0,0.0,0,0,0,0.0,0.566393
40.458194,0.179944,REPSOL,0,1,0,0,0.0,0,0,0,0.0,0.311005
40.186583,0.044556,REPSOL,0,1,0,0,0.0,0,0,0,0.0,3.587366
40.192639,-0.045389,REPSOL,0,1,0,0,0.0,0,0,0,0.0,1.810513
38.310167,-0.849528,REPSOL,0,1,0,0,0.0,0,0,0,0.0,0.288961
38.771694,-0.06225,GASORBA,0,1,0,0,0.0,0,0,0,0.0,0.66852
38.076944,-0.843056,REPSOL,0,1,0,0,0.0,0,0,0,0.0,1.035549
38.147139,-0.889278,REPSOL,0,1,0,0,0.0,0,0,0,0.0,0.89775
40.135528,-0.280583,LUCENA,0,1,0,0,0.0,0,0,0,0.0,1.017014
40.219417,-0.170611,COOPERATIVA ATZENETA,0,1,0,0,0.0,0,0,0,0.0,0.691548
38.387917,-0.736806,BP,0,1,0,0,0.0,0,0,0,0.0,12.925
38.82825,0.01475,REPSOL,0,1,0,0,0.0,0,0,0,0.0,0.675159
40.222083,0.201056,REPSOL,0,1,0,0,0.0,0,0,0,0.0,1.2265
40.221889,0.201167,REPSOL,0,1,0,0,0.0,0,0,0,0.0,1.038662
39.822556,-0.221278,BP VALL D'UXO,0,1,0,0,0.0,0,0,0,0.0,1.033219
39.849972,-0.486611,Q8,0,1,0,0,0.0,0,0,0,0.0,0.710564
39.818583,-0.233306,BP EL PONT,0,1,0,0,0.0,0,0,0,0.0,1.013171
40.609611,-0.094556,PETRONOR,0,1,0,0,0.0,0,0,0,0.0,0.264061
40.359972,0.3035,ES ZARAGOZA,0,1,0,0,0.0,0,0,0,0.0,1.054256
39.782917,-0.39375,REPSOL,0,1,0,0,0.0,0,0,0,0.0,1.059246
40.296944,0.226333,REPSOL,0,1,0,0,0.0,0,0,0,0.0,1.4905
38.402472,-1.046806,REPSOL,0,1,0,0,0.0,0,0,0,0.0,0.419495
40.514889,0.254639,E.S. BALMAPA,0,1,0,0,0.0,0,0,0,0.0,1.27325
38.720111,-0.671194,CEPSA,0,1,0,0,0.0,0,0,0,0.0,0.786707
39.897861,-0.120778,CEPSA,0,1,0,0,0.0,0,0,0,0.0,2.70051
39.897667,-0.121306,CEPSA,0,1,0,0,0.0,0,0,0,0.0,4.2775
38.6495,-0.121194,REPSOL,0,1,0,0,0.0,0,0,0,0.0,0.836804
39.827833,-0.22525,BP,0,1,0,0,0.0,0,0,0,0.0,1.013171
40.342611,-0.006333,CAMPSA,0,1,0,0,0.0,0,0,0,0.0,0.160517
39.931306,-0.196389,PETRONOR,0,1,0,0,0.0,0,0,0,0.0,0.918401
40.307222,0.115194,REPSOL,0,1,0,0,0.0,0,0,0,0.0,0.936613
38.434417,-0.63725,PETRONOR,0,1,0,0,0.0,0,0,0,0.0,0.692946
38.175028,-0.854056,REPSOL,0,1,0,0,0.0,0,0,0,0.0,7.120697
38.538722,-0.172889,REPSOL,0,1,0,0,0.0,0,0,0,0.0,1.565025
40.040972,-0.152139,REPSOL,0,1,0,0,0.0,0,0,0,0.0,2.085183
38.143889,-0.898861,BP COX,0,1,0,0,0.0,0,0,0,0.0,12.019
38.792028,0.06275,GALP,0,1,0,0,0.0,0,0,0,0.0,4.196
40.131806,0.138722,ENI,0,1,0,0,0.0,0,0,0,0.0,1.723502
39.912361,-0.564389,SHELL,0,1,0,0,0.0,0,0,0,0.0,0.0535
40.13325,0.141111,ENI,0,1,0,0,0.0,0,0,0,0.0,1.15625
38.789861,0.063417,GALP,0,1,0,0,0.0,0,0,0,0.0,0.640228
38.736056,-0.661167,BP,0,1,0,0,0.0,0,0,0,0.0,1.674986
38.885667,-0.58,LIBRE,0,1,0,0,0.0,0,0,0,0.0,6.95425
38.88525,-0.576583,REPSOL,0,1,0,0,0.0,0,0,0,0.0,7.36803
39.555611,-0.486917,GALP,0,1,0,0,0.0,0,0,0,0.0,30.298151
39.525889,-1.437167,GALP,0,1,0,0,0.0,0,0,0,0.0,2.629705
38.936,-0.148778,Q8,0,1,0,0,0.0,0,0,0,0.0,0.709472
39.031444,-0.65575,"HNOS. FRIGOLS LILA, S.L.",0,1,0,0,0.0,0,0,0,0.0,1.220817
39.203167,-0.391306,STARMA,0,1,0,0,0.0,0,0,0,0.0,0.889605
39.572167,-0.624333,REPSOL,0,1,0,0,0.0,0,0,0,0.0,5.682662
38.889333,-0.20875,E.S. VILLALONGA,0,1,0,0,0.0,0,0,0,0.0,0.782337
39.021444,-0.426361,BP,0,1,0,0,0.0,0,0,0,0.0,1.587403
38.974333,-0.592528,REPSOL,0,1,0,0,0.0,0,0,0,0.0,7.576357
39.375417,-0.563167,REPSOL,0,1,0,0,0.0,0,0,0,0.0,2.118605
38.90225,-0.419972,CEPSA-MOEVE,0,1,0,0,0.0,0,0,0,0.0,0.585776
38.934278,-0.211583,REPSOL,0,1,0,0,0.0,0,0,0,0.0,0.809712
39.289361,-0.514444,BAR / E.S. ALTAMAR J.A.,0,1,0,0,0.0,0,0,0,0.0,2.686022
38.929444,-0.662611,REPSOL,0,1,0,0,0.0,0,0,0,0.0,6.37825
40.127028,-1.249028,REPSOL,0,1,0,0,0.0,0,0,0,0.0,0.31975
38.900611,-0.688111,PETRONOR,0,1,0,0,0.0,0,0,0,0.0,6.65325
39.673722,-0.559417,PETROMAX,0,1,0,0,0.0,0,0,0,0.0,7.332267
39.366972,-0.434,CEPSA,0,1,0,0,0.0,0,0,0,0.0,6.5525
39.536889,-0.309556,REPSOL,0,1,0,0,0.0,0,0,0,0.0,17.883
39.394194,-0.782861,REPSOL,0,1,0,0,0.0,0,0,0,0.0,0.589085
39.430472,-0.777972,REPSOL,0,1,0,0,0.0,0,0,0,0.0,0.907056
39.444778,-0.754528,REPSOL,0,1,0,0,0.0,0,0,0,0.0,7.080678
39.585194,-0.286944,GASPUIG,0,1,0,0,0.0,0,0,0,0.0,14.272229
39.366917,-0.434,CEPSA,0,1,0,0,0.0,0,0,0,0.0,6.5525
38.922667,-0.269444,REPSOL,0,1,0,0,0.0,0,0,0,0.0,5.973437
39.38925,-0.696694,AS TURÍS,0,1,0,0,0.0,0,0,0,0.0,1.546138
39.076389,-0.508222,REPSOL,0,1,0,0,0.0,0,0,0,0.0,4.934066
39.723833,-1.236806,MANCEBO,0,1,0,0,0.0,0,0,0,0.0,0.29125
39.587389,-0.299083,BP EL PUIG,0,1,0,0,0.0,0,0,0,0.0,14.272229
38.938806,-0.151194,REPSOL,0,1,0,0,0.0,0,0,0,0.0,0.709472
39.101361,-0.695528,ROS,0,1,0,0,0.0,0,0,0,0.0,2.031422
39.530194,-0.313083,REPSOL,0,1,0,0,0.0,0,0,0,0.0,23.780249
39.588778,-0.328778,BP RAFELBUNYOL GRUPO MAICAS,0,1,0,0,0.0,0,0,0,0.0,1.828315
39.563972,-0.334139,REPSOL,0,1,0,0,0.0,0,0,0,0.0,7.076993
38.878611,-0.754167,REPSOL,0,1,0,0,0.0,0,0,0,0.0,6.65325
39.678972,-0.216972,AVIA,0,1,0,0,0.0,0,0,0,0.0,1.5957
39.358556,-0.594389,BP CHASAN CAMPOS MONTSERRAT,0,1,0,0,0.0,0,0,0,0.0,2.118605
39.425028,-0.680722,GALP,0,1,0,0,0.0,0,0,0,0.0,4.713881
38.934083,-0.183389,BENIARJO,0,1,0,0,0.0,0,0,0,0.0,0.782337
38.909667,-0.302778,BP,0,1,0,0,0.0,0,0,0,0.0,5.973437
39.539472,-0.306528,SHELL,0,1,0,0,0.0,0,0,0,0.0,17.883
39.558389,-0.338083,BALLENOIL,0,1,0,0,0.0,0,0,0,0.0,3.04632
39.679778,-0.207611,REPSOL,0,1,0,0,0.0,0,0,0,0.0,1.277385
39.528806,-1.433389,GALP,0,1,0,0,0.0,1,1,150,46.913,2.629705
38.919306,-0.167611,GALP,0,1,0,0,0.0,0,0,0,0.0,0.782337
39.013556,-0.646083,ANNA,0,1,0,0,0.0,0,0,0,0.0,1.220817
39.559972,-0.495917,BP  MARIOLA,0,1,0,0,0.0,0,0,0,0.0,30.298151
39.059722,-1.053306,REPSOL,0,1,0,0,0.0,0,0,0,0.0,1.01325
38.982,-0.687639,REPSOL,0,1,0,0,0.0,0,0,0,0.0,1.048362
39.409944,-0.380306,BP CARY II,0,1,0,0,0.0,0,0,0,0.0,37.269148
39.545417,-0.387889,BP HOFIRA,0,1,0,0,0.0,0,0,0,0.0,3.259903
39.601583,-0.725278,REPSOL,0,1,0,0,0.0,0,0,0,0.0,19.028326
39.732722,-0.821778,"ESTACION DE SERVICIO PORTER, S.L.",0,1,0,0,0.0,0,0,0,0.0,0.05313
39.490972,-0.677222,CHESTE AGRARIA,0,1,0,0,0.0,0,0,0,0.0,2.26001
39.651556,-1.404056,REPSOL,0,1,0,0,0.0,0,0,0,0.0,0.219045
39.017167,-0.542056,AZEROIL LLOSA ,0,1,0,0,0.0,0,0,0,0.0,3.716923
39.562889,-0.335333,REPSOL FENOLLOSA,0,1,0,0,0.0,0,0,0,0.0,7.076993
39.749694,-0.992167,E.S.CHELVA,0,1,0,0,0.0,0,0,0,0.0,0.156669
38.970556,-0.157222,E.S. DAIMUS,0,1,0,0,0.0,0,0,0,0.0,0.477346
38.874139,-0.376333, BP BENICADELL,0,1,0,0,0.0,0,0,0,0.0,0.558898
39.566389,-0.618111,VILAMARXANT,0,1,0,0,0.0,0,0,0,0.0,2.437585
38.947778,-0.404528,REPSOL,0,1,0,0,0.0,0,0,0,0.0,1.19989
38.952,-0.439556,CAMPSA EXPRESS,0,1,0,0,0.0,0,0,0,0.0,1.19989
38.915667,-0.556944,REPSOL,0,1,0,0,0.0,0,0,0,0.0,2.338853
38.953389,-0.193139,BP,0,1,0,0,0.0,0,0,0,0.0,0.69235
39.378389,-0.414056,REPSOL,0,1,0,0,0.0,0,0,0,0.0,25.580462
39.585111,-0.324111,PETRONOR,0,1,0,0,0.0,0,0,0,0.0,1.828315
39.567028,-0.493333,PETROMAX,0,1,0,0,0.0,0,0,0,0.0,3.881282
39.539694,-1.311667,REPSOL,0,1,0,0,0.0,0,0,0,0.0,0.359305
39.456,-0.904528,REPSOL,0,1,0,0,0.0,0,0,0,0.0,0.730184
39.153972,-0.527806,REPSOL,0,1,0,0,0.0,0,0,0,0.0,16.07725
39.154583,-0.529361,REPSOL,0,1,0,0,0.0,0,0,0,0.0,16.07725
39.046917,-0.225639,CEPSA,0,1,0,0,0.0,0,0,0,0.0,3.52925
39.039056,-0.226417,BP AP7 LA SAFOR VALENCIA,0,1,0,0,0.0,0,0,0,0.0,6.222558
39.040833,-0.228139,BP AP7 LA SAFOR ALICANTE,0,1,0,0,0.0,0,0,0,0.0,8.15425
39.18775,-0.485028,SERVICOOP +,0,1,0,0,0.0,0,0,0,0.0,17.259484
38.949389,-0.165,REPSOL,0,1,0,0,0.0,0,0,0,0.0,5.70225
39.532389,-0.366778,GALP,0,1,0,0,0.0,0,0,0,0.0,3.604164
39.587417,-0.323722,REPSOL,0,1,0,0,0.0,0,0,0,0.0,1.828315
38.175778,-1.049806,LOS CALZONES,0,1,0,0,0.0,0,0,0,0.0,3.702157
38.203556,-1.04225,FTH,0,1,0,0,0.0,0,0,0,0.0,1.172477
37.985472,-1.513306,SUMINISTROS PLIEGO S.L,0,1,0,0,0.0,0,0,0,0.0,3.957412
37.767583,-1.069333,REPSOL,0,1,0,0,0.0,0,0,0,0.0,8.296645
37.769,-1.068806,REPSOL,0,1,0,0,0.0,0,0,0,0.0,8.296645
38.177917,-1.352694,REPSOL,0,1,0,0,0.0,0,0,0,0.0,1.2175
38.176306,-1.123667,MOEVE,0,1,0,0,0.0,0,0,0,0.0,1.859418
42.514083,-2.742111,BEROIL,0,1,0,0,0.0,0,0,0,0.0,0.685132
42.533944,-2.919194,REPSOL,0,1,0,0,0.0,0,0,0,0.0,0.280637
42.049917,-1.956722,E.S. RIO LINARES,0,1,0,0,0.0,0,0,0,0.0,0.397462
40.223333,-3.334778,GALP,0,1,0,0,0.0,0,0,0,0.0,3.479888
40.780722,-3.774528,REPSOL,0,1,0,0,0.0,0,0,0,0.0,0.631473
40.721833,-4.020472,MOEVE,0,1,0,0,0.0,0,0,0,0.0,1.568617
40.72125,-4.019528,MOEVE,0,1,0,0,0.0,0,0,0,0.0,1.568617
38.771194,-2.450028,CANOIL,0,1,0,0,0.0,0,0,0,0.0,0.47575
39.211417,-1.539167,Nº 10.935,0,1,0,0,0.0,0,0,0,0.0,0.36925
39.990806,-4.794472,AVIA ,0,1,0,0,0.0,0,0,0,0.0,0.77381
40.242611,-4.379833,NUBOIL,0,1,0,0,0.0,0,0,0,0.0,0.46975
39.817556,-4.021194,HNOS. NAVAMUEL ESPERANZA,0,1,0,0,0.0,0,0,0,0.0,10.296478
39.692639,-4.38225,SIS CARBURANTES,0,1,0,0,0.0,0,0,0,0.0,0.25283
39.792056,-4.160167,BERMUDEZ,0,1,0,0,0.0,0,0,0,0.0,0.797061
40.798111,-3.345389,(SIN RÓTULO),0,1,0,0,0.0,0,0,0,0.0,0.245886
39.100792,-1.560857,GASOLINERAS DEL REY,0,1,0,0,0.0,0,0,0,0.0,0.277644
38.331361,-1.981861,"NAVARRO Y VALERO, S.L",0,1,0,0,0.0,0,0,0,0.0,0.199815
38.356556,-2.111056,E.S. LETUR,0,1,0,0,0.0,0,0,0,0.0,0.063826
39.704944,-4.271778,BERMUDEZ,0,1,0,0,0.0,0,0,0,0.0,0.412014
38.878028,-2.150639,E.S. BALAZOTE S.L.,0,1,0,0,0.0,0,0,0,0.0,1.1015
39.043139,-2.195139,E.S. BARRAX S.L.,0,1,0,0,0.0,0,0,0,0.0,0.71925
39.946667,-4.017222,REPSOL,0,1,0,0,0.0,0,0,0,0.0,0.711473
39.250333,-3.430306,MOEVE-TARAY,0,1,0,0,0.0,0,0,0,0.0,5.22965
39.269972,-1.548639,ES SAN ANTONIOABAD. FUENTEALBILLA,0,1,0,0,0.0,0,0,0,0.0,0.36925
38.786833,-4.82125,HGOIL,0,1,0,0,0.0,0,0,0,0.0,0.08138
37.777778,-5.201611,REPSOL,0,1,0,0,0.0,0,0,0,0.0,0.741393
40.972278,-2.615972,AREA 117,0,1,0,0,0.0,0,0,0,0.0,3.650944
38.804722,-2.098778,INLOCOR S.L.,0,1,0,0,0.0,0,0,0,0.0,0.35076
40.761639,-2.882694,ALAMEDA,0,1,0,0,0.0,0,0,0,0.0,0.589352
39.793556,-4.869972,BP ALCAUDETE DE LA JARA,0,1,0,0,0.0,0,0,0,0.0,0.237515
39.538444,-1.899472,REPSOL,0,1,0,0,0.0,0,0,0,0.0,0.528892
40.078722,-4.379694,CARBUNOR,0,1,0,0,0.0,0,0,0,0.0,1.44275
38.689833,-1.433306,Nº 7374,0,1,0,0,0.0,0,0,0,0.0,0.255894
39.288222,-3.454194,GALP,0,1,0,0,0.0,0,0,0,0.0,5.45725
39.287556,-3.456833,GALP,0,1,0,0,0.0,0,0,0,0.0,5.45725
40.206528,-3.861778,CEPSA,0,1,0,0,0.0,0,0,0,0.0,2.83882
40.605028,-3.904333,CEPSA,0,1,0,0,0.0,0,0,0,0.0,25.547
40.261278,-3.849306,CEPSA,0,1,0,0,0.0,0,0,0,0.0,1.656141
40.279472,-4.301667,GALP,0,1,0,0,0.0,0,0,0,0.0,0.084921
40.728,-3.859194,SHELL,0,1,0,0,0.0,0,0,0,0.0,2.721625
41.134917,-3.580806,MOEVE,0,1,0,0,0.0,0,0,0,0.0,1.391374
40.300639,-4.444139,REPSOL,0,1,0,0,0.0,0,0,0,0.0,0.111272
40.3575,-4.379472,REPSOL,0,1,0,0,0.0,0,0,0,0.0,0.273085
40.229722,-3.347528,REPSOL,0,1,0,0,0.0,0,0,0,0.0,10.641
40.11225,-3.391,REPSOL,0,1,0,0,0.0,0,0,0,0.0,2.163607
40.120278,-3.152778,REPSOL,0,1,0,0,0.0,0,0,0,0.0,9.546548
40.364778,-3.243611,REPSOL,0,1,0,0,0.0,0,0,0,0.0,1.805272
40.733111,-4.067528,REPSOL,0,1,0,0,0.0,0,0,0,0.0,1.603331
40.385278,-3.407778,REPSOL,0,1,0,0,0.0,0,0,0,0.0,4.869019
40.382444,-4.170167,REPSOL,0,1,0,0,0.0,0,0,0,0.0,14.059906
40.381917,-4.170417,REPSOL,0,1,0,0,0.0,0,0,0,0.0,14.059906
40.987,-3.638056,REPSOL,0,1,0,0,0.0,0,0,0,0.0,3.945751
40.5405,-3.451917,REPSOL,0,1,0,0,0.0,0,0,0,0.0,2.460191
40.641667,-3.509694,REPSOL,0,1,0,0,0.0,0,0,0,0.0,1.020551
40.167722,-3.285472,MOEVE,0,1,0,0,0.0,0,0,0,0.0,8.629
40.394472,-3.990639,MOEVE,0,1,0,0,0.0,0,0,0,0.0,7.191146
40.345333,-3.449028,REPSOL,0,1,0,0,0.0,0,0,0,0.0,14.803812
40.34625,-3.450889,REPSOL,0,1,0,0,0.0,0,0,0,0.0,1.94025
40.207361,-3.318806,MOEVE,0,1,0,0,0.0,0,0,0,0.0,8.629
40.338556,-4.019111,GALP,0,1,0,0,0.0,0,0,0,0.0,3.95729
40.338972,-4.018306,GALP,0,1,0,0,0.0,0,0,0,0.0,3.95729
40.906667,-3.610167,SHELL,0,1,0,0,0.0,0,0,0,0.0,8.992242
40.7075,-3.974972,MEROIL,0,1,0,0,0.0,0,0,0,0.0,1.37858
40.498667,-4.239417,BALLENOIL,0,1,0,0,0.0,0,0,0,0.0,0.156816
40.378722,-4.093167,GALP,0,1,0,0,0.0,0,0,0,0.0,14.988581
40.379556,-4.092583,GALP,0,1,0,0,0.0,0,0,0,0.0,14.988581
40.856861,-3.612889,SHELL,0,1,0,0,0.0,0,0,0,0.0,1.991103
40.712972,-3.577917,REPSOL,0,1,0,0,0.0,0,0,0,0.0,8.130067
40.997889,-3.637528,MOEVE,0,1,0,0,0.0,0,0,0,0.0,7.027
42.135111,-5.832583,ALIJA ENERGIA,0,1,0,0,0.0,0,0,0,0.0,0.996666
42.920389,-3.581222,AVIA,0,1,0,0,0.0,0,0,0,0.0,0.209516
41.206194,-5.019917,AVIA,0,1,0,0,0.0,0,0,0,0.0,0.551311
42.341167,-4.616639,RÍO NUBIS,0,1,0,0,0.0,0,0,0,0.0,0.042569
40.894167,-5.58675,EL TREBOL,0,1,0,0,0.0,0,0,0,0.0,0.662781
42.862389,-4.499194,J.L.SARDINA S.L.,0,1,0,0,0.0,0,0,0,0.0,0.468708
40.969556,-4.102722,BALLENOIL,0,1,0,0,0.0,0,0,0,0.0,0.733668
42.660667,-5.623778,JOVINO ESTHER E HIJOS S.L.,0,1,0,0,0.0,0,0,0,0.0,1.212566
40.766778,-5.419694,LIBRE,0,1,0,0,0.0,0,0,0,0.0,0.146219
40.777472,-5.877528,EL TREBOL,0,1,0,0,0.0,0,0,0,0.0,0.206233
41.549917,-5.70475,CEPSA,0,1,0,0,0.0,0,0,0,0.0,0.604733
42.379861,-3.928167,E.S.SAIZ,0,1,0,0,0.0,0,0,0,0.0,0.025939
42.417,-4.35075,PETROCORNER LOS CHOPOS,0,1,0,0,0.0,0,0,0,0.0,0.26275
41.332306,-3.468861,CEPSA,0,1,0,0,0.0,0,0,0,0.0,0.53025
42.533611,-5.592944,REPSOL,0,1,0,0,0.0,0,0,0,0.0,0.479662
38.794139,-4.856972,HGOIL,0,1,0,0,0.0,0,0,0,0.0,0.034908
40.036083,-4.522417,SAN ROQUE ( LOW COST ),0,1,0,0,0.0,0,0,0,0.0,8.409308
39.770444,-2.166139,MEROIL,0,1,0,0,0.0,0,0,0,0.0,0.050517
39.238111,-1.635111,MOEVE,0,1,0,0,0.0,0,0,0,0.0,0.6715
38.828806,-1.553694,GASOLEOS TURBULA ,0,1,0,0,0.0,0,0,0,0.0,0.361941
38.493528,-2.411444,CEPSA,0,1,0,0,0.0,0,0,0,0.0,0.137201
38.646833,-1.978917,CEPSA,0,1,0,0,0.0,0,0,0,0.0,0.275957
38.368667,-2.314667,CEPSA,0,1,0,0,0.0,0,0,0,0.0,0.056836
38.898306,-1.502806,CEPSA,0,1,0,0,0.0,0,0,0,0.0,4.770531
39.931472,-3.010528,E.S. VIRGEN DE LA SOLEDAD,0,1,0,0,0.0,0,0,0,0.0,1.226797
40.426806,-2.223111,R4 SAN MILLAN,0,1,0,0,0.0,0,0,0,0.0,0.104339
39.455389,-2.681611,PEDROGAS S.L. (JULIO CHARCO),0,1,0,0,0.0,0,0,0,0.0,0.375518
39.460306,-4.408333,J.UTRILLA,0,1,0,0,0.0,0,0,0,0.0,0.058142
38.590194,-3.472944,MOEVE,0,1,0,0,0.0,0,0,0,0.0,6.37925
39.361667,-2.200972,REPSOL,0,1,0,0,0.0,0,0,0,0.0,0.253205
41.048,-2.204917,MAR.OIL,0,1,0,0,0.0,0,0,0,0.0,0.4455
38.946306,-4.608472,REPSOL,0,1,0,0,0.0,0,0,0,0.0,0.135456
39.131944,-3.079389,REPSOL E.S.MILA HERMANOS REDONDO S.L.,0,1,0,0,0.0,0,0,0,0.0,0.612036
40.761528,-3.009417,REPSOL,0,1,0,0,0.0,0,0,0,0.0,6.6365
39.442944,-2.671694,CEPSA,0,1,0,0,0.0,0,0,0,0.0,1.0455
40.630611,-3.233833,REPSOL,0,1,0,0,0.0,0,0,0,0.0,0.869336
38.824611,-3.567944,REPSOL ,0,1,0,0,0.0,0,0,0,0.0,1.995271
38.671333,-4.262556,GALP LA JUNQUERA,0,1,0,0,0.0,0,0,0,0.0,0.689
38.62325,-3.908611,E.S. VADILLO,0,1,0,0,0.0,0,0,0,0.0,0.326394
39.846556,-1.272889,REPSOL,0,1,0,0,0.0,0,0,0,0.0,0.29125
39.086278,-1.963944,REPSOL,0,1,0,0,0.0,0,0,0,0.0,8.649
39.864361,-2.577083,REPSOL,0,1,0,0,0.0,0,0,0,0.0,6.648338
38.957472,-3.383194,MOEVE,0,1,0,0,0.0,0,0,0,0.0,7.043
38.921833,-1.583389,REPSOL,0,1,0,0,0.0,0,0,0,0.0,4.710651
39.392028,-2.438556,REPSOL,0,1,0,0,0.0,0,0,0,0.0,0.49925
39.9135,-2.744389,REPSOL,0,1,0,0,0.0,0,0,0,0.0,5.142931
39.912,-2.743472,REPSOL,0,1,0,0,0.0,0,0,0,0.0,5.142931
38.718028,-4.071306,REPSOL,0,1,0,0,0.0,0,0,0,0.0,0.444091
40.927722,-2.714167,REPSOL,0,1,0,0,0.0,0,0,0,0.0,5.403802
40.064639,-3.083056,REPSOL,0,1,0,0,0.0,0,0,0,0.0,7.61912
41.034056,-2.481194,REPSOL,0,1,0,0,0.0,0,0,0,0.0,5.10925
39.872806,-2.60975,REPSOL,0,1,0,0,0.0,0,0,0,0.0,6.376433
39.63825,-2.330556,MOEVE,0,1,0,0,0.0,0,0,0,0.0,4.937765
39.638556,-2.328028,MOEVE,0,1,0,0,0.0,0,0,0,0.0,4.937765
39.596361,-2.28075,REPSOL,0,1,0,0,0.0,0,0,0,0.0,0.625406
39.53775,-2.253889,REPSOL,0,1,0,0,0.0,0,0,0,0.0,5.443583
39.484444,-2.158278,REPSOL,0,1,0,0,0.0,1,1,250,45.9486,4.8815
39.519389,-1.752472,REPSOL,0,1,0,0,0.0,0,0,0,0.0,5.24875
41.193722,-2.868583,REPSOL,0,1,0,0,0.0,0,0,0,0.0,1.212245
41.065646,-2.647839,REPSOL,0,1,0,0,0.0,0,0,0,0.0,0.46772
40.92225,-2.928389,CEPSA,0,1,0,0,0.0,0,0,0,0.0,0.768821
40.728722,-3.048972,MOEVE,0,1,0,0,0.0,0,0,0,0.0,6.18236
40.829972,-3.149889,CEPSA,0,1,0,0,0.0,0,0,0,0.0,0.50139
40.896417,-2.759917,CEPSA,0,1,0,0,0.0,0,0,0,0.0,4.322744
40.898444,-2.760472,MOEVE,0,1,0,0,0.0,0,0,0,0.0,4.322744
40.579694,-3.288111, FUENTECILLA I,0,1,0,0,0.0,0,0,0,0.0,1.40875
39.903833,-2.714278,BP SEGÓBRIGA,0,1,0,0,0.0,0,0,0,0.0,5.142931
38.581722,-2.626222,REPSOL,0,1,0,0,0.0,0,0,0,0.0,0.379
39.302389,-2.067639,E.S EL GORRION,0,1,0,0,0.0,0,0,0,0.0,0.86155
39.217889,-4.285806,REPSOL,0,1,0,0,0.0,0,0,0,0.0,0.13977
40.345861,-2.891528,ANAYA SL,0,1,0,0,0.0,0,0,0,0.0,0.182905
39.735806,-2.924444,E.S. VALENCIANO MEDINA,0,1,0,0,0.0,0,0,0,0.0,0.143919
39.520639,-2.487694,REPSOL,0,1,0,0,0.0,0,0,0,0.0,0.129624
39.439667,-1.942417,PETRONOR,0,1,0,0,0.0,0,0,0,0.0,0.767761
40.854417,-4.972861,HERMANOS CRUZ (REPOSTAR),0,1,0,0,0.0,0,0,0,0.0,0.16025
40.450944,-4.582111,MOEVE ,0,1,0,0,0.0,0,0,0,0.0,0.476409
42.37675,-3.590833,"BEROIL, S.L.",0,1,0,0,0.0,0,0,0,0.0,0.919467
42.080417,-4.778028,S.E. SAN AGUSTIN S.L.,0,1,0,0,0.0,0,0,0,0.0,0.093662
42.86225,-5.673722,SERVIGORDON,0,1,0,0,0.0,0,0,0,0.0,0.402514
42.534083,-5.584028,VALCARCE,0,1,0,0,0.0,0,0,0,0.0,1.1075
41.734083,-6.468389,LA CHUCA,0,1,0,0,0.0,0,0,0,0.0,0.0165
40.35975,-5.133889,E.S GREDOS,0,1,0,0,0.0,0,0,0,0.0,0.067746
41.415667,-5.873611,REPOSTAR--ALFA,0,1,0,0,0.0,0,0,0,0.0,0.314389
41.597806,-5.121806,SIS CARBURANTES,0,1,0,0,0.0,0,0,0,0.0,0.026098
42.191833,-4.287056,LA MOTA - BIESA,0,1,0,0,0.0,0,0,0,0.0,0.18212
42.426861,-3.681639,CEPSA,0,1,0,0,0.0,0,0,0,0.0,0.80975
40.3585,-5.516528,BELLAVISTA S.L.,0,1,0,0,0.0,0,0,0,0.0,0.46
42.734833,-3.414722,AVIA,0,1,0,0,0.0,0,0,0,0.0,0.39475
41.444944,-5.733611,REPOSTAR - ANSELMO MONTERO BRAGADO,0,1,0,0,0.0,0,0,0,0.0,0.27575
41.012083,-5.970083,"EUMOGAS, SL",0,1,0,0,0.0,0,0,0,0.0,0.533897
41.042333,-4.849111,"LAS CORREHUELAS, S.L",0,1,0,0,0.0,0,0,0,0.0,1.793948
41.345139,-4.59875,E.S.PEDRAJAS,0,1,0,0,0.0,0,0,0,0.0,0.532775
42.660389,-5.624444,JOVINO ESTHER E HIJOS S.L.,0,1,0,0,0.0,0,0,0,0.0,1.212566
41.687417,-4.683056,SERVATRA,0,1,0,0,0.0,0,0,0,0.0,0.779288
41.903806,-2.463972,E.S. EL VALLE,0,1,0,0,0.0,0,0,0,0.0,0.329516
42.940389,-3.570556,E.S. RIVERA,0,1,0,0,0.0,0,0,0,0.0,0.209516
40.182917,-5.044083,FERNANDEZ BERMEJO,0,1,0,0,0.0,0,0,0,0.0,0.953
42.646333,-6.876556,E.S. TRABADELO,0,1,0,0,0.0,0,0,0,0.0,0.1455
42.599222,-6.230444,EASYGAS,0,1,0,0,0.0,0,0,0,0.0,0.11825
42.637028,-3.623861,E.S. LAS BRUJAS - CERNEGULA,0,1,0,0,0.0,0,0,0,0.0,0.194572
40.209,-5.079611,FERNANDEZ BERMEJO,0,1,0,0,0.0,0,0,0,0.0,0.118744
42.970556,-3.849417,AVIA,0,1,0,0,0.0,0,0,0,0.0,0.232
41.636417,-5.798417,LOSADA - MONTAMARTA,0,1,0,0,0.0,0,0,0,0.0,0.17825
42.733694,-2.750194,GASOLINERA TREVIÑO,0,1,0,0,0.0,0,0,0,0.0,0.776756
42.801861,-3.768667,E.S. EBRO,0,1,0,0,0.0,0,0,0,0.0,0.232
41.495833,-2.87075,REPSOL,0,1,0,0,0.0,0,0,0,0.0,0.318201
42.784111,-5.787083,E.S.CARGOSA,0,1,0,0,0.0,0,0,0,0.0,2.21275
40.949639,-4.414056,AGROCOMERCIAL HIGUERA ,0,1,0,0,0.0,0,0,0,0.0,0.39194
42.894639,-4.287667,LOS LINARES,0,1,0,0,0.0,0,0,0,0.0,0.111784
42.081417,-6.64025,"REPOSTAR,  ANTONIO  DEL ESTAL LÓPEZ S.L.",0,1,0,0,0.0,0,0,0,0.0,0.126637
41.0305,-6.222444,"ESTACION DE SERVICIO PRIETO, S.L.",0,1,0,0,0.0,0,0,0,0.0,0.236019
40.907306,-5.664583,LAS TORRES,0,1,0,0,0.0,0,0,0,0.0,0.49725
40.697972,-6.416278,SHELL,0,1,0,0,0.0,0,0,0,0.0,0.097
43.04575,-3.68825,AVIA,0,1,0,0,0.0,0,0,0,0.0,0.051549
41.347444,-4.119111,REPOSTAR,0,1,0,0,0.0,0,0,0,0.0,0.219221
42.384277,-5.985685,COMPOSTRA OIL,0,1,0,0,0.0,0,0,0,0.0,0.267063
41.406111,-4.960806,LOS CEAS,0,1,0,0,0.0,0,0,0,0.0,7.553812
42.278444,-3.89175,BEROIL,0,1,0,0,0.0,0,0,0,0.0,0.548
40.409667,-4.493583,Q8,0,1,0,0,0.0,0,0,0,0.0,0.66175
42.525194,-5.756778,GALP,0,1,0,0,0.0,0,0,0,0.0,2.50025
40.955639,-4.614111,CEPSA,0,1,0,0,0.0,0,0,0,0.0,4.15975
40.955111,-4.614556,CEPSA,0,1,0,0,0.0,0,0,0,0.0,4.15975
42.651972,-3.068028,MOEVE,0,1,0,0,0.0,0,0,0,0.0,7.007
42.650611,-3.069667,MOEVE,0,1,0,0,0.0,0,0,0,0.0,7.007
40.154556,-5.245833,CEPSA,0,1,0,0,0.0,0,0,0,0.0,0.247561
42.526028,-3.334111,MOEVE,0,1,0,0,0.0,0,0,0,0.0,0.767584
40.635333,-4.758444,MOEVE,0,1,0,0,0.0,0,0,0,0.0,2.06975
42.528861,-3.332083,MOEVE,0,1,0,0,0.0,0,0,0,0.0,0.767584
42.597833,-6.504278,MOEVE,0,1,0,0,0.0,0,0,0,0.0,3.795097
42.458556,-5.882444,CEPSA,0,1,0,0,0.0,0,0,0,0.0,2.625
40.58525,-4.410556,CEPSA,0,1,0,0,0.0,0,0,0,0.0,0.453924
42.132361,-3.716806,CEPSA,0,1,0,0,0.0,0,0,0,0.0,5.350125
42.973944,-4.96225,MOEVE,0,1,0,0,0.0,0,0,0,0.0,0.238
42.369111,-5.024222,CEPSA,0,1,0,0,0.0,0,0,0,0.0,0.00803
41.573639,-3.7055,CEPSA,0,1,0,0,0.0,0,0,0,0.0,4.283
40.451778,-4.467778,CEPSA,0,1,0,0,0.0,0,0,0,0.0,0.232301
40.301472,-4.639861,LA ADRADA,0,1,0,0,0.0,0,0,0,0.0,0.488443
42.705389,-6.515639,CEPSA,0,1,0,0,0.0,0,0,0,0.0,0.817687
40.876056,-4.572917,REPOSTAR,0,1,0,0,0.0,0,0,0,0.0,1.81775
42.076444,-5.444278,GALP,0,1,0,0,0.0,0,0,0,0.0,0.062864
40.394611,-5.439861,CEPSA,0,1,0,0,0.0,0,0,0,0.0,0.43125
42.512111,-4.010778,CEPSA,0,1,0,0,0.0,0,0,0,0.0,0.02846
42.570806,-6.767972,MOEVE,0,1,0,0,0.0,0,0,0,0.0,1.7855
42.938111,-5.658611,CEPSA,0,1,0,0,0.0,0,0,0,0.0,0.6735
42.219944,-3.999139,CEPSA,0,1,0,0,0.0,0,0,0,0.0,0.373248
42.245333,-3.705972,GALP,0,1,0,0,0.0,0,0,0,0.0,4.625364
42.777778,-5.924861,CEPSA,0,1,0,0,0.0,0,0,0,0.0,0.264841
41.824917,-3.703972,GALP,0,1,0,0,0.0,0,0,0,0.0,0.0245
41.972694,-3.041972,GALP,0,1,0,0,0.0,0,0,0,0.0,0.211724
42.189111,-4.036889,BP,0,1,0,0,0.0,0,0,0,0.0,3.688
41.593833,-3.697222,CEPSA,0,1,0,0,0.0,0,0,0,0.0,2.947295
42.382806,-5.784917,CEPSA,0,1,0,0,0.0,0,0,0,0.0,0.812628
42.978611,-3.222722,GALP,0,1,0,0,0.0,0,0,0,0.0,0.119921
